% program   : RTKPOST-EX 2.5.0
% inp file  : D:\Academic\0 Research\000 In preparation\00 GPS positioning performance circular analysis during short-term fast-developing geomagnetic storms\Storm 2\trie1470.17d
% inp file  : D:\Academic\0 Research\000 In preparation\00 GPS positioning performance circular analysis during short-term fast-developing geomagnetic storms\Storm 2\brdc1470.17n
% obs start : 2017/05/27 00:00:00.0 GPST (week1950 518400.0s)
% obs end   : 2017/05/27 23:59:30.0 GPST (week1950 604770.0s)
% pos mode  : Single
% elev mask : 15.0 deg
% tidecorr  :
% ionos opt : Broadcast
% tropo opt : Saastamoinen
% ephemeris : Broadcast
% navi sys  : GPS
%
% (lat/lon/height=WGS84/ellipsoidal,Q=1:fix,2:float,3:sbas,4:dgps,5:single,6:ppp,ns=# of satellites)
%  GPST                  latitude(deg) longitude(deg)  height(m)   Q  ns   sdn(m)   sde(m)   sdu(m)  sdne(m)  sdeu(m)  sdun(m) age(s)  ratio
2017/05/27 00:00:00.000   45.709759008   13.763527436   322.3257   5  10   2.1070   1.7756   4.6611   0.2522  -1.1964  -0.2342   0.00    0.0
2017/05/27 00:00:30.000   45.709762015   13.763521907   323.0133   5   9   2.5826   1.8658   5.7390  -0.8959  -1.8298   2.2200   0.00    0.0
2017/05/27 00:01:00.000   45.709765384   13.763520782   322.4423   5   9   2.5809   1.8621   5.7278  -0.8906  -1.8152   2.2075   0.00    0.0
2017/05/27 00:01:30.000   45.709763657   13.763522494   322.5148   5   9   2.5791   1.8584   5.7159  -0.8853  -1.8004   2.1944   0.00    0.0
2017/05/27 00:02:00.000   45.709765672   13.763526264   322.6954   5   9   2.5773   1.8548   5.7035  -0.8798  -1.7853   2.1809   0.00    0.0
2017/05/27 00:02:30.000   45.709763582   13.763522089   322.3944   5   9   2.5755   1.8512   5.6905  -0.8742  -1.7700   2.1668   0.00    0.0
2017/05/27 00:03:00.000   45.709763656   13.763526044   322.4262   5   9   2.5736   1.8476   5.6769  -0.8686  -1.7546   2.1522   0.00    0.0
2017/05/27 00:03:30.000   45.709758546   13.763522260   323.5481   5   9   2.5717   1.8441   5.6627  -0.8629  -1.7389   2.1372   0.00    0.0
2017/05/27 00:04:00.000   45.709764046   13.763521934   323.2671   5   9   2.5697   1.8407   5.6480  -0.8572  -1.7231   2.1216   0.00    0.0
2017/05/27 00:04:30.000   45.709759166   13.763520333   323.0981   5   9   2.5677   1.8373   5.6328  -0.8514  -1.7071   2.1056   0.00    0.0
2017/05/27 00:05:00.000   45.709759396   13.763519553   322.3265   5   9   2.5657   1.8339   5.6171  -0.8455  -1.6910   2.0892   0.00    0.0
2017/05/27 00:05:30.000   45.709762487   13.763519835   322.9211   5   9   2.5637   1.8306   5.6009  -0.8396  -1.6747   2.0722   0.00    0.0
2017/05/27 00:06:00.000   45.709762613   13.763516307   322.3897   5   9   2.5617   1.8274   5.5843  -0.8337  -1.6582   2.0549   0.00    0.0
2017/05/27 00:06:30.000   45.709762401   13.763525293   323.0360   5   9   2.5597   1.8242   5.5672  -0.8278  -1.6416   2.0371   0.00    0.0
2017/05/27 00:07:00.000   45.709759785   13.763522239   323.0847   5   9   2.5577   1.8211   5.5497  -0.8218  -1.6250   2.0188   0.00    0.0
2017/05/27 00:07:30.000   45.709761083   13.763522990   322.8028   5   9   2.5557   1.8180   5.5318  -0.8158  -1.6081   2.0001   0.00    0.0
2017/05/27 00:08:00.000   45.709763640   13.763521764   323.1381   5   9   2.5537   1.8150   5.5135  -0.8098  -1.5912   1.9811   0.00    0.0
2017/05/27 00:08:30.000   45.709762077   13.763523690   322.9386   5   9   2.5517   1.8120   5.4948  -0.8038  -1.5742   1.9616   0.00    0.0
2017/05/27 00:09:00.000   45.709762226   13.763522756   323.0041   5   9   2.5497   1.8091   5.4758  -0.7978  -1.5571   1.9417   0.00    0.0
2017/05/27 00:09:30.000   45.709760420   13.763526108   321.5350   5   9   2.5478   1.8063   5.4565  -0.7919  -1.5399   1.9214   0.00    0.0
2017/05/27 00:10:00.000   45.709759986   13.763525978   322.5842   5   9   2.5459   1.8035   5.4369  -0.7859  -1.5227   1.9007   0.00    0.0
2017/05/27 00:10:30.000   45.709761266   13.763525442   322.6217   5   9   2.5440   1.8008   5.4169  -0.7800  -1.5054   1.8796   0.00    0.0
2017/05/27 00:11:00.000   45.709761181   13.763526748   322.8959   5   9   2.5422   1.7982   5.3968  -0.7741  -1.4880   1.8582   0.00    0.0
2017/05/27 00:11:30.000   45.709764392   13.763522628   322.2849   5   9   2.5404   1.7956   5.3763  -0.7682  -1.4706   1.8364   0.00    0.0
2017/05/27 00:12:00.000   45.709761247   13.763520358   322.1677   5   9   2.5387   1.7931   5.3557  -0.7624  -1.4531   1.8142   0.00    0.0
2017/05/27 00:12:30.000   45.709760796   13.763524490   322.5494   5   9   2.5370   1.7906   5.3348  -0.7566  -1.4356   1.7917   0.00    0.0
2017/05/27 00:13:00.000   45.709759571   13.763524503   322.8471   5   9   2.5354   1.7883   5.3138  -0.7508  -1.4181   1.7688   0.00    0.0
2017/05/27 00:13:30.000   45.709768429   13.763521602   322.7891   5   9   2.5338   1.7859   5.2925  -0.7451  -1.4005   1.7455   0.00    0.0
2017/05/27 00:14:00.000   45.709762002   13.763520846   323.1485   5   9   2.5323   1.7837   5.2711  -0.7395  -1.3830   1.7219   0.00    0.0
2017/05/27 00:14:30.000   45.709758532   13.763522675   322.2528   5   9   2.5309   1.7815   5.2496  -0.7339  -1.3654   1.6979   0.00    0.0
2017/05/27 00:15:00.000   45.709758506   13.763526076   322.4440   5   9   2.5296   1.7794   5.2280  -0.7284  -1.3478   1.6735   0.00    0.0
2017/05/27 00:15:30.000   45.709759548   13.763518493   322.6653   5   9   2.5283   1.7773   5.2062  -0.7229  -1.3302   1.6488   0.00    0.0
2017/05/27 00:16:00.000   45.709761635   13.763522255   321.6843   5   9   2.5271   1.7753   5.1844  -0.7176  -1.3126   1.6238   0.00    0.0
2017/05/27 00:16:30.000   45.709761640   13.763523695   322.8111   5   9   2.5259   1.7734   5.1624  -0.7123  -1.2950   1.5983   0.00    0.0
2017/05/27 00:17:00.000   45.709755684   13.763523512   322.4229   5   9   2.5249   1.7715   5.1405  -0.7070  -1.2775   1.5725   0.00    0.0
2017/05/27 00:17:30.000   45.709762274   13.763525588   323.5300   5   9   2.5240   1.7697   5.1184  -0.7019  -1.2599   1.5463   0.00    0.0
2017/05/27 00:18:00.000   45.709762073   13.763525976   321.9779   5   9   2.5231   1.7680   5.0964  -0.6968  -1.2424   1.5198   0.00    0.0
2017/05/27 00:18:30.000   45.709758153   13.763519348   322.9051   5   9   2.5223   1.7663   5.0743  -0.6918  -1.2249   1.4928   0.00    0.0
2017/05/27 00:19:00.000   45.709761764   13.763523971   321.9473   5   9   2.5217   1.7647   5.0522  -0.6869  -1.2074   1.4654   0.00    0.0
2017/05/27 00:19:30.000   45.709760570   13.763526108   322.6870   5   9   2.5211   1.7632   5.0301  -0.6821  -1.1900   1.4376   0.00    0.0
2017/05/27 00:20:00.000   45.709758871   13.763521608   322.6064   5   9   2.5206   1.7617   5.0081  -0.6774  -1.1726   1.4094   0.00    0.0
2017/05/27 00:20:30.000   45.709759130   13.763523019   323.0261   5   9   2.5203   1.7603   4.9861  -0.6727  -1.1552   1.3807   0.00    0.0
2017/05/27 00:21:00.000   45.709762421   13.763523510   321.6205   5   9   2.5200   1.7589   4.9641  -0.6682  -1.1379   1.3516   0.00    0.0
2017/05/27 00:21:30.000   45.709764482   13.763525609   321.6909   5   9   2.5198   1.7576   4.9422  -0.6638  -1.1206   1.3220   0.00    0.0
2017/05/27 00:22:00.000   45.709763538   13.763522645   322.0540   5   9   2.5198   1.7563   4.9203  -0.6594  -1.1034   1.2918   0.00    0.0
2017/05/27 00:22:30.000   45.709764119   13.763519540   322.4421   5   9   2.5199   1.7552   4.8986  -0.6551  -1.0862   1.2611   0.00    0.0
2017/05/27 00:23:00.000   45.709760205   13.763522719   323.0110   5   9   2.5200   1.7540   4.8769  -0.6510  -1.0690   1.2298   0.00    0.0
2017/05/27 00:23:30.000   45.709757675   13.763529661   322.4542   5   9   2.5203   1.7530   4.8553  -0.6469  -1.0519   1.1979   0.00    0.0
2017/05/27 00:24:00.000   45.709760134   13.763520310   321.9438   5   9   2.5207   1.7520   4.8338  -0.6429  -1.0348   1.1653   0.00    0.0
2017/05/27 00:24:30.000   45.709758340   13.763525001   322.3519   5   9   2.5213   1.7510   4.8124  -0.6391  -1.0178   1.1319   0.00    0.0
2017/05/27 00:25:00.000   45.709760013   13.763519389   322.5264   5   9   2.5219   1.7501   4.7912  -0.6353  -1.0009   1.0978   0.00    0.0
2017/05/27 00:25:30.000   45.709762460   13.763526489   322.1146   5   9   2.5227   1.7493   4.7701  -0.6316  -0.9840   1.0628   0.00    0.0
2017/05/27 00:26:00.000   45.709756714   13.763522040   322.5406   5   9   2.5236   1.7485   4.7491  -0.6280  -0.9671   1.0269   0.00    0.0
2017/05/27 00:26:30.000   45.709756054   13.763522974   322.4427   5   9   2.5246   1.7478   4.7283  -0.6246  -0.9503   0.9899   0.00    0.0
2017/05/27 00:27:00.000   45.709758588   13.763528644   323.3475   5   9   2.5257   1.7471   4.7076  -0.6212  -0.9335   0.9517   0.00    0.0
2017/05/27 00:27:30.000   45.709758260   13.763523088   322.6450   5   9   2.5270   1.7464   4.6871  -0.6179  -0.9168   0.9122   0.00    0.0
2017/05/27 00:28:00.000   45.709752485   13.763524985   323.1928   5   8   3.3822   2.0043   6.0463   1.3541  -2.1434  -2.8066   0.00    0.0
2017/05/27 00:28:30.000   45.709757302   13.763524191   323.1988   5   8   3.3997   2.0004   6.0331   1.3586  -2.1312  -2.8377   0.00    0.0
2017/05/27 00:29:00.000   45.709759015   13.763522535   323.0803   5   8   3.4176   1.9967   6.0205   1.3632  -2.1192  -2.8688   0.00    0.0
2017/05/27 00:29:30.000   45.709757951   13.763521818   323.3912   5   8   3.4358   1.9931   6.0084   1.3678  -2.1075  -2.8999   0.00    0.0
2017/05/27 00:30:00.000   45.709755326   13.763522521   323.3812   5   8   3.4544   1.9896   5.9968   1.3723  -2.0960  -2.9310   0.00    0.0
2017/05/27 00:30:30.000   45.709760091   13.763524150   322.8568   5   8   3.4734   1.9862   5.9857   1.3769  -2.0848  -2.9622   0.00    0.0
2017/05/27 00:31:00.000   45.709755187   13.763525924   322.8501   5   8   3.4927   1.9829   5.9751   1.3814  -2.0739  -2.9933   0.00    0.0
2017/05/27 00:31:30.000   45.709755551   13.763525721   323.9618   5   8   3.5125   1.9797   5.9650   1.3859  -2.0632  -3.0245   0.00    0.0
2017/05/27 00:32:00.000   45.709759997   13.763523024   323.3244   5   8   3.5326   1.9767   5.9555   1.3905  -2.0528  -3.0558   0.00    0.0
2017/05/27 00:32:30.000   45.709756122   13.763522830   323.1187   5   8   3.5531   1.9737   5.9465   1.3950  -2.0426  -3.0871   0.00    0.0
2017/05/27 00:33:00.000   45.709751654   13.763523736   323.2598   5   8   3.5741   1.9708   5.9381   1.3996  -2.0327  -3.1185   0.00    0.0
2017/05/27 00:33:30.000   45.709756591   13.763524718   323.3683   5   8   3.5954   1.9679   5.9303   1.4041  -2.0231  -3.1500   0.00    0.0
2017/05/27 00:34:00.000   45.709751046   13.763520367   323.5615   5   8   3.6172   1.9652   5.9230   1.4087  -2.0137  -3.1816   0.00    0.0
2017/05/27 00:34:30.000   45.709752023   13.763525661   323.1768   5   8   3.6393   1.9626   5.9162   1.4133  -2.0046  -3.2133   0.00    0.0
2017/05/27 00:35:00.000   45.709753009   13.763524617   322.8909   5   8   3.6619   1.9601   5.9100   1.4179  -1.9957  -3.2451   0.00    0.0
2017/05/27 00:35:30.000   45.709758713   13.763529397   323.2230   5   8   3.6850   1.9576   5.9045   1.4225  -1.9870  -3.2771   0.00    0.0
2017/05/27 00:36:00.000   45.709753211   13.763522274   323.2723   5   8   3.7085   1.9552   5.8994   1.4272  -1.9787  -3.3092   0.00    0.0
2017/05/27 00:36:30.000   45.709762483   13.763520860   322.6567   5   8   3.7324   1.9530   5.8950   1.4318  -1.9705  -3.3415   0.00    0.0
2017/05/27 00:37:00.000   45.709761442   13.763524649   323.3365   5   8   3.7568   1.9508   5.8912   1.4365  -1.9626  -3.3739   0.00    0.0
2017/05/27 00:37:30.000   45.709756356   13.763516674   323.3151   5   8   3.7816   1.9487   5.8880   1.4412  -1.9549  -3.4066   0.00    0.0
2017/05/27 00:38:00.000   45.709761923   13.763526687   322.7437   5   8   3.8069   1.9466   5.8854   1.4460  -1.9475  -3.4394   0.00    0.0
2017/05/27 00:38:30.000   45.709756251   13.763525447   322.7483   5   8   3.8327   1.9447   5.8834   1.4507  -1.9403  -3.4725   0.00    0.0
2017/05/27 00:39:00.000   45.709756139   13.763529756   322.3283   5   8   3.8590   1.9428   5.8820   1.4555  -1.9334  -3.5057   0.00    0.0
2017/05/27 00:39:30.000   45.709752597   13.763523853   323.4272   5   8   3.8857   1.9410   5.8812   1.4604  -1.9266  -3.5392   0.00    0.0
2017/05/27 00:40:00.000   45.709759540   13.763525340   322.2906   5   8   3.9130   1.9393   5.8811   1.4652  -1.9201  -3.5730   0.00    0.0
2017/05/27 00:40:30.000   45.709757183   13.763519325   323.0632   5   8   3.9407   1.9376   5.8816   1.4701  -1.9139  -3.6069   0.00    0.0
2017/05/27 00:41:00.000   45.709756542   13.763522090   322.6565   5   8   3.9690   1.9361   5.8827   1.4750  -1.9078  -3.6412   0.00    0.0
2017/05/27 00:41:30.000   45.709760581   13.763528913   323.5997   5   8   3.9978   1.9346   5.8845   1.4800  -1.9020  -3.6758   0.00    0.0
2017/05/27 00:42:00.000   45.709756425   13.763525209   323.9391   5   8   4.0272   1.9331   5.8870   1.4850  -1.8964  -3.7106   0.00    0.0
2017/05/27 00:42:30.000   45.709756843   13.763527661   321.8973   5   8   4.0571   1.9318   5.8901   1.4901  -1.8911  -3.7457   0.00    0.0
2017/05/27 00:43:00.000   45.709753118   13.763524398   323.4351   5   8   4.0875   1.9305   5.8938   1.4952  -1.8859  -3.7812   0.00    0.0
2017/05/27 00:43:30.000   45.709755158   13.763521963   323.6822   5   8   4.1185   1.9293   5.8983   1.5003  -1.8810  -3.8170   0.00    0.0
2017/05/27 00:44:00.000   45.709760287   13.763528520   322.4478   5   8   4.1501   1.9281   5.9034   1.5055  -1.8762  -3.8531   0.00    0.0
2017/05/27 00:44:30.000   45.709759660   13.763525769   323.1176   5   8   4.1823   1.9270   5.9092   1.5107  -1.8717  -3.8896   0.00    0.0
2017/05/27 00:45:00.000   45.709762887   13.763525323   322.9475   5   8   4.2150   1.9260   5.9157   1.5160  -1.8674  -3.9265   0.00    0.0
2017/05/27 00:45:30.000   45.709764032   13.763523735   321.8726   5   8   4.2484   1.9250   5.9228   1.5213  -1.8633  -3.9637   0.00    0.0
2017/05/27 00:46:00.000   45.709760378   13.763526542   323.0058   5   8   4.2824   1.9242   5.9307   1.5266  -1.8594  -4.0013   0.00    0.0
2017/05/27 00:46:30.000   45.709759809   13.763521423   322.6577   5   8   4.3170   1.9233   5.9393   1.5321  -1.8557  -4.0394   0.00    0.0
2017/05/27 00:47:00.000   45.709760549   13.763522447   322.0826   5   8   4.3522   1.9226   5.9486   1.5375  -1.8521  -4.0778   0.00    0.0
2017/05/27 00:47:30.000   45.709759275   13.763525065   323.3082   5   8   4.3881   1.9218   5.9587   1.5430  -1.8488  -4.1167   0.00    0.0
2017/05/27 00:48:00.000   45.709759749   13.763523656   323.3435   5   8   4.4246   1.9212   5.9695   1.5486  -1.8457  -4.1560   0.00    0.0
2017/05/27 00:48:30.000   45.709753538   13.763524204   323.4180   5   8   4.4618   1.9206   5.9810   1.5542  -1.8427  -4.1958   0.00    0.0
2017/05/27 00:49:00.000   45.709755587   13.763521969   322.6901   5   8   4.4997   1.9201   5.9932   1.5598  -1.8400  -4.2361   0.00    0.0
2017/05/27 00:49:30.000   45.709754830   13.763520590   323.1822   5   8   4.5383   1.9196   6.0062   1.5655  -1.8374  -4.2768   0.00    0.0
2017/05/27 00:50:00.000   45.709749884   13.763524558   323.2893   5   8   4.5776   1.9192   6.0200   1.5713  -1.8350  -4.3181   0.00    0.0
2017/05/27 00:50:30.000   45.709750609   13.763524813   323.3746   5   8   4.6177   1.9188   6.0346   1.5771  -1.8328  -4.3599   0.00    0.0
2017/05/27 00:51:00.000   45.709741667   13.763523402   324.1385   5   8   4.6584   1.9185   6.0499   1.5829  -1.8307  -4.4022   0.00    0.0
2017/05/27 00:51:30.000   45.709752794   13.763524098   323.7246   5   8   4.6999   1.9183   6.0660   1.5888  -1.8288  -4.4450   0.00    0.0
2017/05/27 00:52:00.000   45.709751353   13.763520246   323.9409   5   8   4.7422   1.9181   6.0829   1.5948  -1.8271  -4.4884   0.00    0.0
2017/05/27 00:52:30.000   45.709756913   13.763526514   322.6032   5   9   4.2459   1.9151   6.0838   1.5270  -1.8125  -4.4206   0.00    0.0
2017/05/27 00:53:00.000   45.709756487   13.763524944   323.7337   5   9   4.2679   1.9147   6.0961   1.5268  -1.8079  -4.4438   0.00    0.0
2017/05/27 00:53:30.000   45.709753647   13.763524133   325.3965   5   7   4.5477   2.0631   6.3740   1.3922  -1.4884  -4.3466   0.00    0.0
2017/05/27 00:54:00.000   45.709760097   13.763523440   324.9692   5   7   4.5655   2.0621   6.3906   1.3908  -1.4790  -4.3712   0.00    0.0
2017/05/27 00:54:30.000   45.709755598   13.763520913   324.0525   5   7   4.5831   2.0612   6.4071   1.3891  -1.4694  -4.3955   0.00    0.0
2017/05/27 00:55:00.000   45.709756416   13.763525517   324.9207   5   7   4.6006   2.0603   6.4233   1.3872  -1.4595  -4.4195   0.00    0.0
2017/05/27 00:55:30.000   45.709760910   13.763524041   324.2330   5   7   4.6180   2.0595   6.4393   1.3851  -1.4494  -4.4431   0.00    0.0
2017/05/27 00:56:00.000   45.709757874   13.763525067   323.3557   5   7   4.6352   2.0587   6.4551   1.3828  -1.4391  -4.4664   0.00    0.0
2017/05/27 00:56:30.000   45.709749845   13.763531371   325.2739   5   7   4.6522   2.0580   6.4706   1.3802  -1.4285  -4.4892   0.00    0.0
2017/05/27 00:57:00.000   45.709752215   13.763524001   324.4881   5   7   4.6691   2.0573   6.4859   1.3774  -1.4175  -4.5117   0.00    0.0
2017/05/27 00:57:30.000   45.709759246   13.763521498   322.6112   5   7   4.6857   2.0566   6.5008   1.3743  -1.4063  -4.5338   0.00    0.0
2017/05/27 00:58:00.000   45.709757807   13.763529282   323.9297   5   7   4.7021   2.0560   6.5154   1.3710  -1.3948  -4.5555   0.00    0.0
2017/05/27 00:58:30.000   45.709754548   13.763525301   323.8445   5   7   4.7183   2.0555   6.5297   1.3674  -1.3830  -4.5768   0.00    0.0
2017/05/27 00:59:00.000   45.709753246   13.763527318   324.2610   5   7   4.7342   2.0549   6.5436   1.3636  -1.3709  -4.5976   0.00    0.0
2017/05/27 00:59:30.000   45.709746112   13.763529944   325.3150   5   7   4.7499   2.0545   6.5572   1.3594  -1.3584  -4.6179   0.00    0.0
2017/05/27 01:00:00.000   45.709751885   13.763526470   323.8409   5   7   4.7653   2.0540   6.5704   1.3550  -1.3455  -4.6378   0.00    0.0
2017/05/27 01:00:30.000   45.709755310   13.763520223   324.3297   5   7   4.7804   2.0537   6.5832   1.3504  -1.3323  -4.6571   0.00    0.0
2017/05/27 01:01:00.000   45.709760796   13.763521621   324.1577   5   7   4.7952   2.0533   6.5955   1.3454  -1.3187  -4.6760   0.00    0.0
2017/05/27 01:01:30.000   45.709754159   13.763525614   324.8244   5   7   4.8098   2.0530   6.6075   1.3402  -1.3046  -4.6944   0.00    0.0
2017/05/27 01:02:00.000   45.709747758   13.763527347   324.8778   5   7   4.8240   2.0528   6.6190   1.3346  -1.2902  -4.7122   0.00    0.0
2017/05/27 01:02:30.000   45.709743260   13.763521973   325.9849   5   7   4.8378   2.0526   6.6300   1.3288  -1.2753  -4.7295   0.00    0.0
2017/05/27 01:03:00.000   45.709758557   13.763520119   323.0949   5   7   4.8513   2.0524   6.6405   1.3227  -1.2600  -4.7463   0.00    0.0
2017/05/27 01:03:30.000   45.709752693   13.763524053   324.4503   5   7   4.8645   2.0523   6.6506   1.3162  -1.2443  -4.7625   0.00    0.0
2017/05/27 01:04:00.000   45.709755727   13.763531899   324.6817   5   7   4.8773   2.0523   6.6602   1.3095  -1.2280  -4.7781   0.00    0.0
2017/05/27 01:04:30.000   45.709750174   13.763527442   325.0526   5   7   4.8897   2.0523   6.6692   1.3024  -1.2112  -4.7931   0.00    0.0
2017/05/27 01:05:00.000   45.709759734   13.763525939   323.6486   5   7   4.9018   2.0523   6.6777   1.2950  -1.1939  -4.8076   0.00    0.0
2017/05/27 01:05:30.000   45.709751274   13.763527099   324.9761   5   7   4.9134   2.0524   6.6857   1.2872  -1.1761  -4.8214   0.00    0.0
2017/05/27 01:06:00.000   45.709756895   13.763525783   323.7072   5   7   4.9246   2.0526   6.6931   1.2791  -1.1577  -4.8346   0.00    0.0
2017/05/27 01:06:30.000   45.709753615   13.763524058   324.0848   5   7   4.9354   2.0528   6.7000   1.2707  -1.1386  -4.8472   0.00    0.0
2017/05/27 01:07:00.000   45.709756413   13.763525919   323.6349   5   7   4.9458   2.0530   6.7063   1.2620  -1.1190  -4.8592   0.00    0.0
2017/05/27 01:07:30.000   45.709764073   13.763529964   322.3503   5   7   4.9557   2.0533   6.7121   1.2529  -1.0987  -4.8706   0.00    0.0
2017/05/27 01:08:00.000   45.709755708   13.763523253   324.6112   5   7   4.9653   2.0537   6.7173   1.2434  -1.0777  -4.8813   0.00    0.0
2017/05/27 01:08:30.000   45.709750706   13.763527106   324.6567   5   7   4.9743   2.0541   6.7218   1.2336  -1.0560  -4.8913   0.00    0.0
2017/05/27 01:09:00.000   45.709759536   13.763521106   322.8375   5   7   4.9829   2.0546   6.7258   1.2234  -1.0335  -4.9007   0.00    0.0
2017/05/27 01:09:30.000   45.709754811   13.763525305   324.7239   5   7   4.9911   2.0551   6.7292   1.2129  -1.0103  -4.9095   0.00    0.0
2017/05/27 01:10:00.000   45.709749622   13.763523765   324.5255   5   7   4.9988   2.0557   6.7320   1.2019  -0.9861  -4.9176   0.00    0.0
2017/05/27 01:10:30.000   45.709759789   13.763526190   323.5130   5   7   5.0060   2.0563   6.7342   1.1906  -0.9611  -4.9250   0.00    0.0
2017/05/27 01:11:00.000   45.709759088   13.763524462   322.8392   5   7   5.0128   2.0570   6.7359   1.1789  -0.9350  -4.9318   0.00    0.0
2017/05/27 01:11:30.000   45.709753509   13.763524092   324.6619   5   7   5.0191   2.0578   6.7369   1.1668  -0.9079  -4.9379   0.00    0.0
2017/05/27 01:12:00.000   45.709757277   13.763523410   323.5352   5   7   5.0249   2.0586   6.7373   1.1543  -0.8797  -4.9433   0.00    0.0
2017/05/27 01:12:30.000   45.709757327   13.763527826   324.8270   5   7   5.0302   2.0595   6.7371   1.1414  -0.8502  -4.9481   0.00    0.0
2017/05/27 01:13:00.000   45.709762381   13.763524926   322.8903   5   7   5.0351   2.0604   6.7363   1.1281  -0.8193  -4.9523   0.00    0.0
2017/05/27 01:13:30.000   45.709756028   13.763524462   322.7441   5   7   5.0395   2.0614   6.7350   1.1144  -0.7869  -4.9558   0.00    0.0
2017/05/27 01:14:00.000   45.709753201   13.763526225   324.3364   5   7   5.0434   2.0625   6.7330   1.1002  -0.7528  -4.9586   0.00    0.0
2017/05/27 01:14:30.000   45.709756072   13.763530911   324.8181   5   7   5.0468   2.0637   6.7305   1.0856  -0.7168  -4.9608   0.00    0.0
2017/05/27 01:15:00.000   45.709752486   13.763529046   324.6677   5   7   5.0498   2.0649   6.7274   1.0705  -0.6785  -4.9624   0.00    0.0
2017/05/27 01:15:30.000   45.709750491   13.763527542   324.9671   5   7   5.0523   2.0661   6.7238   1.0549  -0.6376  -4.9633   0.00    0.0
2017/05/27 01:16:00.000   45.709758110   13.763526114   323.5751   5   7   5.0543   2.0675   6.7195   1.0389  -0.5936  -4.9636   0.00    0.0
2017/05/27 01:16:30.000   45.709761109   13.763522259   323.9038   5   7   5.0559   2.0689   6.7148   1.0224  -0.5456  -4.9633   0.00    0.0
2017/05/27 01:17:00.000   45.709758534   13.763526001   324.1431   5   7   5.0570   2.0704   6.7095   1.0054  -0.4927  -4.9623   0.00    0.0
2017/05/27 01:17:30.000   45.709753779   13.763527805   324.8144   5   7   5.0577   2.0720   6.7037   0.9878  -0.4330  -4.9608   0.00    0.0
2017/05/27 01:18:00.000   45.709761898   13.763522650   323.0210   5   7   3.0937   2.4688   4.6892   1.8015   1.1106  -1.2411   0.00    0.0
2017/05/27 01:18:30.000   45.709762218   13.763524021   322.7081   5   7   3.0944   2.4706   4.6960   1.8036   1.1268  -1.2377   0.00    0.0
2017/05/27 01:19:00.000   45.709760255   13.763529348   324.0153   5   7   3.0950   2.4723   4.7028   1.8057   1.1429  -1.2345   0.00    0.0
2017/05/27 01:19:30.000   45.709761185   13.763524142   323.0780   5   7   3.0957   2.4741   4.7097   1.8077   1.1587  -1.2312   0.00    0.0
2017/05/27 01:20:00.000   45.709758023   13.763522549   323.1515   5   7   3.0963   2.4758   4.7166   1.8095   1.1744  -1.2280   0.00    0.0
2017/05/27 01:20:30.000   45.709764957   13.763523554   322.8649   5   7   3.0969   2.4776   4.7236   1.8113   1.1898  -1.2248   0.00    0.0
2017/05/27 01:21:00.000   45.709765415   13.763532176   323.1393   5   7   3.0976   2.4793   4.7306   1.8130   1.2050  -1.2217   0.00    0.0
2017/05/27 01:21:30.000   45.709764613   13.763528381   322.7795   5   7   3.0982   2.4810   4.7377   1.8146   1.2200  -1.2186   0.00    0.0
2017/05/27 01:22:00.000   45.709764198   13.763523014   322.3808   5   7   3.0988   2.4827   4.7448   1.8160   1.2348  -1.2155   0.00    0.0
2017/05/27 01:22:30.000   45.709762413   13.763527845   322.2872   5   7   3.0993   2.4844   4.7519   1.8174   1.2494  -1.2125   0.00    0.0
2017/05/27 01:23:00.000   45.709764969   13.763530495   322.6279   5   7   3.0999   2.4860   4.7590   1.8187   1.2638  -1.2096   0.00    0.0
2017/05/27 01:23:30.000   45.709760029   13.763522880   322.6238   5   7   3.1004   2.4877   4.7662   1.8198   1.2780  -1.2066   0.00    0.0
2017/05/27 01:24:00.000   45.709763631   13.763523223   321.4910   5   7   3.1009   2.4893   4.7734   1.8209   1.2921  -1.2038   0.00    0.0
2017/05/27 01:24:30.000   45.709764071   13.763526344   322.5407   5   7   3.1014   2.4909   4.7806   1.8218   1.3059  -1.2010   0.00    0.0
2017/05/27 01:25:00.000   45.709759150   13.763526605   323.6254   5   7   3.1019   2.4924   4.7879   1.8227   1.3195  -1.1983   0.00    0.0
2017/05/27 01:25:30.000   45.709758431   13.763528543   323.7493   5   7   3.1024   2.4940   4.7952   1.8234   1.3330  -1.1956   0.00    0.0
2017/05/27 01:26:00.000   45.709757873   13.763528618   322.5873   5   6   3.1068   2.8573   5.6858   1.8831  -1.5567  -1.3790   0.00    0.0
2017/05/27 01:26:30.000   45.709759036   13.763530467   321.6320   5   6   3.1069   2.8520   5.7024   1.8803  -1.5407  -1.3697   0.00    0.0
2017/05/27 01:27:00.000   45.709763436   13.763527574   323.2989   5   6   3.1069   2.8467   5.7192   1.8775  -1.5244  -1.3604   0.00    0.0
2017/05/27 01:27:30.000   45.709759652   13.763535650   324.0363   5   6   3.1070   2.8415   5.7360   1.8746  -1.5078  -1.3508   0.00    0.0
2017/05/27 01:28:00.000   45.709760020   13.763533678   322.6831   5   6   3.1070   2.8362   5.7529   1.8716  -1.4909  -1.3411   0.00    0.0
2017/05/27 01:28:30.000   45.709757557   13.763528528   323.9754   5   6   3.1071   2.8309   5.7699   1.8685  -1.4737  -1.3313   0.00    0.0
2017/05/27 01:29:00.000   45.709762982   13.763529918   321.7538   5   6   3.1071   2.8257   5.7869   1.8654  -1.4561  -1.3213   0.00    0.0
2017/05/27 01:29:30.000   45.709766593   13.763532735   321.5887   5   6   3.1072   2.8204   5.8039   1.8621  -1.4382  -1.3111   0.00    0.0
2017/05/27 01:30:00.000   45.709759425   13.763528692   322.3084   5   6   3.1072   2.8152   5.8210   1.8589  -1.4199  -1.3009   0.00    0.0
2017/05/27 01:30:30.000   45.709762681   13.763534747   322.3416   5   6   3.1072   2.8100   5.8382   1.8555  -1.4012  -1.2904   0.00    0.0
2017/05/27 01:31:00.000   45.709762712   13.763532697   323.1451   5   6   3.1073   2.8048   5.8554   1.8520  -1.3822  -1.2799   0.00    0.0
2017/05/27 01:31:30.000   45.709765354   13.763532010   322.2826   5   6   3.1073   2.7996   5.8725   1.8485  -1.3628  -1.2692   0.00    0.0
2017/05/27 01:32:00.000   45.709764125   13.763533330   321.5092   5   6   3.1073   2.7944   5.8898   1.8449  -1.3430  -1.2584   0.00    0.0
2017/05/27 01:32:30.000   45.709763347   13.763529367   323.2708   5   6   3.1073   2.7892   5.9070   1.8413  -1.3228  -1.2474   0.00    0.0
2017/05/27 01:33:00.000   45.709760516   13.763536998   322.7577   5   6   3.1073   2.7840   5.9242   1.8375  -1.3021  -1.2363   0.00    0.0
2017/05/27 01:33:30.000   45.709764418   13.763529389   321.7287   5   6   3.1073   2.7788   5.9414   1.8337  -1.2810  -1.2251   0.00    0.0
2017/05/27 01:34:00.000   45.709761966   13.763535637   322.2525   5   6   3.1074   2.7736   5.9586   1.8298  -1.2595  -1.2138   0.00    0.0
2017/05/27 01:34:30.000   45.709759487   13.763534525   322.8948   5   6   3.1074   2.7685   5.9758   1.8259  -1.2374  -1.2024   0.00    0.0
2017/05/27 01:35:00.000   45.709764092   13.763528977   321.7818   5   6   3.1074   2.7634   5.9929   1.8218  -1.2149  -1.1909   0.00    0.0
2017/05/27 01:35:30.000   45.709764908   13.763530230   322.3997   5   6   3.1074   2.7582   6.0100   1.8177  -1.1918  -1.1793   0.00    0.0
2017/05/27 01:36:00.000   45.709760047   13.763531895   322.4710   5   6   3.1074   2.7531   6.0271   1.8135  -1.1682  -1.1675   0.00    0.0
2017/05/27 01:36:30.000   45.709757469   13.763531168   322.8633   5   6   3.1074   2.7480   6.0441   1.8093  -1.1441  -1.1557   0.00    0.0
2017/05/27 01:37:00.000   45.709762303   13.763535996   322.1336   5   6   3.1075   2.7429   6.0610   1.8050  -1.1193  -1.1439   0.00    0.0
2017/05/27 01:37:30.000   45.709761676   13.763528123   322.6499   5   6   3.1075   2.7379   6.0779   1.8006  -1.0939  -1.1319   0.00    0.0
2017/05/27 01:38:00.000   45.709764524   13.763528909   321.4786   5   6   3.1075   2.7328   6.0947   1.7961  -1.0678  -1.1199   0.00    0.0
2017/05/27 01:38:30.000   45.709760180   13.763531646   322.5012   5   6   3.1075   2.7278   6.1114   1.7916  -1.0410  -1.1078   0.00    0.0
2017/05/27 01:39:00.000   45.709762756   13.763532364   323.2598   5   6   3.1075   2.7227   6.1279   1.7870  -1.0134  -1.0957   0.00    0.0
2017/05/27 01:39:30.000   45.709768125   13.763534856   322.3376   5   6   3.1076   2.7177   6.1444   1.7823  -0.9850  -1.0836   0.00    0.0
2017/05/27 01:40:00.000   45.709760154   13.763527728   322.3250   5   6   3.1076   2.7127   6.1608   1.7775  -0.9558  -1.0714   0.00    0.0
2017/05/27 01:40:30.000   45.709758691   13.763533906   322.9070   5   6   3.1077   2.7078   6.1770   1.7727  -0.9256  -1.0592   0.00    0.0
2017/05/27 01:41:00.000   45.709765918   13.763531656   321.2529   5   6   3.1077   2.7028   6.1931   1.7678  -0.8944  -1.0471   0.00    0.0
2017/05/27 01:41:30.000   45.709764817   13.763533185   321.8487   5   6   3.1078   2.6978   6.2090   1.7629  -0.8620  -1.0349   0.00    0.0
2017/05/27 01:42:00.000   45.709761455   13.763531182   321.0991   5   6   3.1078   2.6929   6.2248   1.7578  -0.8285  -1.0228   0.00    0.0
2017/05/27 01:42:30.000   45.709760313   13.763532132   322.6013   5   6   3.1079   2.6880   6.2404   1.7527  -0.7935  -1.0107   0.00    0.0
2017/05/27 01:43:00.000   45.709760919   13.763532206   321.2840   5   6   3.1080   2.6831   6.2558   1.7475  -0.7569  -0.9987   0.00    0.0
2017/05/27 01:43:30.000   45.709761032   13.763531870   321.7625   5   6   3.1080   2.6782   6.2710   1.7423  -0.7186  -0.9868   0.00    0.0
2017/05/27 01:44:00.000   45.709760928   13.763528315   322.6432   5   6   3.1081   2.6734   6.2860   1.7369  -0.6782  -0.9750   0.00    0.0
2017/05/27 01:44:30.000   45.709761918   13.763533286   322.6978   5   6   3.1082   2.6685   6.3008   1.7315  -0.6354  -0.9633   0.00    0.0
2017/05/27 01:45:00.000   45.709760060   13.763530392   322.0854   5   6   3.1083   2.6637   6.3154   1.7260  -0.5896  -0.9518   0.00    0.0
2017/05/27 01:45:30.000   45.709757416   13.763531176   324.0860   5   6   3.1085   2.6589   6.3297   1.7205  -0.5402  -0.9404   0.00    0.0
2017/05/27 01:46:00.000   45.709755674   13.763531560   322.8595   5   6   3.1086   2.6541   6.3438   1.7148  -0.4860  -0.9292   0.00    0.0
2017/05/27 01:46:30.000   45.709760015   13.763529703   322.1694   5   6   3.1087   2.6493   6.3577   1.7091  -0.4252  -0.9182   0.00    0.0
2017/05/27 01:47:00.000   45.709761188   13.763529027   322.8582   5   6   3.1089   2.6446   6.3712   1.7033  -0.3546  -0.9074   0.00    0.0
2017/05/27 01:47:30.000   45.709761115   13.763527805   322.1093   5   6   3.1090   2.6398   6.3845   1.6975  -0.2664  -0.8969   0.00    0.0
2017/05/27 01:48:00.000   45.709760587   13.763535308   322.1995   5   6   3.1092   2.6351   6.3975   1.6915  -0.1287  -0.8866   0.00    0.0
2017/05/27 01:48:30.000   45.709760093   13.763529652   322.6300   5   6   3.1094   2.6304   6.4102   1.6855   0.1936  -0.8767   0.00    0.0
2017/05/27 01:49:00.000   45.709758987   13.763534184   323.4488   5   6   3.1096   2.6257   6.4226   1.6794   0.3018  -0.8671   0.00    0.0
2017/05/27 01:49:30.000   45.709762068   13.763525660   322.0089   5   6   3.1098   2.6210   6.4347   1.6732   0.3799  -0.8579   0.00    0.0
2017/05/27 01:50:00.000   45.709759221   13.763530106   322.1196   5   6   3.1101   2.6164   6.4464   1.6669   0.4439  -0.8491   0.00    0.0
2017/05/27 01:50:30.000   45.709765140   13.763530458   321.2672   5   6   3.1103   2.6118   6.4578   1.6606   0.4993  -0.8407   0.00    0.0
2017/05/27 01:51:00.000   45.709760349   13.763526739   321.2396   5   6   3.1106   2.6072   6.4688   1.6542   0.5487  -0.8327   0.00    0.0
2017/05/27 01:51:30.000   45.709758650   13.763525994   321.6570   5   6   3.1109   2.6026   6.4795   1.6476   0.5935  -0.8252   0.00    0.0
2017/05/27 01:52:00.000   45.709761992   13.763527540   321.9187   5   6   3.1112   2.5980   6.4898   1.6410   0.6347  -0.8183   0.00    0.0
2017/05/27 01:52:30.000   45.709754997   13.763535242   322.9718   5   6   3.1116   2.5934   6.4997   1.6343   0.6729  -0.8118   0.00    0.0
2017/05/27 01:53:00.000   45.709760890   13.763532962   321.3433   5   6   3.1119   2.5889   6.5093   1.6275   0.7087  -0.8060   0.00    0.0
2017/05/27 01:53:30.000   45.709763416   13.763526813   322.2124   5   6   3.1123   2.5844   6.5184   1.6207   0.7423  -0.8007   0.00    0.0
2017/05/27 01:54:00.000   45.709753118   13.763524326   323.4255   5   6   3.1127   2.5798   6.5272   1.6137   0.7740  -0.7961   0.00    0.0
2017/05/27 01:54:30.000   45.709757597   13.763528706   322.6508   5   6   3.1131   2.5754   6.5355   1.6066   0.8040  -0.7921   0.00    0.0
2017/05/27 01:55:00.000   45.709757627   13.763533828   322.0448   5   6   3.1135   2.5709   6.5434   1.5995   0.8325  -0.7888   0.00    0.0
2017/05/27 01:55:30.000   45.709754797   13.763535575   322.5323   5   6   3.1140   2.5664   6.5509   1.5922   0.8596  -0.7862   0.00    0.0
2017/05/27 01:56:00.000   45.709761905   13.763533941   322.0412   5   6   3.1145   2.5620   6.5579   1.5849   0.8854  -0.7842   0.00    0.0
2017/05/27 01:56:30.000   45.709755787   13.763527405   321.0473   5   6   3.1150   2.5576   6.5646   1.5774   0.9101  -0.7831   0.00    0.0
2017/05/27 01:57:00.000   45.709762043   13.763530879   321.8100   5   6   3.1156   2.5531   6.5707   1.5699   0.9337  -0.7826   0.00    0.0
2017/05/27 01:57:30.000   45.709759606   13.763526269   322.5188   5   6   3.1161   2.5487   6.5764   1.5622   0.9563  -0.7829   0.00    0.0
2017/05/27 01:58:00.000   45.709761677   13.763530637   321.1263   5   6   3.1168   2.5444   6.5817   1.5544   0.9779  -0.7840   0.00    0.0
2017/05/27 01:58:30.000   45.709757424   13.763532125   322.1119   5   6   3.1174   2.5400   6.5865   1.5466   0.9986  -0.7859   0.00    0.0
2017/05/27 01:59:00.000   45.709758721   13.763533920   321.5716   5   6   3.1181   2.5356   6.5908   1.5386   1.0184  -0.7885   0.00    0.0
2017/05/27 01:59:30.000   45.709761749   13.763527948   321.9907   5   6   3.1188   2.5313   6.5947   1.5305   1.0374  -0.7919   0.00    0.0
2017/05/27 02:00:00.000   45.709758315   13.763530027   321.8714   5   6   3.1195   2.5270   6.5981   1.5223   1.0556  -0.7960   0.00    0.0
2017/05/27 02:00:30.000   45.709759293   13.763532166   321.6228   5   6   3.1203   2.5227   6.6010   1.5140   1.0731  -0.8009   0.00    0.0
2017/05/27 02:01:00.000   45.709755179   13.763530735   322.8366   5   6   3.1211   2.5184   6.6034   1.5056   1.0899  -0.8066   0.00    0.0
2017/05/27 02:01:30.000   45.709759357   13.763533538   322.1122   5   6   3.1220   2.5141   6.6054   1.4971   1.1059  -0.8130   0.00    0.0
2017/05/27 02:02:00.000   45.709758001   13.763534577   322.4419   5   6   3.1229   2.5099   6.6069   1.4884   1.1213  -0.8201   0.00    0.0
2017/05/27 02:02:30.000   45.709763670   13.763527573   321.1956   5   6   3.1238   2.5056   6.6079   1.4797   1.1361  -0.8280   0.00    0.0
2017/05/27 02:03:00.000   45.709759517   13.763527246   320.7642   5   6   3.1248   2.5014   6.6084   1.4708   1.1502  -0.8365   0.00    0.0
2017/05/27 02:03:30.000   45.709758032   13.763525196   322.7959   5   6   3.1258   2.4971   6.6085   1.4618   1.1637  -0.8457   0.00    0.0
2017/05/27 02:04:00.000   45.709760910   13.763534216   322.6138   5   6   3.1269   2.4929   6.6081   1.4526   1.1767  -0.8555   0.00    0.0
2017/05/27 02:04:30.000   45.709760541   13.763528497   321.9099   5   6   3.1280   2.4888   6.6072   1.4434   1.1890  -0.8659   0.00    0.0
2017/05/27 02:05:00.000   45.709756135   13.763531396   322.5543   5   7   2.9304   2.2703   5.6544   0.9738   2.2112   1.7262   0.00    0.0
2017/05/27 02:05:30.000   45.709759088   13.763530949   322.1582   5   7   2.9296   2.2686   5.6572   0.9606   2.2105   1.7230   0.00    0.0
2017/05/27 02:06:00.000   45.709758185   13.763532237   322.3012   5   8   2.4341   2.1058   4.7245  -0.6859   1.5054  -1.4557   0.00    0.0
2017/05/27 02:06:30.000   45.709759015   13.763524599   322.5759   5   8   2.4334   2.1058   4.7331  -0.6994   1.5110  -1.4547   0.00    0.0
2017/05/27 02:07:00.000   45.709755733   13.763525239   322.4427   5   8   2.4327   2.1058   4.7417  -0.7126   1.5164  -1.4536   0.00    0.0
2017/05/27 02:07:30.000   45.709752937   13.763522958   322.3786   5   8   2.4321   2.1058   4.7502  -0.7255   1.5218  -1.4524   0.00    0.0
2017/05/27 02:08:00.000   45.709752445   13.763531045   322.1809   5   8   2.4316   2.1059   4.7586  -0.7382   1.5271  -1.4512   0.00    0.0
2017/05/27 02:08:30.000   45.709761007   13.763530225   321.3006   5   8   2.4311   2.1060   4.7669  -0.7506   1.5324  -1.4498   0.00    0.0
2017/05/27 02:09:00.000   45.709755425   13.763526633   322.0242   5   8   2.4307   2.1062   4.7751  -0.7629   1.5376  -1.4484   0.00    0.0
2017/05/27 02:09:30.000   45.709754805   13.763531497   322.5052   5   8   2.4304   2.1064   4.7832  -0.7749   1.5428  -1.4469   0.00    0.0
2017/05/27 02:10:00.000   45.709753479   13.763526308   322.4666   5   8   2.4301   2.1066   4.7912  -0.7867   1.5478  -1.4453   0.00    0.0
2017/05/27 02:10:30.000   45.709757384   13.763528139   321.5431   5   8   2.4299   2.1069   4.7991  -0.7983   1.5528  -1.4436   0.00    0.0
2017/05/27 02:11:00.000   45.709754842   13.763527375   322.0276   5   8   2.4298   2.1072   4.8068  -0.8097   1.5577  -1.4419   0.00    0.0
2017/05/27 02:11:30.000   45.709751149   13.763529325   322.5736   5   8   2.4297   2.1076   4.8144  -0.8210   1.5626  -1.4400   0.00    0.0
2017/05/27 02:12:00.000   45.709758710   13.763527396   321.7560   5   8   2.4297   2.1080   4.8220  -0.8321   1.5673  -1.4381   0.00    0.0
2017/05/27 02:12:30.000   45.709756831   13.763534228   323.2139   5   8   2.4297   2.1084   4.8293  -0.8430   1.5720  -1.4361   0.00    0.0
2017/05/27 02:13:00.000   45.709756933   13.763531569   321.5612   5   8   2.4299   2.1089   4.8366  -0.8538   1.5766  -1.4340   0.00    0.0
2017/05/27 02:13:30.000   45.709756995   13.763525669   322.8602   5   8   2.4301   2.1094   4.8437  -0.8644   1.5811  -1.4318   0.00    0.0
2017/05/27 02:14:00.000   45.709753468   13.763529429   321.9905   5   8   2.4303   2.1099   4.8506  -0.8749   1.5855  -1.4295   0.00    0.0
2017/05/27 02:14:30.000   45.709752877   13.763527953   322.2967   5   8   2.4307   2.1105   4.8574  -0.8853   1.5898  -1.4272   0.00    0.0
2017/05/27 02:15:00.000   45.709751509   13.763532166   322.6298   5   8   2.4310   2.1110   4.8640  -0.8955   1.5940  -1.4247   0.00    0.0
2017/05/27 02:15:30.000   45.709755908   13.763531153   322.3899   5   8   2.4315   2.1117   4.8705  -0.9057   1.5981  -1.4222   0.00    0.0
2017/05/27 02:16:00.000   45.709752573   13.763534763   322.7277   5   8   2.4320   2.1123   4.8768  -0.9157   1.6021  -1.4196   0.00    0.0
2017/05/27 02:16:30.000   45.709752980   13.763529714   322.6161   5   8   2.4326   2.1130   4.8830  -0.9255   1.6060  -1.4169   0.00    0.0
2017/05/27 02:17:00.000   45.709755771   13.763528315   322.6702   5   8   2.4333   2.1137   4.8890  -0.9353   1.6098  -1.4141   0.00    0.0
2017/05/27 02:17:30.000   45.709756260   13.763529454   322.2336   5   8   2.4340   2.1145   4.8948  -0.9450   1.6134  -1.4112   0.00    0.0
2017/05/27 02:18:00.000   45.709753549   13.763532118   322.5743   5   8   2.4348   2.1153   4.9004  -0.9546   1.6170  -1.4083   0.00    0.0
2017/05/27 02:18:30.000   45.709753915   13.763528373   322.9697   5   8   2.4356   2.1161   4.9059  -0.9641   1.6205  -1.4052   0.00    0.0
2017/05/27 02:19:00.000   45.709752940   13.763532314   322.8555   5   8   2.4365   2.1169   4.9111  -0.9735   1.6238  -1.4020   0.00    0.0
2017/05/27 02:19:30.000   45.709754319   13.763528424   322.0017   5   8   2.4375   2.1178   4.9162  -0.9828   1.6270  -1.3988   0.00    0.0
2017/05/27 02:20:00.000   45.709755096   13.763527476   322.1599   5   8   2.4386   2.1186   4.9211  -0.9920   1.6301  -1.3955   0.00    0.0
2017/05/27 02:20:30.000   45.709753318   13.763528503   321.7885   5   8   2.4397   2.1196   4.9258  -1.0012   1.6331  -1.3921   0.00    0.0
2017/05/27 02:21:00.000   45.709754596   13.763525834   322.0236   5   8   2.4409   2.1205   4.9303  -1.0102   1.6360  -1.3885   0.00    0.0
2017/05/27 02:21:30.000   45.709755663   13.763528249   321.7340   5   8   2.4421   2.1215   4.9346  -1.0192   1.6387  -1.3849   0.00    0.0
2017/05/27 02:22:00.000   45.709753753   13.763530802   321.9024   5   8   2.4434   2.1225   4.9386  -1.0281   1.6413  -1.3812   0.00    0.0
2017/05/27 02:22:30.000   45.709753508   13.763523809   322.1492   5   8   2.4448   2.1235   4.9425  -1.0370   1.6438  -1.3774   0.00    0.0
2017/05/27 02:23:00.000   45.709753217   13.763523827   321.8582   5   8   2.4463   2.1245   4.9462  -1.0458   1.6461  -1.3735   0.00    0.0
2017/05/27 02:23:30.000   45.709755404   13.763523040   321.6137   5   8   2.4478   2.1256   4.9497  -1.0545   1.6483  -1.3695   0.00    0.0
2017/05/27 02:24:00.000   45.709758352   13.763527917   321.4969   5   8   2.4494   2.1267   4.9529  -1.0631   1.6504  -1.3654   0.00    0.0
2017/05/27 02:24:30.000   45.709756385   13.763526986   322.4150   5   8   2.4510   2.1278   4.9560  -1.0717   1.6524  -1.3612   0.00    0.0
2017/05/27 02:25:00.000   45.709753493   13.763529865   322.2874   5   8   2.4528   2.1289   4.9588  -1.0803   1.6541  -1.3570   0.00    0.0
2017/05/27 02:25:30.000   45.709754866   13.763529090   321.1486   5   8   2.4545   2.1301   4.9614  -1.0888   1.6558  -1.3526   0.00    0.0
2017/05/27 02:26:00.000   45.709756121   13.763530521   322.3831   5   8   2.4564   2.1312   4.9638  -1.0972   1.6573  -1.3481   0.00    0.0
2017/05/27 02:26:30.000   45.709754854   13.763529568   322.2970   5   8   2.4583   2.1324   4.9660  -1.1056   1.6587  -1.3435   0.00    0.0
2017/05/27 02:27:00.000   45.709754989   13.763524422   321.9729   5   8   2.4603   2.1337   4.9679  -1.1139   1.6599  -1.3387   0.00    0.0
2017/05/27 02:27:30.000   45.709753530   13.763528173   322.7186   5   8   2.4624   2.1349   4.9697  -1.1222   1.6610  -1.3339   0.00    0.0
2017/05/27 02:28:00.000   45.709753394   13.763531883   321.9066   5   8   2.4645   2.1362   4.9712  -1.1305   1.6619  -1.3290   0.00    0.0
2017/05/27 02:28:30.000   45.709754704   13.763529644   321.5846   5   8   2.4667   2.1375   4.9725  -1.1387   1.6627  -1.3240   0.00    0.0
2017/05/27 02:29:00.000   45.709754214   13.763532809   321.3350   5   8   2.4690   2.1388   4.9736  -1.1468   1.6633  -1.3188   0.00    0.0
2017/05/27 02:29:30.000   45.709753430   13.763532586   322.2817   5   8   2.4713   2.1401   4.9744  -1.1550   1.6637  -1.3136   0.00    0.0
2017/05/27 02:30:00.000   45.709755873   13.763528357   321.2661   5   8   2.4738   2.1415   4.9751  -1.1630   1.6641  -1.3082   0.00    0.0
2017/05/27 02:30:30.000   45.709754623   13.763530101   322.0856   5   8   2.4762   2.1428   4.9755  -1.1711   1.6642  -1.3027   0.00    0.0
2017/05/27 02:31:00.000   45.709756082   13.763527574   321.9073   5   8   2.4788   2.1442   4.9757  -1.1791   1.6642  -1.2971   0.00    0.0
2017/05/27 02:31:30.000   45.709751746   13.763533554   321.4933   5   8   2.4814   2.1456   4.9757  -1.1871   1.6640  -1.2913   0.00    0.0
2017/05/27 02:32:00.000   45.709756900   13.763527441   323.3876   5   7   2.7733   2.4199   5.6088  -1.6747  -0.3493   1.2410   0.00    0.0
2017/05/27 02:32:30.000   45.709761091   13.763521317   322.8505   5   7   2.7810   2.4218   5.6225  -1.6848  -0.4015   1.2741   0.00    0.0
2017/05/27 02:33:00.000   45.709756669   13.763520985   324.3293   5   7   2.7888   2.4238   5.6360  -1.6948  -0.4483   1.3068   0.00    0.0
2017/05/27 02:33:30.000   45.709763222   13.763519092   322.8821   5   7   2.7968   2.4258   5.6494  -1.7049  -0.4911   1.3389   0.00    0.0
2017/05/27 02:34:00.000   45.709762967   13.763526578   323.3555   5   7   2.8048   2.4279   5.6625  -1.7150  -0.5310   1.3705   0.00    0.0
2017/05/27 02:34:30.000   45.709761353   13.763522761   324.4801   5   7   2.8130   2.4300   5.6754  -1.7252  -0.5685   1.4017   0.00    0.0
2017/05/27 02:35:00.000   45.709760378   13.763521172   322.7505   5   7   2.8213   2.4322   5.6881  -1.7353  -0.6040   1.4325   0.00    0.0
2017/05/27 02:35:30.000   45.709759605   13.763529919   322.8178   5   7   2.8298   2.4345   5.7006  -1.7455  -0.6379   1.4628   0.00    0.0
2017/05/27 02:36:00.000   45.709762503   13.763522158   323.4460   5   7   2.8383   2.4367   5.7128  -1.7557  -0.6704   1.4927   0.00    0.0
2017/05/27 02:36:30.000   45.709761577   13.763519485   322.9327   5   7   2.8470   2.4391   5.7248  -1.7659  -0.7017   1.5222   0.00    0.0
2017/05/27 02:37:00.000   45.709758758   13.763520712   323.2106   5   7   2.8558   2.4414   5.7365  -1.7762  -0.7319   1.5513   0.00    0.0
2017/05/27 02:37:30.000   45.709758673   13.763522944   323.2187   5   7   2.8647   2.4438   5.7479  -1.7864  -0.7611   1.5801   0.00    0.0
2017/05/27 02:38:00.000   45.709759184   13.763519062   323.0434   5   7   2.8738   2.4463   5.7591  -1.7967  -0.7895   1.6084   0.00    0.0
2017/05/27 02:38:30.000   45.709759934   13.763523143   323.0483   5   7   2.8829   2.4488   5.7700  -1.8069  -0.8171   1.6364   0.00    0.0
2017/05/27 02:39:00.000   45.709754280   13.763519574   322.7690   5   7   2.8921   2.4514   5.7805  -1.8172  -0.8439   1.6640   0.00    0.0
2017/05/27 02:39:30.000   45.709761435   13.763520527   323.1253   5   7   2.9015   2.4540   5.7908  -1.8275  -0.8700   1.6912   0.00    0.0
2017/05/27 02:40:00.000   45.709759103   13.763523576   322.8679   5   7   2.9110   2.4566   5.8007  -1.8378  -0.8955   1.7181   0.00    0.0
2017/05/27 02:40:30.000   45.709758002   13.763518483   322.6764   5   7   2.9205   2.4593   5.8103  -1.8481  -0.9204   1.7446   0.00    0.0
2017/05/27 02:41:00.000   45.709759093   13.763524032   323.0916   5   7   2.9302   2.4620   5.8196  -1.8584  -0.9448   1.7707   0.00    0.0
2017/05/27 02:41:30.000   45.709763635   13.763515297   323.8755   5   7   2.9399   2.4647   5.8285  -1.8688  -0.9686   1.7964   0.00    0.0
2017/05/27 02:42:00.000   45.709761297   13.763518780   324.1176   5   7   2.9497   2.4675   5.8370  -1.8791  -0.9918   1.8218   0.00    0.0
2017/05/27 02:42:30.000   45.709758936   13.763527186   322.5753   5   7   2.9597   2.4703   5.8452  -1.8894  -1.0146   1.8468   0.00    0.0
2017/05/27 02:43:00.000   45.709758040   13.763524878   323.2399   5   7   2.9697   2.4731   5.8530  -1.8997  -1.0369   1.8714   0.00    0.0
2017/05/27 02:43:30.000   45.709758751   13.763522263   323.4808   5   7   2.9797   2.4760   5.8603  -1.9100  -1.0587   1.8956   0.00    0.0
2017/05/27 02:44:00.000   45.709755585   13.763520407   323.0422   5   7   2.9899   2.4789   5.8673  -1.9203  -1.0800   1.9194   0.00    0.0
2017/05/27 02:44:30.000   45.709760876   13.763515922   322.7086   5   8   2.6880   2.1426   5.5347  -1.4346  -1.9173   2.5290   0.00    0.0
2017/05/27 02:45:00.000   45.709756713   13.763520524   321.8766   5   8   2.6934   2.1420   5.5516  -1.4399  -1.9230   2.5437   0.00    0.0
2017/05/27 02:45:30.000   45.709759791   13.763518422   322.3500   5   8   2.6987   2.1413   5.5680  -1.4450  -1.9285   2.5580   0.00    0.0
2017/05/27 02:46:00.000   45.709759995   13.763525043   322.1424   5   8   2.7040   2.1406   5.5839  -1.4499  -1.9335   2.5718   0.00    0.0
2017/05/27 02:46:30.000   45.709764011   13.763517559   322.4806   5   8   2.7092   2.1399   5.5994  -1.4547  -1.9382   2.5852   0.00    0.0
2017/05/27 02:47:00.000   45.709760360   13.763520182   323.0881   5   8   2.7143   2.1391   5.6144  -1.4593  -1.9426   2.5982   0.00    0.0
2017/05/27 02:47:30.000   45.709762747   13.763513222   322.5467   5   8   2.7192   2.1383   5.6288  -1.4637  -1.9466   2.6107   0.00    0.0
2017/05/27 02:48:00.000   45.709759602   13.763519977   322.6229   5   8   2.7241   2.1375   5.6427  -1.4679  -1.9502   2.6227   0.00    0.0
2017/05/27 02:48:30.000   45.709761574   13.763517361   323.0147   5   8   2.7289   2.1366   5.6561  -1.4720  -1.9534   2.6342   0.00    0.0
2017/05/27 02:49:00.000   45.709763937   13.763517434   323.4322   5   8   2.7336   2.1357   5.6688  -1.4759  -1.9563   2.6452   0.00    0.0
2017/05/27 02:49:30.000   45.709761647   13.763523181   322.9962   5   8   2.7381   2.1347   5.6810  -1.4795  -1.9587   2.6557   0.00    0.0
2017/05/27 02:50:00.000   45.709759346   13.763521172   323.2102   5   8   2.7425   2.1337   5.6925  -1.4830  -1.9608   2.6656   0.00    0.0
2017/05/27 02:50:30.000   45.709764904   13.763517998   322.9604   5   8   2.7468   2.1326   5.7034  -1.4863  -1.9624   2.6751   0.00    0.0
2017/05/27 02:51:00.000   45.709763096   13.763519859   322.1764   5   8   2.7510   2.1315   5.7136  -1.4894  -1.9636   2.6839   0.00    0.0
2017/05/27 02:51:30.000   45.709763155   13.763514906   322.9046   5   8   2.7550   2.1303   5.7232  -1.4923  -1.9644   2.6923   0.00    0.0
2017/05/27 02:52:00.000   45.709763949   13.763517225   322.3081   5   8   2.7588   2.1291   5.7320  -1.4950  -1.9648   2.7000   0.00    0.0
2017/05/27 02:52:30.000   45.709761119   13.763515138   322.9429   5   8   2.7625   2.1278   5.7402  -1.4975  -1.9647   2.7072   0.00    0.0
2017/05/27 02:53:00.000   45.709760182   13.763522037   322.5742   5   8   2.7661   2.1265   5.7476  -1.4998  -1.9642   2.7137   0.00    0.0
2017/05/27 02:53:30.000   45.709762887   13.763519917   322.2239   5   8   2.7695   2.1251   5.7544  -1.5019  -1.9633   2.7197   0.00    0.0
2017/05/27 02:54:00.000   45.709760046   13.763518427   322.6388   5   8   2.7727   2.1237   5.7603  -1.5038  -1.9619   2.7251   0.00    0.0
2017/05/27 02:54:30.000   45.709762095   13.763514309   322.3357   5   8   2.7758   2.1222   5.7655  -1.5055  -1.9601   2.7299   0.00    0.0
2017/05/27 02:55:00.000   45.709764167   13.763514043   322.8826   5   8   2.7787   2.1207   5.7700  -1.5070  -1.9579   2.7341   0.00    0.0
2017/05/27 02:55:30.000   45.709763255   13.763518839   323.0567   5   8   2.7814   2.1192   5.7737  -1.5082  -1.9552   2.7376   0.00    0.0
2017/05/27 02:56:00.000   45.709759579   13.763519202   322.2343   5   8   2.7840   2.1176   5.7766  -1.5093  -1.9520   2.7406   0.00    0.0
2017/05/27 02:56:30.000   45.709763439   13.763525197   322.2485   5   8   2.7863   2.1159   5.7788  -1.5102  -1.9485   2.7429   0.00    0.0
2017/05/27 02:57:00.000   45.709761179   13.763518062   323.9211   5   8   2.7885   2.1142   5.7801  -1.5108  -1.9444   2.7446   0.00    0.0
2017/05/27 02:57:30.000   45.709756018   13.763525434   322.5650   5   8   2.7906   2.1124   5.7807  -1.5113  -1.9399   2.7456   0.00    0.0
2017/05/27 02:58:00.000   45.709762716   13.763515877   322.9025   5   8   2.7924   2.1106   5.7805  -1.5115  -1.9350   2.7460   0.00    0.0
2017/05/27 02:58:30.000   45.709760384   13.763525855   322.1723   5   8   2.7941   2.1088   5.7795  -1.5116  -1.9297   2.7458   0.00    0.0
2017/05/27 02:59:00.000   45.709760746   13.763517584   323.1751   5   8   2.7956   2.1069   5.7777  -1.5115  -1.9239   2.7450   0.00    0.0
2017/05/27 02:59:30.000   45.709765018   13.763522665   322.3877   5   8   2.7969   2.1050   5.7752  -1.5111  -1.9176   2.7435   0.00    0.0
2017/05/27 03:00:00.000   45.709765110   13.763512201   323.0099   5   8   2.7981   2.1030   5.7719  -1.5106  -1.9109   2.7414   0.00    0.0
2017/05/27 03:00:30.000   45.709765385   13.763516551   323.3406   5   8   2.7990   2.1010   5.7678  -1.5099  -1.9038   2.7387   0.00    0.0
2017/05/27 03:01:00.000   45.709764725   13.763511372   323.7751   5   8   2.7998   2.0990   5.7629  -1.5091  -1.8963   2.7354   0.00    0.0
2017/05/27 03:01:30.000   45.709762983   13.763514962   322.3226   5   8   2.8005   2.0969   5.7573  -1.5080  -1.8884   2.7315   0.00    0.0
2017/05/27 03:02:00.000   45.709757049   13.763517606   323.2755   5   8   2.8009   2.0948   5.7509  -1.5068  -1.8800   2.7269   0.00    0.0
2017/05/27 03:02:30.000   45.709761858   13.763525602   322.3439   5   8   2.8012   2.0927   5.7438  -1.5054  -1.8713   2.7217   0.00    0.0
2017/05/27 03:03:00.000   45.709760798   13.763516568   322.6699   5   8   2.8014   2.0906   5.7360  -1.5038  -1.8621   2.7160   0.00    0.0
2017/05/27 03:03:30.000   45.709766202   13.763516565   323.4692   5   8   2.8014   2.0884   5.7274  -1.5021  -1.8526   2.7096   0.00    0.0
2017/05/27 03:04:00.000   45.709761869   13.763509996   323.5209   5   8   2.8012   2.0862   5.7182  -1.5003  -1.8426   2.7027   0.00    0.0
2017/05/27 03:04:30.000   45.709764859   13.763514517   323.8343   5   8   2.8009   2.0840   5.7082  -1.4983  -1.8323   2.6952   0.00    0.0
2017/05/27 03:05:00.000   45.709757641   13.763519479   323.8811   5   8   2.8005   2.0818   5.6976  -1.4961  -1.8217   2.6871   0.00    0.0
2017/05/27 03:05:30.000   45.709760512   13.763517308   323.0675   5   8   2.7999   2.0796   5.6864  -1.4938  -1.8106   2.6785   0.00    0.0
2017/05/27 03:06:00.000   45.709765781   13.763516648   324.1831   5   8   2.7992   2.0773   5.6745  -1.4914  -1.7992   2.6693   0.00    0.0
2017/05/27 03:06:30.000   45.709759494   13.763514889   323.0387   5   8   2.7983   2.0750   5.6620  -1.4889  -1.7875   2.6596   0.00    0.0
2017/05/27 03:07:00.000   45.709760268   13.763518614   322.6289   5   8   2.7974   2.0728   5.6488  -1.4862  -1.7754   2.6494   0.00    0.0
2017/05/27 03:07:30.000   45.709762565   13.763516668   323.9977   5   8   2.7963   2.0705   5.6351  -1.4834  -1.7630   2.6386   0.00    0.0
2017/05/27 03:08:00.000   45.709761221   13.763517353   323.6703   5   8   2.7951   2.0683   5.6209  -1.4805  -1.7503   2.6274   0.00    0.0
2017/05/27 03:08:30.000   45.709758920   13.763524024   321.7672   5   8   2.7938   2.0660   5.6061  -1.4776  -1.7373   2.6156   0.00    0.0
2017/05/27 03:09:00.000   45.709760451   13.763517595   322.7674   5   8   2.7924   2.0637   5.5907  -1.4745  -1.7240   2.6034   0.00    0.0
2017/05/27 03:09:30.000   45.709758947   13.763522307   323.1034   5   8   2.7909   2.0615   5.5749  -1.4713  -1.7104   2.5907   0.00    0.0
2017/05/27 03:10:00.000   45.709763443   13.763519984   322.4908   5   7   2.8909   2.2369   6.4234  -1.2214  -2.3854   2.0493   0.00    0.0
2017/05/27 03:10:30.000   45.709766922   13.763516321   323.0866   5   7   2.8933   2.2297   6.3982  -1.2163  -2.3626   2.0243   0.00    0.0
2017/05/27 03:11:00.000   45.709764211   13.763516781   323.6847   5   7   2.8957   2.2226   6.3729  -1.2111  -2.3396   1.9985   0.00    0.0
2017/05/27 03:11:30.000   45.709758936   13.763524341   322.7859   5   7   2.8982   2.2156   6.3473  -1.2060  -2.3165   1.9721   0.00    0.0
2017/05/27 03:12:00.000   45.709767218   13.763520869   322.5360   5   7   2.9007   2.2087   6.3215  -1.2009  -2.2933   1.9448   0.00    0.0
2017/05/27 03:12:30.000   45.709760197   13.763519085   323.1305   5   7   2.9033   2.2020   6.2955  -1.1958  -2.2701   1.9169   0.00    0.0
2017/05/27 03:13:00.000   45.709762409   13.763517049   323.2464   5   7   2.9060   2.1953   6.2694  -1.1908  -2.2468   1.8881   0.00    0.0
2017/05/27 03:13:30.000   45.709760618   13.763520785   322.7484   5   7   2.9087   2.1888   6.2431  -1.1858  -2.2234   1.8586   0.00    0.0
2017/05/27 03:14:00.000   45.709763320   13.763516614   322.6593   5   7   2.9115   2.1824   6.2168  -1.1809  -2.2000   1.8283   0.00    0.0
2017/05/27 03:14:30.000   45.709760749   13.763514698   324.0277   5   7   2.9143   2.1761   6.1904  -1.1760  -2.1766   1.7972   0.00    0.0
2017/05/27 03:15:00.000   45.709760223   13.763515399   322.3772   5   7   2.9173   2.1699   6.1639  -1.1712  -2.1531   1.7652   0.00    0.0
2017/05/27 03:15:30.000   45.709764050   13.763516427   323.3894   5   7   2.9204   2.1638   6.1373  -1.1665  -2.1296   1.7324   0.00    0.0
2017/05/27 03:16:00.000   45.709766260   13.763516827   323.0185   5   7   2.9235   2.1578   6.1108  -1.1619  -2.1061   1.6987   0.00    0.0
2017/05/27 03:16:30.000   45.709760674   13.763517614   322.9933   5   7   2.9268   2.1520   6.0843  -1.1574  -2.0826   1.6641   0.00    0.0
2017/05/27 03:17:00.000   45.709764596   13.763517452   322.6857   5   7   2.9301   2.1463   6.0578  -1.1530  -2.0590   1.6285   0.00    0.0
2017/05/27 03:17:30.000   45.709764735   13.763516647   322.4730   5   7   2.9336   2.1407   6.0313  -1.1487  -2.0355   1.5920   0.00    0.0
2017/05/27 03:18:00.000   45.709763927   13.763517385   323.0209   5   7   2.9372   2.1353   6.0050  -1.1446  -2.0120   1.5544   0.00    0.0
2017/05/27 03:18:30.000   45.709762716   13.763516670   322.7325   5   7   2.9409   2.1299   5.9787  -1.1405  -1.9885   1.5156   0.00    0.0
2017/05/27 03:19:00.000   45.709759065   13.763521602   322.7120   5   7   2.9447   2.1247   5.9525  -1.1366  -1.9650   1.4757   0.00    0.0
2017/05/27 03:19:30.000   45.709762421   13.763516974   322.6599   5   7   2.9487   2.1196   5.9264  -1.1328  -1.9415   1.4345   0.00    0.0
2017/05/27 03:20:00.000   45.709762147   13.763518876   323.3108   5   7   2.9528   2.1146   5.9005  -1.1292  -1.9180   1.3920   0.00    0.0
2017/05/27 03:20:30.000   45.709762933   13.763517338   322.6560   5   7   2.9571   2.1098   5.8748  -1.1257  -1.8945   1.3480   0.00    0.0
2017/05/27 03:21:00.000   45.709768779   13.763519172   322.4296   5   7   2.9615   2.1050   5.8492  -1.1223  -1.8711   1.3023   0.00    0.0
2017/05/27 03:21:30.000   45.709761518   13.763515615   322.8989   5   7   2.9661   2.1004   5.8238  -1.1192  -1.8477   1.2549   0.00    0.0
2017/05/27 03:22:00.000   45.709761332   13.763518350   322.2795   5   7   2.9708   2.0960   5.7986  -1.1161  -1.8243   1.2055   0.00    0.0
2017/05/27 03:22:30.000   45.709765204   13.763516138   322.1423   5   7   2.9756   2.0916   5.7736  -1.1133  -1.8010   1.1539   0.00    0.0
2017/05/27 03:23:00.000   45.709763106   13.763516702   322.5447   5   7   2.9807   2.0873   5.7489  -1.1106  -1.7777   1.0998   0.00    0.0
2017/05/27 03:23:30.000   45.709758937   13.763516026   322.7188   5   7   2.9859   2.0832   5.7244  -1.1080  -1.7544   1.0428   0.00    0.0
2017/05/27 03:24:00.000   45.709755723   13.763521711   322.0428   5   7   2.9913   2.0792   5.7001  -1.1057  -1.7311   0.9824   0.00    0.0
2017/05/27 03:24:30.000   45.709756278   13.763518749   322.5165   5   7   2.9968   2.0753   5.6761  -1.1035  -1.7079   0.9179   0.00    0.0
2017/05/27 03:25:00.000   45.709758483   13.763517270   321.9808   5   7   3.0026   2.0715   5.6524  -1.1015  -1.6846   0.8485   0.00    0.0
2017/05/27 03:25:30.000   45.709755417   13.763520056   323.3815   5   7   3.0085   2.0679   5.6290  -1.0997  -1.6614   0.7728   0.00    0.0
2017/05/27 03:26:00.000   45.709768145   13.763514270   323.0302   5   7   3.0146   2.0644   5.6059  -1.0981  -1.6382   0.6886   0.00    0.0
2017/05/27 03:26:30.000   45.709764632   13.763515235   323.4955   5   7   3.0209   2.0609   5.5830  -1.0967  -1.6151   0.5926   0.00    0.0
2017/05/27 03:27:00.000   45.709762007   13.763517763   322.6526   5   7   3.0274   2.0576   5.5605  -1.0955  -1.5919   0.4775   0.00    0.0
2017/05/27 03:27:30.000   45.709762505   13.763516309   322.8926   5   7   3.0341   2.0544   5.5383  -1.0944  -1.5688   0.3237   0.00    0.0
2017/05/27 03:28:00.000   45.709764498   13.763515609   323.0207   5   7   3.0410   2.0513   5.5165  -1.0936  -1.5456  -0.1365   0.00    0.0
2017/05/27 03:28:30.000   45.709755973   13.763520964   322.3283   5   7   3.0481   2.0484   5.4950  -1.0929  -1.5224  -0.3770   0.00    0.0
2017/05/27 03:29:00.000   45.709761260   13.763517182   322.9856   5   7   3.0554   2.0455   5.4738  -1.0925  -1.4993  -0.5156   0.00    0.0
