% program   : RTKPOST-EX 2.5.0
% inp file  : D:\Academic\0 Research\000 In preparation\00 GPS positioning performance circular analysis during short-term fast-developing geomagnetic storms\Storm 2\trie1480.17d
% inp file  : D:\Academic\0 Research\000 In preparation\00 GPS positioning performance circular analysis during short-term fast-developing geomagnetic storms\Storm 2\brdc1480.17n
% obs start : 2017/05/28 00:00:00.0 GPST (week1951      0.0s)
% obs end   : 2017/05/28 23:59:30.0 GPST (week1951  86370.0s)
% pos mode  : Single
% elev mask : 15.0 deg
% tidecorr  :
% ionos opt : Broadcast
% tropo opt : Saastamoinen
% ephemeris : Broadcast
% navi sys  : GPS
%
% (lat/lon/height=WGS84/ellipsoidal,Q=1:fix,2:float,3:sbas,4:dgps,5:single,6:ppp,ns=# of satellites)
%  GPST                  latitude(deg) longitude(deg)  height(m)   Q  ns   sdn(m)   sde(m)   sdu(m)  sdne(m)  sdeu(m)  sdun(m) age(s)  ratio
2017/05/28 00:00:00.000   45.709762490   13.763528550   323.3634   5   9   2.5696   1.8408   5.6470  -0.8573  -1.7224   2.1203   0.00    0.0
2017/05/28 00:00:30.000   45.709756581   13.763528122   322.6139   5   9   2.5677   1.8374   5.6317  -0.8515  -1.7063   2.1043   0.00    0.0
2017/05/28 00:01:00.000   45.709759958   13.763525626   322.7584   5   9   2.5657   1.8340   5.6159  -0.8456  -1.6902   2.0877   0.00    0.0
2017/05/28 00:01:30.000   45.709760555   13.763526020   323.2196   5   9   2.5636   1.8307   5.5996  -0.8397  -1.6738   2.0707   0.00    0.0
2017/05/28 00:02:00.000   45.709762788   13.763523956   322.3442   5   9   2.5616   1.8275   5.5828  -0.8338  -1.6574   2.0532   0.00    0.0
2017/05/28 00:02:30.000   45.709761182   13.763533180   322.6348   5   9   2.5596   1.8243   5.5657  -0.8278  -1.6408   2.0353   0.00    0.0
2017/05/28 00:03:00.000   45.709758650   13.763529024   323.9664   5   9   2.5576   1.8212   5.5480  -0.8219  -1.6241   2.0170   0.00    0.0
2017/05/28 00:03:30.000   45.709759110   13.763529797   322.4436   5   9   2.5556   1.8181   5.5300  -0.8159  -1.6072   1.9983   0.00    0.0
2017/05/28 00:04:00.000   45.709761108   13.763526789   323.2793   5   9   2.5536   1.8151   5.5117  -0.8099  -1.5903   1.9791   0.00    0.0
2017/05/28 00:04:30.000   45.709759337   13.763529464   323.0768   5   9   2.5516   1.8121   5.4929  -0.8039  -1.5733   1.9596   0.00    0.0
2017/05/28 00:05:00.000   45.709764983   13.763528311   323.4713   5   9   2.5496   1.8092   5.4738  -0.7979  -1.5562   1.9396   0.00    0.0
2017/05/28 00:05:30.000   45.709760309   13.763530921   322.2773   5   9   2.5477   1.8064   5.4544  -0.7919  -1.5390   1.9192   0.00    0.0
2017/05/28 00:06:00.000   45.709760398   13.763532331   323.1547   5   9   2.5458   1.8037   5.4347  -0.7860  -1.5217   1.8985   0.00    0.0
2017/05/28 00:06:30.000   45.709759952   13.763533248   323.1236   5   9   2.5439   1.8010   5.4147  -0.7800  -1.5044   1.8773   0.00    0.0
2017/05/28 00:07:00.000   45.709761978   13.763531722   322.6472   5   9   2.5421   1.7983   5.3945  -0.7741  -1.4870   1.8558   0.00    0.0
2017/05/28 00:07:30.000   45.709764400   13.763527236   322.7961   5   9   2.5403   1.7957   5.3740  -0.7682  -1.4696   1.8340   0.00    0.0
2017/05/28 00:08:00.000   45.709760700   13.763529833   322.8074   5   9   2.5386   1.7932   5.3532  -0.7624  -1.4521   1.8117   0.00    0.0
2017/05/28 00:08:30.000   45.709759925   13.763528097   322.5499   5   9   2.5369   1.7908   5.3323  -0.7566  -1.4346   1.7891   0.00    0.0
2017/05/28 00:09:00.000   45.709762625   13.763530006   323.3644   5   9   2.5353   1.7884   5.3112  -0.7509  -1.4171   1.7661   0.00    0.0
2017/05/28 00:09:30.000   45.709767832   13.763527405   322.7893   5   9   2.5337   1.7861   5.2899  -0.7452  -1.3995   1.7428   0.00    0.0
2017/05/28 00:10:00.000   45.709764332   13.763526240   323.7444   5   9   2.5323   1.7839   5.2685  -0.7395  -1.3819   1.7191   0.00    0.0
2017/05/28 00:10:30.000   45.709759179   13.763524158   322.8435   5   9   2.5308   1.7817   5.2469  -0.7340  -1.3643   1.6950   0.00    0.0
2017/05/28 00:11:00.000   45.709761260   13.763534523   323.3631   5   9   2.5295   1.7796   5.2252  -0.7284  -1.3468   1.6706   0.00    0.0
2017/05/28 00:11:30.000   45.709761656   13.763521822   323.3685   5   9   2.5282   1.7775   5.2034  -0.7230  -1.3292   1.6458   0.00    0.0
2017/05/28 00:12:00.000   45.709761480   13.763529397   322.2319   5   9   2.5270   1.7755   5.1815  -0.7176  -1.3116   1.6207   0.00    0.0
2017/05/28 00:12:30.000   45.709761040   13.763527747   323.4264   5   9   2.5259   1.7736   5.1595  -0.7123  -1.2940   1.5952   0.00    0.0
2017/05/28 00:13:00.000   45.709757029   13.763530699   322.3395   5   9   2.5249   1.7717   5.1375  -0.7071  -1.2765   1.5693   0.00    0.0
2017/05/28 00:13:30.000   45.709763780   13.763529967   323.9744   5   9   2.5239   1.7699   5.1154  -0.7019  -1.2589   1.5431   0.00    0.0
2017/05/28 00:14:00.000   45.709760801   13.763529585   322.1942   5   9   2.5231   1.7682   5.0934  -0.6969  -1.2414   1.5164   0.00    0.0
2017/05/28 00:14:30.000   45.709759416   13.763527504   322.7350   5   9   2.5223   1.7665   5.0712  -0.6919  -1.2239   1.4894   0.00    0.0
2017/05/28 00:15:00.000   45.709762415   13.763527627   322.6854   5   9   2.5217   1.7649   5.0491  -0.6870  -1.2064   1.4620   0.00    0.0
2017/05/28 00:15:30.000   45.709760183   13.763532538   323.3843   5   9   2.5211   1.7634   5.0270  -0.6822  -1.1890   1.4341   0.00    0.0
2017/05/28 00:16:00.000   45.709759306   13.763524994   322.7732   5   9   2.5207   1.7619   5.0050  -0.6775  -1.1716   1.4058   0.00    0.0
2017/05/28 00:16:30.000   45.709761252   13.763529141   323.6398   5   9   2.5203   1.7605   4.9829  -0.6728  -1.1543   1.3771   0.00    0.0
2017/05/28 00:17:00.000   45.709763504   13.763529511   322.2570   5   9   2.5201   1.7591   4.9609  -0.6683  -1.1369   1.3479   0.00    0.0
2017/05/28 00:17:30.000   45.709765106   13.763527007   322.4897   5   9   2.5199   1.7578   4.9390  -0.6638  -1.1197   1.3181   0.00    0.0
2017/05/28 00:18:00.000   45.709764435   13.763526945   322.6795   5   9   2.5199   1.7566   4.9172  -0.6595  -1.1024   1.2879   0.00    0.0
2017/05/28 00:18:30.000   45.709765206   13.763524701   323.0375   5   9   2.5200   1.7554   4.8954  -0.6552  -1.0852   1.2571   0.00    0.0
2017/05/28 00:19:00.000   45.709762544   13.763529785   323.7026   5   9   2.5201   1.7543   4.8737  -0.6511  -1.0681   1.2257   0.00    0.0
2017/05/28 00:19:30.000   45.709756304   13.763535574   322.8272   5   9   2.5204   1.7532   4.8521  -0.6470  -1.0510   1.1937   0.00    0.0
2017/05/28 00:20:00.000   45.709761218   13.763525512   322.8394   5   9   2.5209   1.7522   4.8306  -0.6431  -1.0340   1.1610   0.00    0.0
2017/05/28 00:20:30.000   45.709760322   13.763535010   322.5598   5   9   2.5214   1.7513   4.8092  -0.6392  -1.0170   1.1275   0.00    0.0
2017/05/28 00:21:00.000   45.709763809   13.763525272   323.1801   5   9   2.5221   1.7504   4.7880  -0.6354  -1.0000   1.0933   0.00    0.0
2017/05/28 00:21:30.000   45.709763706   13.763531261   322.4455   5   9   2.5229   1.7496   4.7669  -0.6317  -0.9831   1.0582   0.00    0.0
2017/05/28 00:22:00.000   45.709757437   13.763527903   322.9329   5   9   2.5238   1.7488   4.7459  -0.6282  -0.9663   1.0221   0.00    0.0
2017/05/28 00:22:30.000   45.709758687   13.763529231   323.1136   5   9   2.5248   1.7481   4.7251  -0.6247  -0.9495   0.9850   0.00    0.0
2017/05/28 00:23:00.000   45.709760372   13.763530296   323.7890   5   9   2.5259   1.7474   4.7044  -0.6213  -0.9327   0.9466   0.00    0.0
2017/05/28 00:23:30.000   45.709760297   13.763528002   323.2714   5   9   2.5272   1.7468   4.6840  -0.6180  -0.9160   0.9069   0.00    0.0
2017/05/28 00:24:00.000   45.709752397   13.763528401   324.1676   5   8   3.3849   2.0046   6.0451   1.3556  -2.1438  -2.8116   0.00    0.0
2017/05/28 00:24:30.000   45.709759558   13.763525342   324.4248   5   8   3.4024   2.0008   6.0320   1.3601  -2.1316  -2.8428   0.00    0.0
2017/05/28 00:25:00.000   45.709756026   13.763525291   324.3873   5   8   3.4204   1.9971   6.0194   1.3647  -2.1196  -2.8739   0.00    0.0
2017/05/28 00:25:30.000   45.709757028   13.763526533   324.3835   5   8   3.4387   1.9935   6.0073   1.3693  -2.1079  -2.9050   0.00    0.0
2017/05/28 00:26:00.000   45.709757491   13.763526454   324.0381   5   8   3.4573   1.9901   5.9958   1.3739  -2.0965  -2.9361   0.00    0.0
2017/05/28 00:26:30.000   45.709756073   13.763527115   324.3676   5   8   3.4764   1.9867   5.9847   1.3784  -2.0853  -2.9673   0.00    0.0
2017/05/28 00:27:00.000   45.709756964   13.763531549   323.8485   5   8   3.4958   1.9834   5.9742   1.3830  -2.0744  -2.9984   0.00    0.0
2017/05/28 00:27:30.000   45.709752680   13.763522816   324.8865   5   8   3.5156   1.9802   5.9642   1.3875  -2.0638  -3.0296   0.00    0.0
2017/05/28 00:28:00.000   45.709755717   13.763526058   324.2799   5   8   3.5358   1.9771   5.9548   1.3921  -2.0534  -3.0609   0.00    0.0
2017/05/28 00:28:30.000   45.709753203   13.763527391   324.1557   5   8   3.5564   1.9741   5.9459   1.3967  -2.0433  -3.0923   0.00    0.0
2017/05/28 00:29:00.000   45.709750774   13.763524493   324.3110   5   8   3.5774   1.9712   5.9375   1.4012  -2.0335  -3.1237   0.00    0.0
2017/05/28 00:29:30.000   45.709752655   13.763526287   324.4417   5   8   3.5988   1.9684   5.9297   1.4058  -2.0239  -3.1552   0.00    0.0
2017/05/28 00:30:00.000   45.709750335   13.763524255   324.8014   5   8   3.6207   1.9657   5.9225   1.4104  -2.0145  -3.1868   0.00    0.0
2017/05/28 00:30:30.000   45.709750602   13.763528224   323.3050   5   8   3.6429   1.9631   5.9158   1.4150  -2.0054  -3.2185   0.00    0.0
2017/05/28 00:31:00.000   45.709752627   13.763529571   324.0945   5   8   3.6656   1.9606   5.9097   1.4197  -1.9966  -3.2504   0.00    0.0
2017/05/28 00:31:30.000   45.709756437   13.763529718   324.5783   5   8   3.6887   1.9581   5.9042   1.4243  -1.9880  -3.2824   0.00    0.0
2017/05/28 00:32:00.000   45.709753907   13.763527285   324.3973   5   8   3.7123   1.9558   5.8993   1.4290  -1.9796  -3.3146   0.00    0.0
2017/05/28 00:32:30.000   45.709760290   13.763524794   323.2952   5   8   3.7363   1.9535   5.8949   1.4337  -1.9715  -3.3469   0.00    0.0
2017/05/28 00:33:00.000   45.709759038   13.763528452   324.0131   5   8   3.7607   1.9513   5.8912   1.4384  -1.9637  -3.3794   0.00    0.0
2017/05/28 00:33:30.000   45.709755193   13.763521443   324.2499   5   8   3.7856   1.9492   5.8880   1.4431  -1.9560  -3.4120   0.00    0.0
2017/05/28 00:34:00.000   45.709760355   13.763529124   323.7441   5   8   3.8110   1.9472   5.8855   1.4479  -1.9487  -3.4449   0.00    0.0
2017/05/28 00:34:30.000   45.709755235   13.763527747   323.8479   5   8   3.8369   1.9453   5.8836   1.4527  -1.9415  -3.4780   0.00    0.0
2017/05/28 00:35:00.000   45.709755475   13.763529797   323.0332   5   8   3.8633   1.9434   5.8823   1.4575  -1.9346  -3.5113   0.00    0.0
2017/05/28 00:35:30.000   45.709754350   13.763527531   324.4560   5   8   3.8901   1.9416   5.8816   1.4623  -1.9279  -3.5448   0.00    0.0
2017/05/28 00:36:00.000   45.709755545   13.763524622   323.7289   5   8   3.9175   1.9399   5.8816   1.4672  -1.9215  -3.5786   0.00    0.0
2017/05/28 00:36:30.000   45.709754418   13.763524395   324.4088   5   8   3.9453   1.9382   5.8822   1.4722  -1.9153  -3.6127   0.00    0.0
2017/05/28 00:37:00.000   45.709759323   13.763530508   323.0424   5   8   3.9737   1.9367   5.8835   1.4771  -1.9093  -3.6470   0.00    0.0
2017/05/28 00:37:30.000   45.709759401   13.763531398   324.4640   5   8   4.0026   1.9352   5.8853   1.4821  -1.9035  -3.6816   0.00    0.0
2017/05/28 00:38:00.000   45.709757269   13.763527716   324.1878   5   8   4.0321   1.9338   5.8879   1.4872  -1.8980  -3.7165   0.00    0.0
2017/05/28 00:38:30.000   45.709752706   13.763529623   323.2349   5   8   4.0620   1.9324   5.8911   1.4923  -1.8926  -3.7517   0.00    0.0
2017/05/28 00:39:00.000   45.709755309   13.763527142   324.2787   5   8   4.0926   1.9311   5.8950   1.4974  -1.8875  -3.7872   0.00    0.0
2017/05/28 00:39:30.000   45.709755278   13.763525998   324.6411   5   8   4.1237   1.9299   5.8995   1.5026  -1.8826  -3.8231   0.00    0.0
2017/05/28 00:40:00.000   45.709759929   13.763528356   323.2719   5   8   4.1554   1.9288   5.9047   1.5078  -1.8779  -3.8593   0.00    0.0
2017/05/28 00:40:30.000   45.709759294   13.763527921   323.9325   5   8   4.1877   1.9277   5.9106   1.5130  -1.8735  -3.8959   0.00    0.0
2017/05/28 00:41:00.000   45.709762947   13.763529245   323.3695   5   8   4.2205   1.9267   5.9172   1.5183  -1.8692  -3.9328   0.00    0.0
2017/05/28 00:41:30.000   45.709765328   13.763524795   322.4154   5   8   4.2540   1.9257   5.9245   1.5237  -1.8651  -3.9701   0.00    0.0
2017/05/28 00:42:00.000   45.709758829   13.763526616   323.6620   5   8   4.2881   1.9249   5.9325   1.5291  -1.8613  -4.0078   0.00    0.0
2017/05/28 00:42:30.000   45.709763372   13.763522640   322.7603   5   8   4.3228   1.9240   5.9413   1.5345  -1.8576  -4.0459   0.00    0.0
2017/05/28 00:43:00.000   45.709757950   13.763526465   323.6346   5   8   4.3582   1.9233   5.9507   1.5400  -1.8541  -4.0845   0.00    0.0
2017/05/28 00:43:30.000   45.709757774   13.763529275   324.5261   5   8   4.3942   1.9226   5.9609   1.5456  -1.8509  -4.1234   0.00    0.0
2017/05/28 00:44:00.000   45.709758180   13.763525439   324.1786   5   8   4.4308   1.9219   5.9718   1.5512  -1.8478  -4.1629   0.00    0.0
2017/05/28 00:44:30.000   45.709751726   13.763527703   324.3390   5   8   4.4682   1.9214   5.9834   1.5568  -1.8449  -4.2028   0.00    0.0
2017/05/28 00:45:00.000   45.709755214   13.763524409   323.6077   5   8   4.5062   1.9208   5.9958   1.5625  -1.8422  -4.2431   0.00    0.0
2017/05/28 00:45:30.000   45.709750461   13.763525473   324.5837   5   8   4.5450   1.9204   6.0089   1.5683  -1.8397  -4.2840   0.00    0.0
2017/05/28 00:46:00.000   45.709747147   13.763530126   323.8970   5   8   4.5844   1.9200   6.0229   1.5741  -1.8373  -4.3253   0.00    0.0
2017/05/28 00:46:30.000   45.709746357   13.763526584   324.0560   5   8   4.6246   1.9196   6.0376   1.5799  -1.8351  -4.3672   0.00    0.0
2017/05/28 00:47:00.000   45.709742553   13.763526207   324.1734   5   8   4.6655   1.9193   6.0530   1.5858  -1.8331  -4.4096   0.00    0.0
2017/05/28 00:47:30.000   45.709751639   13.763523211   323.9711   5   8   4.7071   1.9191   6.0693   1.5917  -1.8313  -4.4526   0.00    0.0
2017/05/28 00:48:00.000   45.709752287   13.763524039   324.3420   5   8   4.7496   1.9189   6.0864   1.5977  -1.8296  -4.4961   0.00    0.0
2017/05/28 00:48:30.000   45.709754672   13.763527499   323.3527   5   9   4.2511   1.9159   6.0867   1.5291  -1.8147  -4.4261   0.00    0.0
2017/05/28 00:49:00.000   45.709750056   13.763528432   325.0279   5   9   4.2730   1.9154   6.0990   1.5289  -1.8101  -4.4493   0.00    0.0
2017/05/28 00:49:30.000   45.709756485   13.763527176   325.6456   5   7   4.5524   2.0636   6.3773   1.3945  -1.4911  -4.3522   0.00    0.0
2017/05/28 00:50:00.000   45.709757447   13.763525069   325.2058   5   7   4.5702   2.0627   6.3940   1.3930  -1.4817  -4.3768   0.00    0.0
2017/05/28 00:50:30.000   45.709748864   13.763522908   324.6543   5   7   4.5879   2.0618   6.4105   1.3914  -1.4721  -4.4011   0.00    0.0
2017/05/28 00:51:00.000   45.709754938   13.763524942   324.7356   5   7   4.6054   2.0609   6.4267   1.3895  -1.4623  -4.4251   0.00    0.0
2017/05/28 00:51:30.000   45.709756735   13.763524439   324.2359   5   7   4.6228   2.0601   6.4428   1.3874  -1.4522  -4.4488   0.00    0.0
2017/05/28 00:52:00.000   45.709757420   13.763524832   323.5820   5   7   4.6400   2.0593   6.4586   1.3850  -1.4419  -4.4720   0.00    0.0
2017/05/28 00:52:30.000   45.709748444   13.763534226   325.2427   5   7   4.6570   2.0585   6.4741   1.3825  -1.4313  -4.4949   0.00    0.0
2017/05/28 00:53:00.000   45.709747238   13.763523932   325.2620   5   7   4.6739   2.0578   6.4894   1.3796  -1.4204  -4.5174   0.00    0.0
2017/05/28 00:53:30.000   45.709756251   13.763521156   323.3570   5   7   4.6905   2.0572   6.5043   1.3766  -1.4092  -4.5395   0.00    0.0
2017/05/28 00:54:00.000   45.709758381   13.763529270   323.8466   5   7   4.7069   2.0566   6.5190   1.3732  -1.3977  -4.5612   0.00    0.0
2017/05/28 00:54:30.000   45.709753344   13.763525309   324.4469   5   7   4.7231   2.0560   6.5333   1.3696  -1.3859  -4.5825   0.00    0.0
2017/05/28 00:55:00.000   45.709751274   13.763527021   324.6093   5   7   4.7391   2.0555   6.5472   1.3658  -1.3738  -4.6033   0.00    0.0
2017/05/28 00:55:30.000   45.709741584   13.763531776   326.5914   5   7   4.7548   2.0550   6.5608   1.3617  -1.3613  -4.6236   0.00    0.0
2017/05/28 00:56:00.000   45.709750778   13.763525434   324.9323   5   7   4.7702   2.0546   6.5740   1.3573  -1.3485  -4.6435   0.00    0.0
2017/05/28 00:56:30.000   45.709763059   13.763525294   323.8670   5   7   4.7853   2.0542   6.5868   1.3526  -1.3353  -4.6629   0.00    0.0
2017/05/28 00:57:00.000   45.709756528   13.763526324   325.2083   5   7   4.8001   2.0539   6.5992   1.3476  -1.3217  -4.6818   0.00    0.0
2017/05/28 00:57:30.000   45.709755855   13.763524132   324.7495   5   7   4.8146   2.0536   6.6111   1.3424  -1.3077  -4.7001   0.00    0.0
2017/05/28 00:58:00.000   45.709746800   13.763529065   324.9265   5   7   4.8288   2.0534   6.6226   1.3368  -1.2932  -4.7180   0.00    0.0
2017/05/28 00:58:30.000   45.709747203   13.763524649   325.8796   5   7   4.8427   2.0532   6.6336   1.3310  -1.2784  -4.7352   0.00    0.0
2017/05/28 00:59:00.000   45.709758322   13.763522540   323.4454   5   7   4.8562   2.0530   6.6442   1.3248  -1.2631  -4.7520   0.00    0.0
2017/05/28 00:59:30.000   45.709748792   13.763529445   325.6552   5   7   4.8694   2.0529   6.6542   1.3183  -1.2473  -4.7682   0.00    0.0
2017/05/28 01:00:00.000   45.709747214   13.763530689   325.5828   5   7   4.8821   2.0529   6.6638   1.3115  -1.2311  -4.7838   0.00    0.0
2017/05/28 01:00:30.000   45.709750696   13.763529299   325.4372   5   7   4.8945   2.0529   6.6728   1.3044  -1.2143  -4.7988   0.00    0.0
2017/05/28 01:01:00.000   45.709748094   13.763529896   325.5720   5   7   4.9065   2.0529   6.6813   1.2970  -1.1970  -4.8132   0.00    0.0
2017/05/28 01:01:30.000   45.709751771   13.763524970   324.1738   5   7   4.9182   2.0530   6.6893   1.2892  -1.1792  -4.8270   0.00    0.0
2017/05/28 01:02:00.000   45.709750290   13.763528079   325.1456   5   7   4.9294   2.0531   6.6967   1.2812  -1.1608  -4.8402   0.00    0.0
2017/05/28 01:02:30.000   45.709754279   13.763524615   323.8901   5   7   4.9401   2.0533   6.7036   1.2727  -1.1418  -4.8528   0.00    0.0
2017/05/28 01:03:00.000   45.709750323   13.763526240   324.2067   5   7   4.9505   2.0536   6.7099   1.2639  -1.1221  -4.8647   0.00    0.0
2017/05/28 01:03:30.000   45.709760164   13.763527787   322.8108   5   7   4.9604   2.0539   6.7156   1.2548  -1.1018  -4.8760   0.00    0.0
2017/05/28 01:04:00.000   45.709750582   13.763527808   325.8566   5   7   4.9699   2.0542   6.7208   1.2453  -1.0809  -4.8867   0.00    0.0
2017/05/28 01:04:30.000   45.709751133   13.763526051   324.4089   5   7   4.9789   2.0547   6.7253   1.2355  -1.0592  -4.8967   0.00    0.0
2017/05/28 01:05:00.000   45.709753739   13.763524716   323.7871   5   7   4.9875   2.0551   6.7293   1.2252  -1.0367  -4.9061   0.00    0.0
2017/05/28 01:05:30.000   45.709747436   13.763527744   326.1210   5   7   4.9956   2.0556   6.7327   1.2147  -1.0134  -4.9148   0.00    0.0
2017/05/28 01:06:00.000   45.709750411   13.763524381   324.1080   5   7   5.0033   2.0562   6.7355   1.2037  -0.9893  -4.9228   0.00    0.0
2017/05/28 01:06:30.000   45.709754291   13.763527657   323.8361   5   7   5.0105   2.0569   6.7376   1.1923  -0.9643  -4.9302   0.00    0.0
2017/05/28 01:07:00.000   45.709753298   13.763527514   324.5504   5   7   5.0172   2.0576   6.7392   1.1806  -0.9382  -4.9369   0.00    0.0
2017/05/28 01:07:30.000   45.709749794   13.763524456   325.2810   5   7   5.0234   2.0583   6.7402   1.1685  -0.9111  -4.9430   0.00    0.0
2017/05/28 01:08:00.000   45.709754792   13.763527044   325.0396   5   7   5.0292   2.0591   6.7406   1.1559  -0.8829  -4.9484   0.00    0.0
2017/05/28 01:08:30.000   45.709757499   13.763525059   324.6532   5   7   5.0345   2.0600   6.7404   1.1430  -0.8534  -4.9532   0.00    0.0
2017/05/28 01:09:00.000   45.709760598   13.763524303   323.0429   5   7   5.0393   2.0610   6.7396   1.1296  -0.8226  -4.9572   0.00    0.0
2017/05/28 01:09:30.000   45.709752308   13.763526747   323.8468   5   7   5.0436   2.0620   6.7382   1.1158  -0.7902  -4.9607   0.00    0.0
2017/05/28 01:10:00.000   45.709749806   13.763526752   325.0258   5   7   5.0475   2.0631   6.7362   1.1016  -0.7562  -4.9634   0.00    0.0
2017/05/28 01:10:30.000   45.709749747   13.763528714   325.7465   5   7   5.0509   2.0642   6.7336   1.0869  -0.7202  -4.9656   0.00    0.0
2017/05/28 01:11:00.000   45.709748542   13.763529965   325.2406   5   7   5.0538   2.0654   6.7305   1.0718  -0.6820  -4.9671   0.00    0.0
2017/05/28 01:11:30.000   45.709748689   13.763526698   325.3966   5   7   5.0562   2.0667   6.7268   1.0562  -0.6411  -4.9679   0.00    0.0
2017/05/28 01:12:00.000   45.709754820   13.763527279   324.4828   5   7   5.0582   2.0680   6.7225   1.0401  -0.5972  -4.9682   0.00    0.0
2017/05/28 01:12:30.000   45.709761546   13.763528098   324.2797   5   7   5.0597   2.0695   6.7177   1.0235  -0.5495  -4.9678   0.00    0.0
2017/05/28 01:13:00.000   45.709755097   13.763526308   324.8137   5   7   5.0608   2.0709   6.7124   1.0065  -0.4968  -4.9668   0.00    0.0
2017/05/28 01:13:30.000   45.709751123   13.763528581   325.5327   5   7   5.0614   2.0725   6.7065   0.9888  -0.4374  -4.9652   0.00    0.0
2017/05/28 01:14:00.000   45.709763467   13.763523808   323.4104   5   7   3.0940   2.4696   4.6883   1.8022   1.1101  -1.2411   0.00    0.0
2017/05/28 01:14:30.000   45.709759970   13.763523424   323.7924   5   7   3.0946   2.4714   4.6951   1.8043   1.1264  -1.2378   0.00    0.0
2017/05/28 01:15:00.000   45.709759675   13.763527541   324.0369   5   7   3.0952   2.4731   4.7019   1.8063   1.1424  -1.2345   0.00    0.0
2017/05/28 01:15:30.000   45.709757008   13.763528867   324.1841   5   7   3.0959   2.4749   4.7088   1.8083   1.1582  -1.2312   0.00    0.0
2017/05/28 01:16:00.000   45.709761102   13.763523877   323.2672   5   7   3.0965   2.4766   4.7157   1.8101   1.1738  -1.2280   0.00    0.0
2017/05/28 01:16:30.000   45.709764710   13.763525562   323.2224   5   7   3.0971   2.4783   4.7227   1.8119   1.1892  -1.2248   0.00    0.0
2017/05/28 01:17:00.000   45.709765065   13.763528447   323.4915   5   7   3.0977   2.4800   4.7297   1.8135   1.2044  -1.2217   0.00    0.0
2017/05/28 01:17:30.000   45.709765581   13.763531888   323.1221   5   7   3.0983   2.4817   4.7367   1.8151   1.2194  -1.2186   0.00    0.0
2017/05/28 01:18:00.000   45.709765908   13.763521034   322.7317   5   7   3.0988   2.4834   4.7438   1.8165   1.2342  -1.2155   0.00    0.0
2017/05/28 01:18:30.000   45.709761550   13.763527999   323.2517   5   7   3.0994   2.4851   4.7509   1.8179   1.2488  -1.2125   0.00    0.0
2017/05/28 01:19:00.000   45.709762778   13.763531561   323.5120   5   7   3.0999   2.4867   4.7581   1.8191   1.2631  -1.2096   0.00    0.0
2017/05/28 01:19:30.000   45.709761910   13.763521546   322.9246   5   7   3.1004   2.4883   4.7652   1.8203   1.2773  -1.2067   0.00    0.0
2017/05/28 01:20:00.000   45.709763822   13.763526005   322.1155   5   7   3.1009   2.4899   4.7724   1.8213   1.2913  -1.2038   0.00    0.0
2017/05/28 01:20:30.000   45.709766125   13.763527860   323.0310   5   7   3.1014   2.4915   4.7796   1.8222   1.3051  -1.2011   0.00    0.0
2017/05/28 01:21:00.000   45.709762701   13.763528178   324.0763   5   7   3.1019   2.4930   4.7869   1.8231   1.3188  -1.1983   0.00    0.0
2017/05/28 01:21:30.000   45.709761745   13.763532457   324.3807   5   7   3.1023   2.4946   4.7941   1.8238   1.3322  -1.1957   0.00    0.0
2017/05/28 01:22:00.000   45.709754611   13.763530698   323.6609   5   6   3.1066   2.8579   5.6833   1.8830  -1.5563  -1.3778   0.00    0.0
2017/05/28 01:22:30.000   45.709758827   13.763533383   322.4771   5   6   3.1067   2.8526   5.6999   1.8802  -1.5404  -1.3685   0.00    0.0
2017/05/28 01:23:00.000   45.709766354   13.763526191   323.3954   5   6   3.1067   2.8473   5.7167   1.8774  -1.5241  -1.3591   0.00    0.0
2017/05/28 01:23:30.000   45.709759167   13.763536915   324.0229   5   6   3.1068   2.8420   5.7335   1.8745  -1.5076  -1.3496   0.00    0.0
2017/05/28 01:24:00.000   45.709759727   13.763536331   323.2041   5   6   3.1068   2.8368   5.7504   1.8714  -1.4907  -1.3399   0.00    0.0
2017/05/28 01:24:30.000   45.709762959   13.763528823   322.8312   5   6   3.1068   2.8315   5.7673   1.8684  -1.4735  -1.3300   0.00    0.0
2017/05/28 01:25:00.000   45.709765384   13.763532496   322.2983   5   6   3.1068   2.8263   5.7843   1.8652  -1.4560  -1.3201   0.00    0.0
2017/05/28 01:25:30.000   45.709763538   13.763532449   322.9225   5   6   3.1068   2.8210   5.8013   1.8620  -1.4381  -1.3099   0.00    0.0
2017/05/28 01:26:00.000   45.709758102   13.763530939   323.0873   5   6   3.1068   2.8158   5.8184   1.8586  -1.4199  -1.2996   0.00    0.0
2017/05/28 01:26:30.000   45.709765905   13.763534141   322.8429   5   6   3.1069   2.8105   5.8355   1.8552  -1.4013  -1.2892   0.00    0.0
2017/05/28 01:27:00.000   45.709764363   13.763534121   323.4775   5   6   3.1069   2.8053   5.8527   1.8518  -1.3824  -1.2787   0.00    0.0
2017/05/28 01:27:30.000   45.709763924   13.763533725   323.0921   5   6   3.1069   2.8001   5.8699   1.8482  -1.3630  -1.2680   0.00    0.0
2017/05/28 01:28:00.000   45.709763194   13.763534572   322.3421   5   6   3.1069   2.7949   5.8871   1.8446  -1.3433  -1.2572   0.00    0.0
2017/05/28 01:28:30.000   45.709761917   13.763530436   324.5268   5   6   3.1069   2.7897   5.9043   1.8409  -1.3232  -1.2462   0.00    0.0
2017/05/28 01:29:00.000   45.709763712   13.763538583   323.3485   5   6   3.1069   2.7845   5.9215   1.8372  -1.3026  -1.2352   0.00    0.0
2017/05/28 01:29:30.000   45.709764665   13.763532845   322.3267   5   6   3.1069   2.7793   5.9386   1.8333  -1.2816  -1.2240   0.00    0.0
2017/05/28 01:30:00.000   45.709761643   13.763534039   322.7344   5   6   3.1068   2.7741   5.9558   1.8294  -1.2601  -1.2127   0.00    0.0
2017/05/28 01:30:30.000   45.709757667   13.763537943   324.5495   5   6   3.1068   2.7690   5.9730   1.8254  -1.2382  -1.2013   0.00    0.0
2017/05/28 01:31:00.000   45.709762546   13.763531256   322.8692   5   6   3.1068   2.7638   5.9901   1.8214  -1.2157  -1.1898   0.00    0.0
2017/05/28 01:31:30.000   45.709765124   13.763534516   322.6936   5   6   3.1068   2.7587   6.0072   1.8173  -1.1928  -1.1781   0.00    0.0
2017/05/28 01:32:00.000   45.709757784   13.763531189   323.2621   5   6   3.1068   2.7536   6.0242   1.8131  -1.1693  -1.1664   0.00    0.0
2017/05/28 01:32:30.000   45.709754752   13.763527038   324.3566   5   6   3.1068   2.7484   6.0412   1.8088  -1.1452  -1.1547   0.00    0.0
2017/05/28 01:33:00.000   45.709762582   13.763539699   323.0850   5   6   3.1068   2.7434   6.0581   1.8044  -1.1205  -1.1428   0.00    0.0
2017/05/28 01:33:30.000   45.709759932   13.763529490   323.9234   5   6   3.1068   2.7383   6.0750   1.8000  -1.0952  -1.1309   0.00    0.0
2017/05/28 01:34:00.000   45.709763875   13.763528612   322.8699   5   6   3.1068   2.7332   6.0918   1.7955  -1.0693  -1.1189   0.00    0.0
2017/05/28 01:34:30.000   45.709760362   13.763533162   323.5163   5   6   3.1068   2.7281   6.1084   1.7910  -1.0426  -1.1068   0.00    0.0
2017/05/28 01:35:00.000   45.709764508   13.763532838   323.0409   5   6   3.1068   2.7231   6.1250   1.7863  -1.0152  -1.0947   0.00    0.0
2017/05/28 01:35:30.000   45.709767270   13.763534613   323.4572   5   6   3.1068   2.7181   6.1415   1.7816  -0.9870  -1.0826   0.00    0.0
2017/05/28 01:36:00.000   45.709758211   13.763528316   323.8944   5   6   3.1069   2.7131   6.1578   1.7769  -0.9579  -1.0705   0.00    0.0
2017/05/28 01:36:30.000   45.709760931   13.763535104   323.7821   5   6   3.1069   2.7081   6.1740   1.7720  -0.9279  -1.0584   0.00    0.0
2017/05/28 01:37:00.000   45.709763885   13.763531049   323.1041   5   6   3.1069   2.7031   6.1901   1.7671  -0.8969  -1.0462   0.00    0.0
2017/05/28 01:37:30.000   45.709766168   13.763532929   322.2367   5   6   3.1069   2.6981   6.2060   1.7621  -0.8648  -1.0341   0.00    0.0
2017/05/28 01:38:00.000   45.709759750   13.763532245   323.0000   5   6   3.1070   2.6932   6.2217   1.7571  -0.8315  -1.0220   0.00    0.0
2017/05/28 01:38:30.000   45.709760525   13.763532290   323.0935   5   6   3.1070   2.6883   6.2373   1.7519  -0.7968  -1.0100   0.00    0.0
2017/05/28 01:39:00.000   45.709762445   13.763536892   322.6329   5   6   3.1071   2.6834   6.2527   1.7467  -0.7605  -0.9981   0.00    0.0
2017/05/28 01:39:30.000   45.709762269   13.763532316   322.8690   5   6   3.1072   2.6785   6.2679   1.7414  -0.7226  -0.9862   0.00    0.0
2017/05/28 01:40:00.000   45.709761365   13.763528416   323.8540   5   6   3.1072   2.6736   6.2829   1.7361  -0.6826  -0.9744   0.00    0.0
2017/05/28 01:40:30.000   45.709760863   13.763539974   323.3602   5   6   3.1073   2.6687   6.2977   1.7306  -0.6402  -0.9628   0.00    0.0
2017/05/28 01:41:00.000   45.709759505   13.763531197   322.7721   5   6   3.1074   2.6639   6.3123   1.7251  -0.5950  -0.9513   0.00    0.0
2017/05/28 01:41:30.000   45.709757615   13.763531417   324.5363   5   6   3.1075   2.6591   6.3266   1.7196  -0.5463  -0.9399   0.00    0.0
2017/05/28 01:42:00.000   45.709757133   13.763531511   323.9739   5   6   3.1076   2.6543   6.3407   1.7139  -0.4929  -0.9287   0.00    0.0
2017/05/28 01:42:30.000   45.709761272   13.763529474   323.2866   5   6   3.1078   2.6495   6.3545   1.7082  -0.4334  -0.9178   0.00    0.0
2017/05/28 01:43:00.000   45.709762692   13.763530581   323.8626   5   6   3.1079   2.6447   6.3680   1.7024  -0.3647  -0.9071   0.00    0.0
2017/05/28 01:43:30.000   45.709762593   13.763528710   322.7246   5   6   3.1080   2.6400   6.3813   1.6965  -0.2801  -0.8966   0.00    0.0
2017/05/28 01:44:00.000   45.709764255   13.763532188   322.8426   5   6   3.1082   2.6352   6.3943   1.6905  -0.1559  -0.8864   0.00    0.0
2017/05/28 01:44:30.000   45.709761568   13.763529230   322.9777   5   6   3.1084   2.6305   6.4070   1.6845   0.1718  -0.8766   0.00    0.0
2017/05/28 01:45:00.000   45.709759828   13.763536748   323.6800   5   6   3.1086   2.6258   6.4194   1.6783   0.2879  -0.8670   0.00    0.0
2017/05/28 01:45:30.000   45.709762805   13.763530405   322.7476   5   6   3.1088   2.6212   6.4314   1.6721   0.3686  -0.8579   0.00    0.0
2017/05/28 01:46:00.000   45.709758872   13.763532690   323.6105   5   6   3.1090   2.6165   6.4431   1.6658   0.4341  -0.8491   0.00    0.0
2017/05/28 01:46:30.000   45.709764995   13.763535969   322.3396   5   6   3.1093   2.6119   6.4545   1.6595   0.4903  -0.8408   0.00    0.0
2017/05/28 01:47:00.000   45.709760552   13.763530214   322.7877   5   6   3.1095   2.6072   6.4655   1.6530   0.5403  -0.8329   0.00    0.0
2017/05/28 01:47:30.000   45.709761932   13.763529484   322.1716   5   6   3.1098   2.6026   6.4762   1.6465   0.5856  -0.8255   0.00    0.0
2017/05/28 01:48:00.000   45.709761479   13.763528198   322.8731   5   6   3.1101   2.5980   6.4865   1.6398   0.6271  -0.8186   0.00    0.0
2017/05/28 01:48:30.000   45.709756846   13.763536787   323.8547   5   6   3.1104   2.5935   6.4964   1.6331   0.6657  -0.8122   0.00    0.0
2017/05/28 01:49:00.000   45.709761669   13.763534522   322.9727   5   6   3.1108   2.5889   6.5060   1.6263   0.7016  -0.8064   0.00    0.0
2017/05/28 01:49:30.000   45.709761491   13.763528913   323.2990   5   6   3.1111   2.5844   6.5151   1.6194   0.7354  -0.8012   0.00    0.0
2017/05/28 01:50:00.000   45.709753581   13.763527956   324.5922   5   6   3.1115   2.5798   6.5239   1.6124   0.7673  -0.7966   0.00    0.0
2017/05/28 01:50:30.000   45.709760447   13.763531245   323.1453   5   6   3.1119   2.5753   6.5322   1.6053   0.7974  -0.7927   0.00    0.0
2017/05/28 01:51:00.000   45.709760142   13.763537807   323.1023   5   6   3.1123   2.5709   6.5401   1.5982   0.8260  -0.7895   0.00    0.0
2017/05/28 01:51:30.000   45.709756987   13.763537802   323.1671   5   6   3.1128   2.5664   6.5476   1.5909   0.8532  -0.7869   0.00    0.0
2017/05/28 01:52:00.000   45.709764411   13.763535719   323.7284   5   6   3.1133   2.5619   6.5546   1.5835   0.8791  -0.7850   0.00    0.0
2017/05/28 01:52:30.000   45.709757547   13.763530631   322.2619   5   6   3.1138   2.5575   6.5612   1.5761   0.9039  -0.7839   0.00    0.0
2017/05/28 01:53:00.000   45.709761917   13.763534136   323.2825   5   6   3.1143   2.5531   6.5674   1.5685   0.9275  -0.7835   0.00    0.0
2017/05/28 01:53:30.000   45.709761318   13.763528298   323.4905   5   6   3.1149   2.5487   6.5731   1.5608   0.9501  -0.7839   0.00    0.0
2017/05/28 01:54:00.000   45.709763527   13.763534751   321.7750   5   6   3.1155   2.5443   6.5784   1.5530   0.9718  -0.7850   0.00    0.0
2017/05/28 01:54:30.000   45.709759915   13.763535098   322.2926   5   6   3.1161   2.5399   6.5832   1.5452   0.9925  -0.7869   0.00    0.0
2017/05/28 01:55:00.000   45.709760191   13.763534291   322.7537   5   6   3.1168   2.5355   6.5875   1.5372   1.0124  -0.7896   0.00    0.0
2017/05/28 01:55:30.000   45.709764870   13.763529912   322.6738   5   6   3.1175   2.5312   6.5914   1.5291   1.0314  -0.7930   0.00    0.0
2017/05/28 01:56:00.000   45.709757892   13.763533041   323.1295   5   6   3.1183   2.5268   6.5948   1.5209   1.0497  -0.7972   0.00    0.0
2017/05/28 01:56:30.000   45.709762088   13.763535635   321.9157   5   6   3.1190   2.5225   6.5977   1.5126   1.0672  -0.8021   0.00    0.0
2017/05/28 01:57:00.000   45.709756006   13.763534493   322.7374   5   6   3.1198   2.5182   6.6001   1.5041   1.0839  -0.8078   0.00    0.0
2017/05/28 01:57:30.000   45.709762652   13.763534213   323.2498   5   6   3.1207   2.5139   6.6021   1.4956   1.1000  -0.8143   0.00    0.0
2017/05/28 01:58:00.000   45.709756269   13.763536353   323.8467   5   6   3.1216   2.5097   6.6036   1.4869   1.1154  -0.8214   0.00    0.0
2017/05/28 01:58:30.000   45.709762144   13.763532433   322.9877   5   6   3.1225   2.5054   6.6046   1.4781   1.1302  -0.8293   0.00    0.0
2017/05/28 01:59:00.000   45.709762855   13.763531220   321.5311   5   6   3.1235   2.5012   6.6052   1.4692   1.1444  -0.8378   0.00    0.0
2017/05/28 01:59:30.000   45.709759740   13.763529716   322.3914   5   6   3.1245   2.4969   6.6052   1.4602   1.1579  -0.8470   0.00    0.0
2017/05/28 02:00:00.000   45.709763402   13.763532562   322.8326   5   6   3.1256   2.4927   6.6048   1.4511   1.1709  -0.8568   0.00    0.0
2017/05/28 02:00:30.000   45.709759360   13.763533490   322.7676   5   6   3.1267   2.4885   6.6039   1.4418   1.1832  -0.8673   0.00    0.0
2017/05/28 02:01:00.000   45.709755184   13.763532961   323.7641   5   7   2.9291   2.2697   5.6520   0.9712   2.2081   1.7245   0.00    0.0
2017/05/28 02:01:30.000   45.709759040   13.763531288   322.7732   5   8   2.4340   2.1059   4.7159  -0.6734   1.4981  -1.4552   0.00    0.0
2017/05/28 02:02:00.000   45.709758766   13.763533625   322.0146   5   8   2.4332   2.1058   4.7246  -0.6872   1.5037  -1.4542   0.00    0.0
2017/05/28 02:02:30.000   45.709759540   13.763530136   322.3952   5   8   2.4325   2.1058   4.7333  -0.7006   1.5092  -1.4532   0.00    0.0
2017/05/28 02:03:00.000   45.709752577   13.763528939   322.7117   5   8   2.4318   2.1058   4.7418  -0.7137   1.5146  -1.4521   0.00    0.0
2017/05/28 02:03:30.000   45.709754626   13.763525449   322.0022   5   8   2.4312   2.1058   4.7503  -0.7266   1.5200  -1.4509   0.00    0.0
2017/05/28 02:04:00.000   45.709752542   13.763531676   322.5055   5   8   2.4307   2.1059   4.7587  -0.7393   1.5253  -1.4496   0.00    0.0
2017/05/28 02:04:30.000   45.709758577   13.763527090   321.5936   5   8   2.4302   2.1060   4.7671  -0.7517   1.5306  -1.4482   0.00    0.0
2017/05/28 02:05:00.000   45.709756075   13.763527859   322.0861   5   8   2.4298   2.1062   4.7753  -0.7639   1.5358  -1.4467   0.00    0.0
2017/05/28 02:05:30.000   45.709755335   13.763527911   322.2600   5   8   2.4295   2.1064   4.7834  -0.7758   1.5409  -1.4452   0.00    0.0
2017/05/28 02:06:00.000   45.709755866   13.763527865   322.8905   5   8   2.4292   2.1066   4.7914  -0.7876   1.5460  -1.4436   0.00    0.0
2017/05/28 02:06:30.000   45.709760670   13.763528614   321.6623   5   8   2.4291   2.1069   4.7993  -0.7992   1.5510  -1.4419   0.00    0.0
2017/05/28 02:07:00.000   45.709754483   13.763525866   322.6162   5   8   2.4289   2.1072   4.8070  -0.8106   1.5559  -1.4401   0.00    0.0
2017/05/28 02:07:30.000   45.709752058   13.763529921   322.3544   5   8   2.4289   2.1076   4.8147  -0.8218   1.5607  -1.4382   0.00    0.0
2017/05/28 02:08:00.000   45.709757183   13.763526633   322.0375   5   8   2.4289   2.1080   4.8222  -0.8329   1.5654  -1.4363   0.00    0.0
2017/05/28 02:08:30.000   45.709757408   13.763532032   322.7955   5   8   2.4289   2.1084   4.8296  -0.8438   1.5701  -1.4342   0.00    0.0
2017/05/28 02:09:00.000   45.709757995   13.763530882   322.0311   5   8   2.4291   2.1088   4.8368  -0.8545   1.5747  -1.4321   0.00    0.0
2017/05/28 02:09:30.000   45.709755545   13.763526821   322.6753   5   8   2.4293   2.1093   4.8439  -0.8652   1.5791  -1.4299   0.00    0.0
2017/05/28 02:10:00.000   45.709752977   13.763528476   321.9889   5   8   2.4295   2.1099   4.8509  -0.8756   1.5835  -1.4276   0.00    0.0
2017/05/28 02:10:30.000   45.709752989   13.763528351   321.8588   5   8   2.4299   2.1104   4.8577  -0.8860   1.5878  -1.4252   0.00    0.0
2017/05/28 02:11:00.000   45.709751672   13.763531906   322.5871   5   8   2.4303   2.1110   4.8644  -0.8962   1.5920  -1.4227   0.00    0.0
2017/05/28 02:11:30.000   45.709755112   13.763532073   322.2717   5   8   2.4307   2.1116   4.8708  -0.9063   1.5961  -1.4202   0.00    0.0
2017/05/28 02:12:00.000   45.709751444   13.763532806   322.9240   5   8   2.4312   2.1123   4.8772  -0.9163   1.6001  -1.4175   0.00    0.0
2017/05/28 02:12:30.000   45.709754108   13.763528659   322.8697   5   8   2.4318   2.1130   4.8833  -0.9261   1.6040  -1.4148   0.00    0.0
2017/05/28 02:13:00.000   45.709755488   13.763527934   322.5870   5   8   2.4325   2.1137   4.8893  -0.9359   1.6078  -1.4120   0.00    0.0
2017/05/28 02:13:30.000   45.709754777   13.763531538   322.2752   5   8   2.4332   2.1144   4.8951  -0.9456   1.6114  -1.4091   0.00    0.0
2017/05/28 02:14:00.000   45.709751770   13.763532035   322.4938   5   8   2.4340   2.1152   4.9008  -0.9551   1.6150  -1.4061   0.00    0.0
2017/05/28 02:14:30.000   45.709753828   13.763528330   322.5685   5   8   2.4349   2.1160   4.9062  -0.9646   1.6184  -1.4030   0.00    0.0
2017/05/28 02:15:00.000   45.709752746   13.763532249   322.6359   5   8   2.4358   2.1168   4.9115  -0.9740   1.6218  -1.3998   0.00    0.0
2017/05/28 02:15:30.000   45.709753392   13.763532211   322.3388   5   8   2.4368   2.1177   4.9166  -0.9833   1.6250  -1.3965   0.00    0.0
2017/05/28 02:16:00.000   45.709755401   13.763529037   322.3302   5   8   2.4378   2.1186   4.9215  -0.9925   1.6281  -1.3932   0.00    0.0
2017/05/28 02:16:30.000   45.709752137   13.763530846   322.4628   5   8   2.4390   2.1195   4.9261  -1.0016   1.6310  -1.3897   0.00    0.0
2017/05/28 02:17:00.000   45.709756921   13.763526225   321.9321   5   8   2.4402   2.1204   4.9306  -1.0107   1.6339  -1.3862   0.00    0.0
2017/05/28 02:17:30.000   45.709754924   13.763528331   322.0644   5   8   2.4414   2.1214   4.9349  -1.0196   1.6366  -1.3825   0.00    0.0
2017/05/28 02:18:00.000   45.709756937   13.763529924   321.5934   5   8   2.4427   2.1224   4.9390  -1.0285   1.6392  -1.3788   0.00    0.0
2017/05/28 02:18:30.000   45.709753702   13.763527760   322.0632   5   8   2.4441   2.1234   4.9429  -1.0374   1.6417  -1.3750   0.00    0.0
2017/05/28 02:19:00.000   45.709751125   13.763524973   321.8937   5   8   2.4456   2.1244   4.9466  -1.0461   1.6440  -1.3710   0.00    0.0
2017/05/28 02:19:30.000   45.709756038   13.763525284   321.6428   5   8   2.4471   2.1255   4.9500  -1.0548   1.6462  -1.3670   0.00    0.0
2017/05/28 02:20:00.000   45.709755241   13.763524661   322.2774   5   8   2.4487   2.1266   4.9533  -1.0635   1.6482  -1.3629   0.00    0.0
2017/05/28 02:20:30.000   45.709755819   13.763529797   322.5439   5   8   2.4504   2.1277   4.9563  -1.0721   1.6502  -1.3586   0.00    0.0
2017/05/28 02:21:00.000   45.709752906   13.763529781   322.6877   5   8   2.4521   2.1288   4.9592  -1.0806   1.6519  -1.3543   0.00    0.0
2017/05/28 02:21:30.000   45.709754454   13.763529869   321.6117   5   8   2.4539   2.1299   4.9618  -1.0891   1.6536  -1.3499   0.00    0.0
2017/05/28 02:22:00.000   45.709756789   13.763528941   322.6442   5   8   2.4558   2.1311   4.9642  -1.0975   1.6551  -1.3454   0.00    0.0
2017/05/28 02:22:30.000   45.709756020   13.763529739   322.5557   5   8   2.4577   2.1323   4.9663  -1.1058   1.6564  -1.3407   0.00    0.0
2017/05/28 02:23:00.000   45.709754568   13.763528525   322.1033   5   8   2.4597   2.1335   4.9683  -1.1142   1.6576  -1.3360   0.00    0.0
2017/05/28 02:23:30.000   45.709753710   13.763527939   323.3354   5   8   2.4618   2.1348   4.9700  -1.1224   1.6587  -1.3311   0.00    0.0
2017/05/28 02:24:00.000   45.709752874   13.763531205   322.2020   5   8   2.4639   2.1360   4.9716  -1.1307   1.6596  -1.3262   0.00    0.0
2017/05/28 02:24:30.000   45.709752506   13.763532859   321.8810   5   8   2.4661   2.1373   4.9729  -1.1389   1.6604  -1.3211   0.00    0.0
2017/05/28 02:25:00.000   45.709753941   13.763533133   321.6678   5   8   2.4684   2.1386   4.9739  -1.1470   1.6610  -1.3159   0.00    0.0
2017/05/28 02:25:30.000   45.709754715   13.763530911   322.3922   5   8   2.4708   2.1400   4.9748  -1.1551   1.6614  -1.3106   0.00    0.0
2017/05/28 02:26:00.000   45.709757277   13.763529968   321.8500   5   8   2.4732   2.1413   4.9754  -1.1632   1.6617  -1.3052   0.00    0.0
2017/05/28 02:26:30.000   45.709755164   13.763531826   321.5962   5   8   2.4757   2.1427   4.9758  -1.1713   1.6619  -1.2996   0.00    0.0
2017/05/28 02:27:00.000   45.709753357   13.763527982   322.5463   5   8   2.4782   2.1441   4.9760  -1.1793   1.6618  -1.2940   0.00    0.0
2017/05/28 02:27:30.000   45.709755231   13.763530500   322.2196   5   8   2.4809   2.1455   4.9760  -1.1873   1.6617  -1.2882   0.00    0.0
2017/05/28 02:28:00.000   45.709754849   13.763529778   323.7943   5   7   2.7736   2.4201   5.6123  -1.6756  -0.3739   1.2494   0.00    0.0
2017/05/28 02:28:30.000   45.709758469   13.763526574   322.9780   5   7   2.7813   2.4220   5.6261  -1.6857  -0.4233   1.2825   0.00    0.0
2017/05/28 02:29:00.000   45.709752268   13.763527093   323.6376   5   7   2.7891   2.4240   5.6397  -1.6957  -0.4680   1.3150   0.00    0.0
2017/05/28 02:29:30.000   45.709760763   13.763523878   322.5923   5   7   2.7970   2.4260   5.6530  -1.7058  -0.5093   1.3470   0.00    0.0
2017/05/28 02:30:00.000   45.709761082   13.763528907   322.8950   5   7   2.8051   2.4281   5.6662  -1.7160  -0.5480   1.3786   0.00    0.0
2017/05/28 02:30:30.000   45.709755986   13.763525734   323.8022   5   7   2.8133   2.4303   5.6792  -1.7261  -0.5845   1.4097   0.00    0.0
2017/05/28 02:31:00.000   45.709756021   13.763522986   323.1217   5   7   2.8217   2.4324   5.6919  -1.7363  -0.6192   1.4404   0.00    0.0
2017/05/28 02:31:30.000   45.709755681   13.763532279   322.9010   5   7   2.8301   2.4347   5.7044  -1.7464  -0.6524   1.4706   0.00    0.0
2017/05/28 02:32:00.000   45.709758800   13.763526071   323.1474   5   7   2.8387   2.4369   5.7167  -1.7566  -0.6843   1.5005   0.00    0.0
2017/05/28 02:32:30.000   45.709760864   13.763523702   322.9270   5   7   2.8474   2.4393   5.7287  -1.7668  -0.7150   1.5299   0.00    0.0
2017/05/28 02:33:00.000   45.709757251   13.763526494   322.7609   5   7   2.8562   2.4416   5.7404  -1.7771  -0.7448   1.5590   0.00    0.0
2017/05/28 02:33:30.000   45.709758561   13.763522756   322.9992   5   7   2.8652   2.4441   5.7519  -1.7873  -0.7736   1.5876   0.00    0.0
2017/05/28 02:34:00.000   45.709760519   13.763520788   323.0520   5   7   2.8742   2.4465   5.7631  -1.7976  -0.8015   1.6159   0.00    0.0
2017/05/28 02:34:30.000   45.709757403   13.763526385   322.6932   5   7   2.8834   2.4490   5.7739  -1.8078  -0.8288   1.6439   0.00    0.0
2017/05/28 02:35:00.000   45.709753282   13.763525262   322.3487   5   7   2.8927   2.4516   5.7845  -1.8181  -0.8553   1.6714   0.00    0.0
2017/05/28 02:35:30.000   45.709758665   13.763522430   322.9985   5   7   2.9020   2.4542   5.7948  -1.8284  -0.8811   1.6986   0.00    0.0
2017/05/28 02:36:00.000   45.709756758   13.763521586   322.6469   5   7   2.9115   2.4568   5.8047  -1.8387  -0.9063   1.7254   0.00    0.0
2017/05/28 02:36:30.000   45.709754579   13.763524073   322.4463   5   7   2.9211   2.4594   5.8144  -1.8490  -0.9310   1.7518   0.00    0.0
2017/05/28 02:37:00.000   45.709757711   13.763526321   322.5186   5   7   2.9308   2.4621   5.8236  -1.8593  -0.9551   1.7779   0.00    0.0
2017/05/28 02:37:30.000   45.709762400   13.763518301   323.4831   5   7   2.9405   2.4649   5.8325  -1.8696  -0.9786   1.8036   0.00    0.0
2017/05/28 02:38:00.000   45.709758977   13.763522170   323.5057   5   7   2.9504   2.4677   5.8411  -1.8799  -1.0017   1.8289   0.00    0.0
2017/05/28 02:38:30.000   45.709759833   13.763526397   322.6184   5   7   2.9603   2.4705   5.8492  -1.8903  -1.0242   1.8538   0.00    0.0
2017/05/28 02:39:00.000   45.709756777   13.763527110   322.7691   5   7   2.9703   2.4733   5.8570  -1.9006  -1.0463   1.8783   0.00    0.0
2017/05/28 02:39:30.000   45.709754857   13.763525791   323.2588   5   7   2.9804   2.4762   5.8644  -1.9109  -1.0679   1.9025   0.00    0.0
2017/05/28 02:40:00.000   45.709755403   13.763523943   322.2651   5   7   2.9906   2.4791   5.8714  -1.9211  -1.0891   1.9263   0.00    0.0
2017/05/28 02:40:30.000   45.709760127   13.763520073   322.3100   5   8   2.6889   2.1430   5.5401  -1.4360  -1.9211   2.5333   0.00    0.0
2017/05/28 02:41:00.000   45.709757566   13.763522983   321.9697   5   8   2.6943   2.1424   5.5570  -1.4413  -1.9268   2.5480   0.00    0.0
2017/05/28 02:41:30.000   45.709759477   13.763520270   321.9506   5   8   2.6996   2.1417   5.5734  -1.4464  -1.9322   2.5622   0.00    0.0
2017/05/28 02:42:00.000   45.709758892   13.763525019   321.7743   5   8   2.7049   2.1410   5.5893  -1.4513  -1.9372   2.5760   0.00    0.0
2017/05/28 02:42:30.000   45.709762720   13.763518250   322.6709   5   8   2.7101   2.1403   5.6048  -1.4560  -1.9419   2.5894   0.00    0.0
2017/05/28 02:43:00.000   45.709759018   13.763523726   322.4008   5   8   2.7152   2.1395   5.6197  -1.4606  -1.9462   2.6024   0.00    0.0
2017/05/28 02:43:30.000   45.709760151   13.763518248   322.7130   5   8   2.7202   2.1387   5.6342  -1.4650  -1.9501   2.6148   0.00    0.0
2017/05/28 02:44:00.000   45.709762070   13.763519544   322.4437   5   8   2.7250   2.1378   5.6480  -1.4692  -1.9537   2.6268   0.00    0.0
2017/05/28 02:44:30.000   45.709763473   13.763517859   322.3499   5   8   2.7298   2.1369   5.6613  -1.4732  -1.9569   2.6382   0.00    0.0
2017/05/28 02:45:00.000   45.709764498   13.763521420   322.8640   5   8   2.7345   2.1360   5.6740  -1.4770  -1.9597   2.6492   0.00    0.0
2017/05/28 02:45:30.000   45.709759522   13.763528597   322.1172   5   8   2.7390   2.1350   5.6861  -1.4807  -1.9621   2.6597   0.00    0.0
2017/05/28 02:46:00.000   45.709760897   13.763520122   323.3939   5   8   2.7434   2.1339   5.6976  -1.4842  -1.9640   2.6696   0.00    0.0
2017/05/28 02:46:30.000   45.709764655   13.763519691   322.5835   5   8   2.7477   2.1329   5.7084  -1.4874  -1.9656   2.6789   0.00    0.0
2017/05/28 02:47:00.000   45.709763804   13.763522929   321.5389   5   8   2.7518   2.1317   5.7186  -1.4905  -1.9668   2.6878   0.00    0.0
2017/05/28 02:47:30.000   45.709760424   13.763517513   322.6197   5   8   2.7558   2.1305   5.7281  -1.4934  -1.9675   2.6960   0.00    0.0
2017/05/28 02:48:00.000   45.709764624   13.763519043   321.8196   5   8   2.7597   2.1293   5.7368  -1.4960  -1.9678   2.7037   0.00    0.0
2017/05/28 02:48:30.000   45.709760073   13.763516879   322.4482   5   8   2.7634   2.1280   5.7449  -1.4985  -1.9677   2.7108   0.00    0.0
2017/05/28 02:49:00.000   45.709758424   13.763524401   322.2785   5   8   2.7669   2.1267   5.7523  -1.5007  -1.9671   2.7173   0.00    0.0
2017/05/28 02:49:30.000   45.709759955   13.763523206   322.4113   5   8   2.7703   2.1253   5.7589  -1.5028  -1.9661   2.7233   0.00    0.0
2017/05/28 02:50:00.000   45.709758343   13.763523721   322.1492   5   8   2.7735   2.1239   5.7648  -1.5046  -1.9647   2.7286   0.00    0.0
2017/05/28 02:50:30.000   45.709760161   13.763517112   321.4607   5   8   2.7766   2.1224   5.7699  -1.5063  -1.9628   2.7333   0.00    0.0
2017/05/28 02:51:00.000   45.709765699   13.763518432   323.1462   5   8   2.7795   2.1208   5.7743  -1.5077  -1.9605   2.7374   0.00    0.0
2017/05/28 02:51:30.000   45.709761099   13.763523032   322.1279   5   8   2.7822   2.1192   5.7779  -1.5089  -1.9577   2.7409   0.00    0.0
2017/05/28 02:52:00.000   45.709759876   13.763521238   321.9283   5   8   2.7847   2.1176   5.7807  -1.5100  -1.9545   2.7438   0.00    0.0
2017/05/28 02:52:30.000   45.709763208   13.763526205   321.9291   5   8   2.7871   2.1159   5.7828  -1.5108  -1.9508   2.7460   0.00    0.0
2017/05/28 02:53:00.000   45.709757675   13.763519845   323.0655   5   8   2.7893   2.1142   5.7840  -1.5114  -1.9467   2.7476   0.00    0.0
2017/05/28 02:53:30.000   45.709757389   13.763524949   322.6319   5   8   2.7913   2.1124   5.7845  -1.5118  -1.9421   2.7486   0.00    0.0
2017/05/28 02:54:00.000   45.709762108   13.763516994   322.4431   5   8   2.7931   2.1106   5.7842  -1.5120  -1.9371   2.7489   0.00    0.0
2017/05/28 02:54:30.000   45.709760424   13.763525746   322.2197   5   8   2.7948   2.1087   5.7831  -1.5121  -1.9317   2.7486   0.00    0.0
2017/05/28 02:55:00.000   45.709759016   13.763521675   322.5212   5   8   2.7962   2.1068   5.7812  -1.5119  -1.9258   2.7477   0.00    0.0
2017/05/28 02:55:30.000   45.709762801   13.763522037   322.1772   5   8   2.7975   2.1049   5.7785  -1.5115  -1.9195   2.7462   0.00    0.0
2017/05/28 02:56:00.000   45.709763044   13.763515433   322.6039   5   8   2.7987   2.1029   5.7751  -1.5110  -1.9127   2.7440   0.00    0.0
2017/05/28 02:56:30.000   45.709764494   13.763518189   322.3361   5   8   2.7996   2.1009   5.7709  -1.5102  -1.9055   2.7412   0.00    0.0
2017/05/28 02:57:00.000   45.709760863   13.763517260   322.3141   5   8   2.8004   2.0989   5.7659  -1.5093  -1.8979   2.7378   0.00    0.0
2017/05/28 02:57:30.000   45.709759035   13.763517687   321.8452   5   8   2.8010   2.0968   5.7601  -1.5082  -1.8899   2.7338   0.00    0.0
2017/05/28 02:58:00.000   45.709756456   13.763521686   321.9585   5   8   2.8014   2.0947   5.7536  -1.5069  -1.8815   2.7291   0.00    0.0
2017/05/28 02:58:30.000   45.709758292   13.763525473   321.3636   5   8   2.8017   2.0925   5.7464  -1.5055  -1.8726   2.7239   0.00    0.0
2017/05/28 02:59:00.000   45.709758718   13.763521067   322.0007   5   8   2.8019   2.0904   5.7384  -1.5039  -1.8634   2.7180   0.00    0.0
2017/05/28 02:59:30.000   45.709762646   13.763520718   322.6011   5   8   2.8018   2.0882   5.7298  -1.5022  -1.8537   2.7116   0.00    0.0
2017/05/28 03:00:00.000   45.709757910   13.763515286   322.2440   5   8   2.8016   2.0860   5.7204  -1.5002  -1.8437   2.7046   0.00    0.0
2017/05/28 03:00:30.000   45.709762568   13.763518101   322.5071   5   8   2.8013   2.0837   5.7104  -1.4982  -1.8333   2.6970   0.00    0.0
2017/05/28 03:01:00.000   45.709753871   13.763522967   322.2231   5   8   2.8008   2.0815   5.6996  -1.4960  -1.8226   2.6889   0.00    0.0
2017/05/28 03:01:30.000   45.709758725   13.763520207   322.4187   5   8   2.8002   2.0792   5.6882  -1.4937  -1.8114   2.6801   0.00    0.0
2017/05/28 03:02:00.000   45.709761146   13.763519527   323.2923   5   8   2.7995   2.0770   5.6762  -1.4912  -1.8000   2.6709   0.00    0.0
2017/05/28 03:02:30.000   45.709758589   13.763516389   321.8984   5   8   2.7986   2.0747   5.6636  -1.4886  -1.7881   2.6611   0.00    0.0
2017/05/28 03:03:00.000   45.709757528   13.763522408   321.9990   5   8   2.7976   2.0724   5.6504  -1.4859  -1.7760   2.6508   0.00    0.0
2017/05/28 03:03:30.000   45.709761192   13.763520347   322.7185   5   8   2.7965   2.0701   5.6365  -1.4831  -1.7635   2.6399   0.00    0.0
2017/05/28 03:04:00.000   45.709759037   13.763520958   322.1135   5   8   2.7953   2.0679   5.6222  -1.4802  -1.7507   2.6286   0.00    0.0
2017/05/28 03:04:30.000   45.709754834   13.763526102   320.5858   5   8   2.7940   2.0656   5.6072  -1.4772  -1.7376   2.6168   0.00    0.0
2017/05/28 03:05:00.000   45.709757842   13.763517515   321.8453   5   8   2.7926   2.0633   5.5918  -1.4740  -1.7242   2.6045   0.00    0.0
2017/05/28 03:05:30.000   45.709755945   13.763524954   322.0740   5   8   2.7911   2.0610   5.5758  -1.4709  -1.7105   2.5917   0.00    0.0
2017/05/28 03:06:00.000   45.709759961   13.763521964   321.4167   5   7   2.8913   2.2361   6.4233  -1.2208  -2.3846   2.0501   0.00    0.0
2017/05/28 03:06:30.000   45.709765959   13.763520841   321.4960   5   7   2.8936   2.2289   6.3981  -1.2156  -2.3616   2.0250   0.00    0.0
2017/05/28 03:07:00.000   45.709762810   13.763517811   321.9991   5   7   2.8961   2.2218   6.3726  -1.2105  -2.3386   1.9991   0.00    0.0
2017/05/28 03:07:30.000   45.709757193   13.763524417   322.0016   5   7   2.8986   2.2148   6.3469  -1.2053  -2.3154   1.9726   0.00    0.0
2017/05/28 03:08:00.000   45.709763925   13.763523601   321.2839   5   7   2.9011   2.2079   6.3210  -1.2001  -2.2922   1.9453   0.00    0.0
2017/05/28 03:08:30.000   45.709761062   13.763519769   322.6674   5   7   2.9037   2.2011   6.2949  -1.1950  -2.2689   1.9172   0.00    0.0
2017/05/28 03:09:00.000   45.709759348   13.763522963   321.5647   5   7   2.9063   2.1945   6.2687  -1.1899  -2.2455   1.8883   0.00    0.0
2017/05/28 03:09:30.000   45.709761360   13.763522762   322.0672   5   7   2.9090   2.1879   6.2423  -1.1849  -2.2221   1.8587   0.00    0.0
2017/05/28 03:10:00.000   45.709760484   13.763518420   321.7152   5   7   2.9118   2.1815   6.2159  -1.1800  -2.1986   1.8283   0.00    0.0
2017/05/28 03:10:30.000   45.709758869   13.763519138   322.9554   5   7   2.9147   2.1752   6.1893  -1.1751  -2.1752   1.7971   0.00    0.0
2017/05/28 03:11:00.000   45.709758796   13.763518877   321.0874   5   7   2.9177   2.1690   6.1627  -1.1703  -2.1516   1.7651   0.00    0.0
2017/05/28 03:11:30.000   45.709763947   13.763516840   322.6134   5   7   2.9207   2.1629   6.1361  -1.1655  -2.1281   1.7322   0.00    0.0
2017/05/28 03:12:00.000   45.709764855   13.763521531   321.8319   5   7   2.9239   2.1570   6.1095  -1.1609  -2.1045   1.6984   0.00    0.0
2017/05/28 03:12:30.000   45.709760892   13.763523243   321.1975   5   7   2.9271   2.1511   6.0829  -1.1564  -2.0809   1.6637   0.00    0.0
2017/05/28 03:13:00.000   45.709762572   13.763523409   321.0617   5   7   2.9305   2.1454   6.0563  -1.1519  -2.0574   1.6281   0.00    0.0
2017/05/28 03:13:30.000   45.709761475   13.763519450   321.5362   5   7   2.9340   2.1398   6.0298  -1.1476  -2.0338   1.5914   0.00    0.0
2017/05/28 03:14:00.000   45.709762056   13.763517827   322.1007   5   7   2.9376   2.1344   6.0034  -1.1434  -2.0102   1.5537   0.00    0.0
2017/05/28 03:14:30.000   45.709761918   13.763518665   321.5744   5   7   2.9413   2.1290   5.9770  -1.1393  -1.9867   1.5149   0.00    0.0
2017/05/28 03:15:00.000   45.709756000   13.763524897   320.6972   5   7   2.9451   2.1238   5.9508  -1.1354  -1.9631   1.4749   0.00    0.0
2017/05/28 03:15:30.000   45.709759244   13.763521928   321.1269   5   7   2.9491   2.1187   5.9247  -1.1316  -1.9396   1.4336   0.00    0.0
2017/05/28 03:16:00.000   45.709760027   13.763523388   321.1214   5   7   2.9533   2.1137   5.8987  -1.1279  -1.9161   1.3910   0.00    0.0
2017/05/28 03:16:30.000   45.709761268   13.763520574   321.4051   5   7   2.9575   2.1089   5.8729  -1.1244  -1.8926   1.3469   0.00    0.0
2017/05/28 03:17:00.000   45.709766475   13.763522001   321.0609   5   7   2.9619   2.1042   5.8473  -1.1210  -1.8691   1.3011   0.00    0.0
2017/05/28 03:17:30.000   45.709759617   13.763518887   321.3487   5   7   2.9665   2.0995   5.8218  -1.1178  -1.8457   1.2536   0.00    0.0
2017/05/28 03:18:00.000   45.709760366   13.763522164   320.7415   5   7   2.9712   2.0951   5.7966  -1.1148  -1.8223   1.2041   0.00    0.0
2017/05/28 03:18:30.000   45.709761368   13.763521699   320.5877   5   7   2.9761   2.0907   5.7716  -1.1119  -1.7989   1.1524   0.00    0.0
2017/05/28 03:19:00.000   45.709764649   13.763517634   321.3043   5   7   2.9812   2.0865   5.7468  -1.1092  -1.7756   1.0981   0.00    0.0
2017/05/28 03:19:30.000   45.709758610   13.763521185   321.5457   5   7   2.9864   2.0823   5.7223  -1.1067  -1.7522   1.0409   0.00    0.0
2017/05/28 03:20:00.000   45.709756758   13.763523869   320.9464   5   7   2.9918   2.0783   5.6980  -1.1043  -1.7290   0.9803   0.00    0.0
2017/05/28 03:20:30.000   45.709755897   13.763520259   321.4501   5   7   2.9974   2.0744   5.6740  -1.1021  -1.7057   0.9156   0.00    0.0
2017/05/28 03:21:00.000   45.709756604   13.763514980   321.6004   5   7   3.0031   2.0707   5.6502  -1.1001  -1.6824   0.8459   0.00    0.0
2017/05/28 03:21:30.000   45.709756278   13.763523115   321.9431   5   7   3.0091   2.0670   5.6268  -1.0983  -1.6592   0.7699   0.00    0.0
2017/05/28 03:22:00.000   45.709766566   13.763518330   322.4250   5   7   3.0152   2.0635   5.6036  -1.0967  -1.6360   0.6854   0.00    0.0
2017/05/28 03:22:30.000   45.709761784   13.763518132   322.2255   5   7   3.0215   2.0601   5.5808  -1.0952  -1.6128   0.5887   0.00    0.0
2017/05/28 03:23:00.000   45.709760288   13.763520437   321.1079   5   7   3.0280   2.0568   5.5583  -1.0940  -1.5896   0.4726   0.00    0.0
2017/05/28 03:23:30.000   45.709763804   13.763517403   321.2967   5   7   3.0348   2.0536   5.5361  -1.0929  -1.5665   0.3161   0.00    0.0
2017/05/28 03:24:00.000   45.709763946   13.763516504   321.6845   5   7   3.0417   2.0505   5.5142  -1.0921  -1.5433  -0.1534   0.00    0.0
2017/05/28 03:24:30.000   45.709759246   13.763522313   322.1016   5   7   3.0488   2.0475   5.4927  -1.0914  -1.5201  -0.3836   0.00    0.0
2017/05/28 03:25:00.000   45.709760422   13.763521409   321.5598   5   7   3.0561   2.0447   5.4715  -1.0910  -1.4969  -0.5205   0.00    0.0
2017/05/28 03:25:30.000   45.709761591   13.763522184   321.5237   5   7   3.0637   2.0419   5.4506  -1.0907  -1.4737  -0.6283   0.00    0.0
2017/05/28 03:26:00.000   45.709764303   13.763520078   321.4673   5   7   3.0714   2.0393   5.4302  -1.0907  -1.4505  -0.7202   0.00    0.0
2017/05/28 03:26:30.000   45.709757983   13.763516868   321.9904   5   7   3.0794   2.0368   5.4101  -1.0908  -1.4273  -0.8018   0.00    0.0
2017/05/28 03:27:00.000   45.709765580   13.763518818   321.8198   5   7   3.0876   2.0343   5.3903  -1.0912  -1.4040  -0.8759   0.00    0.0
2017/05/28 03:27:30.000   45.709762553   13.763517857   321.7551   5   7   3.0960   2.0320   5.3710  -1.0918  -1.3806  -0.9443   0.00    0.0
2017/05/28 03:28:00.000   45.709767320   13.763516682   321.5842   5   7   3.1046   2.0298   5.3520  -1.0925  -1.3572  -1.0082   0.00    0.0
2017/05/28 03:28:30.000   45.709757980   13.763516583   320.9723   5   7   3.1135   2.0277   5.3334  -1.0935  -1.3338  -1.0683   0.00    0.0
2017/05/28 03:29:00.000   45.709759368   13.763522682   321.8858   5   7   3.1226   2.0257   5.3152  -1.0947  -1.3102  -1.1254   0.00    0.0
