% program   : RTKPOST-EX 2.5.0
% inp file  : D:\Academic\0 Research\000 In preparation\00 GPS positioning performance circular analysis during short-term fast-developing geomagnetic storms\Storm 2\trie1490.17d
% inp file  : D:\Academic\0 Research\000 In preparation\00 GPS positioning performance circular analysis during short-term fast-developing geomagnetic storms\Storm 2\brdc1490.17n
% obs start : 2017/05/29 00:00:00.0 GPST (week1951  86400.0s)
% obs end   : 2017/05/29 23:59:30.0 GPST (week1951 172770.0s)
% pos mode  : Single
% elev mask : 15.0 deg
% tidecorr  :
% ionos opt : Broadcast
% tropo opt : Saastamoinen
% ephemeris : Broadcast
% navi sys  : GPS
%
% (lat/lon/height=WGS84/ellipsoidal,Q=1:fix,2:float,3:sbas,4:dgps,5:single,6:ppp,ns=# of satellites)
%  GPST                  latitude(deg) longitude(deg)  height(m)   Q  ns   sdn(m)   sde(m)   sdu(m)  sdne(m)  sdeu(m)  sdun(m) age(s)  ratio
2017/05/29 00:00:00.000   45.709759882   13.763521558   321.9362   5   9   2.5535   1.8152   5.5096  -0.8101  -1.5894   1.9772   0.00    0.0
2017/05/29 00:00:30.000   45.709762072   13.763527601   321.9525   5   9   2.5515   1.8123   5.4908  -0.8040  -1.5724   1.9576   0.00    0.0
2017/05/29 00:01:00.000   45.709764085   13.763523443   322.0039   5   9   2.5496   1.8094   5.4716  -0.7981  -1.5553   1.9375   0.00    0.0
2017/05/29 00:01:30.000   45.709762924   13.763524825   321.5425   5   9   2.5476   1.8066   5.4521  -0.7921  -1.5381   1.9171   0.00    0.0
2017/05/29 00:02:00.000   45.709761828   13.763526237   321.9113   5   9   2.5457   1.8038   5.4323  -0.7861  -1.5208   1.8963   0.00    0.0
2017/05/29 00:02:30.000   45.709760835   13.763529172   321.7578   5   9   2.5439   1.8011   5.4123  -0.7802  -1.5035   1.8751   0.00    0.0
2017/05/29 00:03:00.000   45.709763711   13.763527735   320.9549   5   9   2.5420   1.7985   5.3920  -0.7743  -1.4861   1.8535   0.00    0.0
2017/05/29 00:03:30.000   45.709767861   13.763522620   321.8455   5   9   2.5403   1.7959   5.3714  -0.7684  -1.4686   1.8315   0.00    0.0
2017/05/29 00:04:00.000   45.709763397   13.763524906   321.9177   5   9   2.5385   1.7934   5.3506  -0.7625  -1.4512   1.8092   0.00    0.0
2017/05/29 00:04:30.000   45.709763420   13.763523517   321.7742   5   9   2.5369   1.7910   5.3296  -0.7567  -1.4336   1.7865   0.00    0.0
2017/05/29 00:05:00.000   45.709764761   13.763525519   321.9797   5   9   2.5353   1.7886   5.3084  -0.7510  -1.4161   1.7635   0.00    0.0
2017/05/29 00:05:30.000   45.709769465   13.763522690   321.6597   5   9   2.5337   1.7863   5.2871  -0.7453  -1.3985   1.7401   0.00    0.0
2017/05/29 00:06:00.000   45.709764093   13.763521668   322.8672   5   9   2.5322   1.7841   5.2656  -0.7397  -1.3810   1.7163   0.00    0.0
2017/05/29 00:06:30.000   45.709761087   13.763519584   321.8880   5   9   2.5308   1.7819   5.2440  -0.7341  -1.3634   1.6922   0.00    0.0
2017/05/29 00:07:00.000   45.709763925   13.763528883   322.4427   5   9   2.5295   1.7798   5.2222  -0.7286  -1.3458   1.6677   0.00    0.0
2017/05/29 00:07:30.000   45.709763945   13.763517105   321.9134   5   9   2.5282   1.7777   5.2004  -0.7231  -1.3282   1.6429   0.00    0.0
2017/05/29 00:08:00.000   45.709764123   13.763524621   321.5502   5   9   2.5270   1.7757   5.1784  -0.7177  -1.3106   1.6177   0.00    0.0
2017/05/29 00:08:30.000   45.709765782   13.763521946   322.3027   5   9   2.5259   1.7738   5.1564  -0.7124  -1.2931   1.5921   0.00    0.0
2017/05/29 00:09:00.000   45.709758833   13.763527370   321.7736   5   9   2.5249   1.7720   5.1344  -0.7072  -1.2755   1.5662   0.00    0.0
2017/05/29 00:09:30.000   45.709766182   13.763525620   322.5504   5   9   2.5240   1.7702   5.1123  -0.7021  -1.2580   1.5398   0.00    0.0
2017/05/29 00:10:00.000   45.709763711   13.763524824   321.5422   5   9   2.5231   1.7685   5.0902  -0.6970  -1.2405   1.5131   0.00    0.0
2017/05/29 00:10:30.000   45.709764443   13.763526751   322.3024   5   9   2.5224   1.7668   5.0680  -0.6920  -1.2230   1.4860   0.00    0.0
2017/05/29 00:11:00.000   45.709764445   13.763522851   322.0407   5   9   2.5217   1.7652   5.0459  -0.6871  -1.2056   1.4585   0.00    0.0
2017/05/29 00:11:30.000   45.709762761   13.763528248   322.6923   5   9   2.5212   1.7637   5.0238  -0.6823  -1.1881   1.4306   0.00    0.0
2017/05/29 00:12:00.000   45.709763706   13.763517937   322.0251   5   9   2.5207   1.7622   5.0017  -0.6776  -1.1708   1.4022   0.00    0.0
2017/05/29 00:12:30.000   45.709765576   13.763525056   322.4457   5   9   2.5204   1.7608   4.9796  -0.6730  -1.1534   1.3734   0.00    0.0
2017/05/29 00:13:00.000   45.709766022   13.763524601   321.6980   5   9   2.5201   1.7594   4.9576  -0.6685  -1.1361   1.3441   0.00    0.0
2017/05/29 00:13:30.000   45.709770166   13.763519842   321.9010   5   9   2.5200   1.7581   4.9357  -0.6640  -1.1189   1.3143   0.00    0.0
2017/05/29 00:14:00.000   45.709766349   13.763522671   322.1249   5   9   2.5200   1.7569   4.9138  -0.6597  -1.1016   1.2840   0.00    0.0
2017/05/29 00:14:30.000   45.709770393   13.763519207   322.3093   5   9   2.5201   1.7557   4.8920  -0.6554  -1.0845   1.2531   0.00    0.0
2017/05/29 00:15:00.000   45.709764585   13.763523838   322.3025   5   9   2.5203   1.7546   4.8703  -0.6513  -1.0673   1.2216   0.00    0.0
2017/05/29 00:15:30.000   45.709762533   13.763525818   321.6848   5   9   2.5206   1.7535   4.8487  -0.6472  -1.0503   1.1895   0.00    0.0
2017/05/29 00:16:00.000   45.709766770   13.763520441   321.9738   5   9   2.5210   1.7525   4.8272  -0.6433  -1.0332   1.1567   0.00    0.0
2017/05/29 00:16:30.000   45.709764597   13.763527255   322.0589   5   9   2.5216   1.7516   4.8059  -0.6394  -1.0163   1.1231   0.00    0.0
2017/05/29 00:17:00.000   45.709766045   13.763518601   322.4703   5   9   2.5223   1.7507   4.7846  -0.6356  -0.9993   1.0888   0.00    0.0
2017/05/29 00:17:30.000   45.709765137   13.763526807   321.8523   5   9   2.5231   1.7499   4.7635  -0.6320  -0.9825   1.0535   0.00    0.0
2017/05/29 00:18:00.000   45.709758613   13.763522393   321.9119   5   9   2.5240   1.7491   4.7426  -0.6284  -0.9656   1.0173   0.00    0.0
2017/05/29 00:18:30.000   45.709761536   13.763525066   322.3776   5   9   2.5250   1.7484   4.7218  -0.6249  -0.9489   0.9800   0.00    0.0
2017/05/29 00:19:00.000   45.709764246   13.763525676   322.9618   5   9   2.5262   1.7477   4.7011  -0.6215  -0.9321   0.9415   0.00    0.0
2017/05/29 00:19:30.000   45.709764126   13.763523183   322.0639   5   9   2.5275   1.7471   4.6806  -0.6182  -0.9154   0.9016   0.00    0.0
2017/05/29 00:20:00.000   45.709754959   13.763519927   324.0051   5   8   3.3875   2.0051   6.0439   1.3571  -2.1443  -2.8167   0.00    0.0
2017/05/29 00:20:30.000   45.709762772   13.763518834   323.8598   5   8   3.4052   2.0013   6.0308   1.3617  -2.1321  -2.8479   0.00    0.0
2017/05/29 00:21:00.000   45.709754814   13.763518196   324.0864   5   8   3.4232   1.9976   6.0183   1.3663  -2.1202  -2.8790   0.00    0.0
2017/05/29 00:21:30.000   45.709757384   13.763518612   324.1846   5   8   3.4415   1.9940   6.0063   1.3709  -2.1086  -2.9101   0.00    0.0
2017/05/29 00:22:00.000   45.709759093   13.763519399   323.0675   5   8   3.4603   1.9905   5.9948   1.3754  -2.0972  -2.9412   0.00    0.0
2017/05/29 00:22:30.000   45.709758048   13.763520458   323.7003   5   8   3.4794   1.9872   5.9838   1.3800  -2.0860  -2.9724   0.00    0.0
2017/05/29 00:23:00.000   45.709758177   13.763521687   322.8609   5   8   3.4989   1.9839   5.9733   1.3846  -2.0752  -3.0036   0.00    0.0
2017/05/29 00:23:30.000   45.709755378   13.763516436   324.3566   5   8   3.5187   1.9807   5.9634   1.3892  -2.0646  -3.0348   0.00    0.0
2017/05/29 00:24:00.000   45.709759281   13.763520930   323.1185   5   8   3.5390   1.9776   5.9540   1.3938  -2.0543  -3.0661   0.00    0.0
2017/05/29 00:24:30.000   45.709758259   13.763517714   323.8066   5   8   3.5597   1.9746   5.9452   1.3983  -2.0442  -3.0975   0.00    0.0
2017/05/29 00:25:00.000   45.709755017   13.763519335   324.3616   5   8   3.5808   1.9718   5.9369   1.4029  -2.0344  -3.1289   0.00    0.0
2017/05/29 00:25:30.000   45.709752291   13.763514100   323.9721   5   8   3.6022   1.9690   5.9292   1.4076  -2.0248  -3.1604   0.00    0.0
2017/05/29 00:26:00.000   45.709754654   13.763519990   323.9855   5   8   3.6241   1.9663   5.9220   1.4122  -2.0155  -3.1921   0.00    0.0
2017/05/29 00:26:30.000   45.709752696   13.763519468   322.7569   5   8   3.6465   1.9637   5.9154   1.4168  -2.0064  -3.2238   0.00    0.0
2017/05/29 00:27:00.000   45.709756113   13.763525274   323.6587   5   8   3.6692   1.9611   5.9094   1.4215  -1.9976  -3.2557   0.00    0.0
2017/05/29 00:27:30.000   45.709756835   13.763519182   323.9540   5   8   3.6924   1.9587   5.9040   1.4261  -1.9891  -3.2878   0.00    0.0
2017/05/29 00:28:00.000   45.709759408   13.763523701   323.4759   5   8   3.7160   1.9564   5.8991   1.4308  -1.9808  -3.3200   0.00    0.0
2017/05/29 00:28:30.000   45.709763014   13.763522206   322.0263   5   8   3.7401   1.9541   5.8949   1.4355  -1.9727  -3.3523   0.00    0.0
2017/05/29 00:29:00.000   45.709757937   13.763518038   323.6748   5   8   3.7647   1.9519   5.8912   1.4403  -1.9649  -3.3848   0.00    0.0
2017/05/29 00:29:30.000   45.709759234   13.763515470   323.9075   5   8   3.7897   1.9498   5.8882   1.4450  -1.9573  -3.4175   0.00    0.0
2017/05/29 00:30:00.000   45.709763187   13.763523571   323.0593   5   8   3.8151   1.9478   5.8857   1.4498  -1.9500  -3.4505   0.00    0.0
2017/05/29 00:30:30.000   45.709753011   13.763521745   323.9458   5   8   3.8411   1.9459   5.8839   1.4546  -1.9429  -3.4836   0.00    0.0
2017/05/29 00:31:00.000   45.709759057   13.763522265   322.1498   5   8   3.8675   1.9440   5.8827   1.4595  -1.9360  -3.5169   0.00    0.0
2017/05/29 00:31:30.000   45.709756837   13.763520899   323.8805   5   8   3.8945   1.9422   5.8821   1.4644  -1.9294  -3.5505   0.00    0.0
2017/05/29 00:32:00.000   45.709756697   13.763521653   323.1375   5   8   3.9219   1.9405   5.8822   1.4693  -1.9230  -3.5844   0.00    0.0
2017/05/29 00:32:30.000   45.709759181   13.763520037   323.7034   5   8   3.9499   1.9389   5.8829   1.4743  -1.9168  -3.6185   0.00    0.0
2017/05/29 00:33:00.000   45.709757645   13.763523480   323.1651   5   8   3.9784   1.9373   5.8842   1.4793  -1.9109  -3.6529   0.00    0.0
2017/05/29 00:33:30.000   45.709762492   13.763524410   323.8377   5   8   4.0074   1.9359   5.8862   1.4843  -1.9051  -3.6875   0.00    0.0
2017/05/29 00:34:00.000   45.709760607   13.763522103   323.3625   5   8   4.0369   1.9345   5.8889   1.4894  -1.8997  -3.7225   0.00    0.0
2017/05/29 00:34:30.000   45.709754969   13.763520606   323.0944   5   8   4.0670   1.9331   5.8922   1.4945  -1.8944  -3.7577   0.00    0.0
2017/05/29 00:35:00.000   45.709758228   13.763520693   323.5575   5   8   4.0977   1.9318   5.8962   1.4997  -1.8893  -3.7933   0.00    0.0
2017/05/29 00:35:30.000   45.709763781   13.763522103   323.7393   5   8   4.1289   1.9306   5.9008   1.5049  -1.8845  -3.8293   0.00    0.0
2017/05/29 00:36:00.000   45.709765356   13.763523861   322.1854   5   8   4.1607   1.9295   5.9062   1.5101  -1.8798  -3.8655   0.00    0.0
2017/05/29 00:36:30.000   45.709764131   13.763524160   323.1442   5   8   4.1930   1.9284   5.9122   1.5154  -1.8754  -3.9022   0.00    0.0
2017/05/29 00:37:00.000   45.709764808   13.763521223   322.9420   5   8   4.2260   1.9274   5.9189   1.5208  -1.8712  -3.9392   0.00    0.0
2017/05/29 00:37:30.000   45.709767100   13.763519993   322.0098   5   8   4.2596   1.9265   5.9263   1.5262  -1.8672  -3.9766   0.00    0.0
2017/05/29 00:38:00.000   45.709766208   13.763520266   323.3271   5   8   4.2938   1.9256   5.9345   1.5316  -1.8634  -4.0144   0.00    0.0
2017/05/29 00:38:30.000   45.709765214   13.763517440   322.4897   5   8   4.3287   1.9248   5.9433   1.5371  -1.8598  -4.0526   0.00    0.0
2017/05/29 00:39:00.000   45.709764172   13.763519742   323.0118   5   8   4.3641   1.9240   5.9529   1.5426  -1.8563  -4.0912   0.00    0.0
2017/05/29 00:39:30.000   45.709762091   13.763523973   323.5842   5   8   4.4003   1.9233   5.9632   1.5482  -1.8531  -4.1303   0.00    0.0
2017/05/29 00:40:00.000   45.709761994   13.763520110   323.0863   5   8   4.4371   1.9227   5.9742   1.5539  -1.8501  -4.1698   0.00    0.0
2017/05/29 00:40:30.000   45.709754789   13.763519401   324.0684   5   8   4.4745   1.9221   5.9860   1.5595  -1.8473  -4.2098   0.00    0.0
2017/05/29 00:41:00.000   45.709759372   13.763519082   323.1748   5   8   4.5127   1.9216   5.9985   1.5653  -1.8446  -4.2503   0.00    0.0
2017/05/29 00:41:30.000   45.709753745   13.763522415   323.7731   5   8   4.5516   1.9212   6.0118   1.5711  -1.8421  -4.2912   0.00    0.0
2017/05/29 00:42:00.000   45.709749774   13.763522789   323.7487   5   8   4.5911   1.9208   6.0258   1.5769  -1.8398  -4.3327   0.00    0.0
2017/05/29 00:42:30.000   45.709753789   13.763521455   323.4179   5   8   4.6315   1.9204   6.0407   1.5828  -1.8377  -4.3747   0.00    0.0
2017/05/29 00:43:00.000   45.709755399   13.763522990   323.6998   5   8   4.6725   1.9201   6.0563   1.5888  -1.8358  -4.4172   0.00    0.0
2017/05/29 00:43:30.000   45.709757771   13.763519372   323.0827   5   8   4.7143   1.9199   6.0727   1.5947  -1.8340  -4.4603   0.00    0.0
2017/05/29 00:44:00.000   45.709763857   13.763522855   323.4896   5   8   4.7569   1.9197   6.0899   1.6008  -1.8324  -4.5039   0.00    0.0
2017/05/29 00:44:30.000   45.709762625   13.763521502   322.5748   5   9   4.2562   1.9166   6.0897   1.5313  -1.8171  -4.4316   0.00    0.0
2017/05/29 00:45:00.000   45.709756308   13.763523252   324.4383   5   9   4.2782   1.9162   6.1021   1.5311  -1.8125  -4.4548   0.00    0.0
2017/05/29 00:45:30.000   45.709764990   13.763521712   324.4063   5   7   4.5571   2.0642   6.3807   1.3968  -1.4940  -4.3578   0.00    0.0
2017/05/29 00:46:00.000   45.709764501   13.763520147   324.5353   5   7   4.5749   2.0633   6.3974   1.3954  -1.4847  -4.3825   0.00    0.0
2017/05/29 00:46:30.000   45.709756503   13.763518791   323.9894   5   7   4.5926   2.0623   6.4140   1.3937  -1.4751  -4.4068   0.00    0.0
2017/05/29 00:47:00.000   45.709760684   13.763522953   323.9211   5   7   4.6101   2.0615   6.4303   1.3918  -1.4653  -4.4308   0.00    0.0
2017/05/29 00:47:30.000   45.709760987   13.763522668   324.0424   5   7   4.6275   2.0607   6.4463   1.3897  -1.4553  -4.4545   0.00    0.0
2017/05/29 00:48:00.000   45.709763225   13.763521288   323.3820   5   7   4.6448   2.0599   6.4622   1.3874  -1.4450  -4.4778   0.00    0.0
2017/05/29 00:48:30.000   45.709755499   13.763525964   324.5470   5   7   4.6618   2.0591   6.4777   1.3848  -1.4344  -4.5007   0.00    0.0
2017/05/29 00:49:00.000   45.709753081   13.763516359   324.2711   5   7   4.6787   2.0584   6.4930   1.3820  -1.4235  -4.5232   0.00    0.0
2017/05/29 00:49:30.000   45.709757467   13.763517585   323.1677   5   7   4.6953   2.0578   6.5080   1.3789  -1.4124  -4.5453   0.00    0.0
2017/05/29 00:50:00.000   45.709759082   13.763526514   323.8254   5   7   4.7118   2.0572   6.5226   1.3756  -1.4009  -4.5670   0.00    0.0
2017/05/29 00:50:30.000   45.709761593   13.763521135   323.2762   5   7   4.7279   2.0566   6.5370   1.3720  -1.3891  -4.5883   0.00    0.0
2017/05/29 00:51:00.000   45.709757506   13.763523438   323.8249   5   7   4.7439   2.0561   6.5509   1.3681  -1.3770  -4.6091   0.00    0.0
2017/05/29 00:51:30.000   45.709749767   13.763525292   324.8533   5   7   4.7596   2.0556   6.5645   1.3640  -1.3645  -4.6294   0.00    0.0
2017/05/29 00:52:00.000   45.709756168   13.763522099   324.4176   5   7   4.7750   2.0552   6.5777   1.3596  -1.3517  -4.6493   0.00    0.0
2017/05/29 00:52:30.000   45.709765127   13.763519900   324.1188   5   7   4.7901   2.0548   6.5905   1.3549  -1.3385  -4.6687   0.00    0.0
2017/05/29 00:53:00.000   45.709761221   13.763520463   324.7884   5   7   4.8049   2.0545   6.6029   1.3499  -1.3249  -4.6875   0.00    0.0
2017/05/29 00:53:30.000   45.709764669   13.763523144   324.1952   5   7   4.8195   2.0542   6.6149   1.3446  -1.3110  -4.7059   0.00    0.0
2017/05/29 00:54:00.000   45.709759036   13.763523772   323.3276   5   7   4.8336   2.0539   6.6264   1.3391  -1.2966  -4.7237   0.00    0.0
2017/05/29 00:54:30.000   45.709754230   13.763521233   324.5178   5   7   4.8475   2.0537   6.6374   1.3332  -1.2817  -4.7410   0.00    0.0
2017/05/29 00:55:00.000   45.709763070   13.763515039   322.7577   5   7   4.8610   2.0536   6.6479   1.3270  -1.2664  -4.7577   0.00    0.0
2017/05/29 00:55:30.000   45.709753199   13.763526344   324.6493   5   7   4.8741   2.0535   6.6580   1.3205  -1.2507  -4.7739   0.00    0.0
2017/05/29 00:56:00.000   45.709760148   13.763525291   324.4649   5   7   4.8869   2.0534   6.6676   1.3137  -1.2344  -4.7895   0.00    0.0
2017/05/29 00:56:30.000   45.709762750   13.763526749   324.0040   5   7   4.8993   2.0534   6.6766   1.3066  -1.2177  -4.8045   0.00    0.0
2017/05/29 00:57:00.000   45.709760788   13.763524723   324.0576   5   7   4.9113   2.0535   6.6851   1.2991  -1.2004  -4.8188   0.00    0.0
2017/05/29 00:57:30.000   45.709759470   13.763519397   323.0130   5   7   4.9229   2.0536   6.6931   1.2913  -1.1826  -4.8326   0.00    0.0
2017/05/29 00:58:00.000   45.709763907   13.763526501   323.7191   5   7   4.9340   2.0537   6.7005   1.2832  -1.1642  -4.8458   0.00    0.0
2017/05/29 00:58:30.000   45.709762700   13.763521760   322.7299   5   7   4.9448   2.0539   6.7073   1.2748  -1.1452  -4.8583   0.00    0.0
2017/05/29 00:59:00.000   45.709762136   13.763523723   323.3415   5   7   4.9551   2.0541   6.7136   1.2660  -1.1256  -4.8703   0.00    0.0
2017/05/29 00:59:30.000   45.709766741   13.763521567   322.4068   5   7   4.9650   2.0544   6.7193   1.2568  -1.1053  -4.8815   0.00    0.0
2017/05/29 01:00:00.000   45.709753182   13.763525060   325.1815   5   7   4.9745   2.0548   6.7244   1.2473  -1.0843  -4.8922   0.00    0.0
2017/05/29 01:00:30.000   45.709760896   13.763518060   322.2508   5   7   4.9834   2.0552   6.7290   1.2374  -1.0627  -4.9021   0.00    0.0
2017/05/29 01:01:00.000   45.709754574   13.763524532   323.7716   5   7   4.9920   2.0557   6.7329   1.2271  -1.0402  -4.9115   0.00    0.0
2017/05/29 01:01:30.000   45.709751235   13.763523180   325.3923   5   7   5.0001   2.0562   6.7363   1.2165  -1.0169  -4.9201   0.00    0.0
2017/05/29 01:02:00.000   45.709756194   13.763519739   322.8286   5   7   5.0077   2.0568   6.7390   1.2055  -0.9928  -4.9281   0.00    0.0
2017/05/29 01:02:30.000   45.709760968   13.763519791   322.2316   5   7   5.0148   2.0574   6.7412   1.1941  -0.9678  -4.9355   0.00    0.0
2017/05/29 01:03:00.000   45.709749507   13.763526752   324.7435   5   7   5.0215   2.0581   6.7427   1.1823  -0.9418  -4.9421   0.00    0.0
2017/05/29 01:03:30.000   45.709751475   13.763523976   324.4656   5   7   5.0277   2.0589   6.7437   1.1702  -0.9147  -4.9481   0.00    0.0
2017/05/29 01:04:00.000   45.709760972   13.763522573   323.9589   5   7   5.0334   2.0597   6.7440   1.1576  -0.8865  -4.9535   0.00    0.0
2017/05/29 01:04:30.000   45.709760733   13.763521715   323.1231   5   7   5.0386   2.0606   6.7438   1.1446  -0.8571  -4.9582   0.00    0.0
2017/05/29 01:05:00.000   45.709764121   13.763524591   322.0294   5   7   5.0434   2.0615   6.7429   1.1312  -0.8263  -4.9622   0.00    0.0
2017/05/29 01:05:30.000   45.709750014   13.763528277   324.6500   5   7   5.0477   2.0625   6.7415   1.1173  -0.7939  -4.9656   0.00    0.0
2017/05/29 01:06:00.000   45.709755552   13.763523673   323.6361   5   7   5.0515   2.0636   6.7395   1.1031  -0.7599  -4.9683   0.00    0.0
2017/05/29 01:06:30.000   45.709755548   13.763526639   324.4286   5   7   5.0548   2.0647   6.7369   1.0883  -0.7240  -4.9704   0.00    0.0
2017/05/29 01:07:00.000   45.709751045   13.763526965   324.9367   5   7   5.0576   2.0660   6.7337   1.0732  -0.6859  -4.9718   0.00    0.0
2017/05/29 01:07:30.000   45.709750468   13.763523073   324.3005   5   7   5.0600   2.0672   6.7299   1.0575  -0.6452  -4.9726   0.00    0.0
2017/05/29 01:08:00.000   45.709754213   13.763524184   324.4545   5   7   5.0619   2.0686   6.7257   1.0414  -0.6014  -4.9728   0.00    0.0
2017/05/29 01:08:30.000   45.709762411   13.763525719   323.6720   5   7   5.0634   2.0700   6.7208   1.0247  -0.5538  -4.9723   0.00    0.0
2017/05/29 01:09:00.000   45.709758318   13.763519984   323.4616   5   7   5.0644   2.0715   6.7154   1.0076  -0.5014  -4.9713   0.00    0.0
2017/05/29 01:09:30.000   45.709755689   13.763523855   323.8019   5   6   5.6218   2.9121   9.8785  -2.0022   3.8252  -6.5102   0.00    0.0
2017/05/29 01:10:00.000   45.709765540   13.763517587   322.6873   5   7   3.0942   2.4704   4.6875   1.8028   1.1094  -1.2413   0.00    0.0
2017/05/29 01:10:30.000   45.709762363   13.763518707   322.4693   5   7   3.0948   2.4721   4.6943   1.8049   1.1256  -1.2379   0.00    0.0
2017/05/29 01:11:00.000   45.709760620   13.763525401   323.1743   5   7   3.0955   2.4738   4.7011   1.8070   1.1416  -1.2346   0.00    0.0
2017/05/29 01:11:30.000   45.709762203   13.763523303   323.4364   5   7   3.0961   2.4756   4.7080   1.8089   1.1574  -1.2314   0.00    0.0
2017/05/29 01:12:00.000   45.709763508   13.763519811   322.2672   5   7   3.0966   2.4773   4.7149   1.8107   1.1730  -1.2282   0.00    0.0
2017/05/29 01:12:30.000   45.709766505   13.763520885   322.8154   5   7   3.0972   2.4790   4.7218   1.8124   1.1884  -1.2250   0.00    0.0
2017/05/29 01:13:00.000   45.709765154   13.763525304   322.9659   5   7   3.0978   2.4807   4.7288   1.8141   1.2035  -1.2218   0.00    0.0
2017/05/29 01:13:30.000   45.709768844   13.763525703   321.8978   5   7   3.0983   2.4824   4.7358   1.8156   1.2185  -1.2188   0.00    0.0
2017/05/29 01:14:00.000   45.709765983   13.763517641   322.1433   5   7   3.0989   2.4840   4.7429   1.8170   1.2333  -1.2157   0.00    0.0
2017/05/29 01:14:30.000   45.709763044   13.763519596   322.0313   5   7   3.0994   2.4857   4.7500   1.8184   1.2478  -1.2127   0.00    0.0
2017/05/29 01:15:00.000   45.709765221   13.763526615   322.8697   5   7   3.0999   2.4873   4.7571   1.8196   1.2622  -1.2097   0.00    0.0
2017/05/29 01:15:30.000   45.709762673   13.763518064   321.7129   5   7   3.1004   2.4889   4.7643   1.8207   1.2764  -1.2068   0.00    0.0
2017/05/29 01:16:00.000   45.709763440   13.763517938   321.3159   5   7   3.1009   2.4905   4.7714   1.8217   1.2903  -1.2040   0.00    0.0
2017/05/29 01:16:30.000   45.709766666   13.763521367   321.9012   5   7   3.1013   2.4921   4.7786   1.8226   1.3041  -1.2012   0.00    0.0
2017/05/29 01:17:00.000   45.709765395   13.763522253   322.6944   5   7   3.1018   2.4936   4.7859   1.8234   1.3177  -1.1985   0.00    0.0
2017/05/29 01:17:30.000   45.709763640   13.763526907   323.8867   5   7   3.1022   2.4951   4.7931   1.8241   1.3311  -1.1958   0.00    0.0
2017/05/29 01:18:00.000   45.709759402   13.763526891   322.3927   5   7   3.1026   2.4966   4.8003   1.8247   1.3443  -1.1933   0.00    0.0
2017/05/29 01:18:30.000   45.709758849   13.763526608   321.2127   5   6   3.1065   2.8532   5.6975   1.8801  -1.5404  -1.3674   0.00    0.0
2017/05/29 01:19:00.000   45.709764830   13.763522515   322.5089   5   6   3.1065   2.8479   5.7142   1.8773  -1.5242  -1.3580   0.00    0.0
2017/05/29 01:19:30.000   45.709760507   13.763534000   323.1939   5   6   3.1065   2.8426   5.7310   1.8743  -1.5076  -1.3485   0.00    0.0
2017/05/29 01:20:00.000   45.709759968   13.763528236   323.4100   5   6   3.1065   2.8373   5.7479   1.8713  -1.4908  -1.3387   0.00    0.0
2017/05/29 01:20:30.000   45.709763154   13.763526629   322.2050   5   6   3.1065   2.8321   5.7648   1.8682  -1.4737  -1.3289   0.00    0.0
2017/05/29 01:21:00.000   45.709766682   13.763528134   321.0305   5   6   3.1065   2.8268   5.7818   1.8650  -1.4562  -1.3189   0.00    0.0
2017/05/29 01:21:30.000   45.709764850   13.763523448   321.6314   5   6   3.1065   2.8215   5.7988   1.8617  -1.4384  -1.3088   0.00    0.0
2017/05/29 01:22:00.000   45.709759158   13.763524761   322.1349   5   6   3.1065   2.8163   5.8159   1.8584  -1.4203  -1.2985   0.00    0.0
2017/05/29 01:22:30.000   45.709763976   13.763525991   321.3058   5   6   3.1065   2.8110   5.8330   1.8550  -1.4018  -1.2881   0.00    0.0
2017/05/29 01:23:00.000   45.709763448   13.763528980   322.7644   5   6   3.1064   2.8058   5.8501   1.8515  -1.3829  -1.2775   0.00    0.0
2017/05/29 01:23:30.000   45.709762531   13.763529231   321.9878   5   6   3.1064   2.8006   5.8673   1.8479  -1.3636  -1.2668   0.00    0.0
2017/05/29 01:24:00.000   45.709762657   13.763525634   321.1132   5   6   3.1064   2.7953   5.8845   1.8443  -1.3440  -1.2560   0.00    0.0
2017/05/29 01:24:30.000   45.709761492   13.763526239   322.7063   5   6   3.1064   2.7901   5.9016   1.8405  -1.3239  -1.2451   0.00    0.0
2017/05/29 01:25:00.000   45.709762992   13.763532388   322.6960   5   6   3.1064   2.7849   5.9188   1.8368  -1.3034  -1.2340   0.00    0.0
2017/05/29 01:25:30.000   45.709764903   13.763528870   321.2717   5   6   3.1063   2.7797   5.9360   1.8329  -1.2825  -1.2229   0.00    0.0
2017/05/29 01:26:00.000   45.709763741   13.763527915   322.1093   5   6   3.1063   2.7746   5.9532   1.8290  -1.2611  -1.2116   0.00    0.0
2017/05/29 01:26:30.000   45.709760178   13.763533648   323.6675   5   6   3.1063   2.7694   5.9703   1.8250  -1.2393  -1.2002   0.00    0.0
2017/05/29 01:27:00.000   45.709761591   13.763527468   321.9471   5   6   3.1063   2.7642   5.9874   1.8209  -1.2169  -1.1887   0.00    0.0
2017/05/29 01:27:30.000   45.709764703   13.763527640   321.4188   5   6   3.1062   2.7591   6.0045   1.8167  -1.1941  -1.1771   0.00    0.0
2017/05/29 01:28:00.000   45.709758635   13.763527830   321.9843   5   6   3.1062   2.7539   6.0215   1.8125  -1.1707  -1.1654   0.00    0.0
2017/05/29 01:28:30.000   45.709758056   13.763519132   323.0929   5   6   3.1062   2.7488   6.0385   1.8082  -1.1468  -1.1536   0.00    0.0
2017/05/29 01:29:00.000   45.709760263   13.763533263   322.4967   5   6   3.1062   2.7437   6.0554   1.8038  -1.1222  -1.1417   0.00    0.0
2017/05/29 01:29:30.000   45.709761490   13.763523121   322.3759   5   6   3.1061   2.7386   6.0722   1.7994  -1.0971  -1.1298   0.00    0.0
2017/05/29 01:30:00.000   45.709764061   13.763523746   321.7632   5   6   3.1061   2.7335   6.0890   1.7949  -1.0713  -1.1179   0.00    0.0
2017/05/29 01:30:30.000   45.709761747   13.763526239   322.0879   5   6   3.1061   2.7285   6.1056   1.7903  -1.0448  -1.1058   0.00    0.0
2017/05/29 01:31:00.000   45.709760981   13.763528421   322.6225   5   6   3.1061   2.7234   6.1222   1.7857  -1.0175  -1.0938   0.00    0.0
2017/05/29 01:31:30.000   45.709765677   13.763527513   321.6848   5   6   3.1061   2.7184   6.1386   1.7809  -0.9895  -1.0817   0.00    0.0
2017/05/29 01:32:00.000   45.709759646   13.763526172   322.4766   5   6   3.1061   2.7134   6.1549   1.7761  -0.9606  -1.0696   0.00    0.0
2017/05/29 01:32:30.000   45.709759765   13.763531274   322.6730   5   6   3.1061   2.7084   6.1711   1.7713  -0.9308  -1.0575   0.00    0.0
2017/05/29 01:33:00.000   45.709761070   13.763528210   322.1148   5   6   3.1061   2.7034   6.1872   1.7663  -0.9000  -1.0453   0.00    0.0
2017/05/29 01:33:30.000   45.709763049   13.763526189   321.1489   5   6   3.1061   2.6984   6.2031   1.7613  -0.8681  -1.0333   0.00    0.0
2017/05/29 01:34:00.000   45.709758400   13.763523948   321.7051   5   6   3.1061   2.6934   6.2188   1.7562  -0.8351  -1.0212   0.00    0.0
2017/05/29 01:34:30.000   45.709757906   13.763529654   322.7485   5   6   3.1062   2.6885   6.2344   1.7511  -0.8006  -1.0092   0.00    0.0
2017/05/29 01:35:00.000   45.709760187   13.763525419   321.3818   5   6   3.1062   2.6836   6.2498   1.7458  -0.7647  -0.9973   0.00    0.0
2017/05/29 01:35:30.000   45.709761671   13.763525372   321.6422   5   6   3.1063   2.6787   6.2650   1.7405  -0.7272  -0.9855   0.00    0.0
2017/05/29 01:36:00.000   45.709757434   13.763521019   323.1508   5   6   3.1063   2.6738   6.2799   1.7352  -0.6876  -0.9737   0.00    0.0
2017/05/29 01:36:30.000   45.709758820   13.763532153   322.4620   5   6   3.1064   2.6689   6.2947   1.7297  -0.6457  -0.9621   0.00    0.0
2017/05/29 01:37:00.000   45.709757053   13.763522180   322.0979   5   6   3.1065   2.6641   6.3093   1.7242  -0.6011  -0.9506   0.00    0.0
2017/05/29 01:37:30.000   45.709754813   13.763523208   323.1764   5   6   3.1065   2.6592   6.3236   1.7186  -0.5531  -0.9393   0.00    0.0
2017/05/29 01:38:00.000   45.709751505   13.763524435   323.5290   5   6   3.1066   2.6544   6.3376   1.7129  -0.5008  -0.9282   0.00    0.0
2017/05/29 01:38:30.000   45.709758662   13.763522829   322.2384   5   6   3.1068   2.6496   6.3514   1.7071  -0.4426  -0.9173   0.00    0.0
2017/05/29 01:39:00.000   45.709756738   13.763525442   322.6011   5   6   3.1069   2.6448   6.3650   1.7013  -0.3758  -0.9066   0.00    0.0
2017/05/29 01:39:30.000   45.709755334   13.763525704   321.9732   5   6   3.1070   2.6401   6.3782   1.6954  -0.2949  -0.8962   0.00    0.0
2017/05/29 01:40:00.000   45.709759964   13.763526941   321.5790   5   6   3.1072   2.6353   6.3912   1.6894  -0.1816  -0.8861   0.00    0.0
2017/05/29 01:40:30.000   45.709757280   13.763521781   321.7660   5   6   3.1073   2.6306   6.4039   1.6834   0.1436  -0.8763   0.00    0.0
2017/05/29 01:41:00.000   45.709754962   13.763527594   322.7802   5   6   3.1075   2.6259   6.4163   1.6772   0.2716  -0.8668   0.00    0.0
2017/05/29 01:41:30.000   45.709757955   13.763522728   321.6855   5   6   3.1077   2.6212   6.4283   1.6710   0.3557  -0.8577   0.00    0.0
2017/05/29 01:42:00.000   45.709755642   13.763525510   322.5088   5   6   3.1079   2.6165   6.4400   1.6647   0.4229  -0.8490   0.00    0.0
2017/05/29 01:42:30.000   45.709759204   13.763527838   321.6237   5   6   3.1082   2.6119   6.4514   1.6583   0.4803  -0.8407   0.00    0.0
2017/05/29 01:43:00.000   45.709755635   13.763522685   321.7205   5   6   3.1084   2.6072   6.4624   1.6518   0.5310  -0.8328   0.00    0.0
2017/05/29 01:43:30.000   45.709756798   13.763523970   321.4511   5   6   3.1087   2.6026   6.4731   1.6452   0.5768  -0.8255   0.00    0.0
2017/05/29 01:44:00.000   45.709758342   13.763520574   322.3937   5   6   3.1090   2.5980   6.4834   1.6386   0.6188  -0.8186   0.00    0.0
2017/05/29 01:44:30.000   45.709752248   13.763532503   322.0211   5   6   3.1093   2.5934   6.4933   1.6318   0.6576  -0.8123   0.00    0.0
2017/05/29 01:45:00.000   45.709758074   13.763525233   323.3193   5   6   3.1096   2.5888   6.5028   1.6250   0.6939  -0.8066   0.00    0.0
2017/05/29 01:45:30.000   45.709755806   13.763520397   322.1572   5   6   3.1099   2.5843   6.5119   1.6181   0.7279  -0.8015   0.00    0.0
2017/05/29 01:46:00.000   45.709747100   13.763519392   323.9192   5   6   3.1103   2.5798   6.5207   1.6111   0.7599  -0.7969   0.00    0.0
2017/05/29 01:46:30.000   45.709753256   13.763522269   322.5004   5   6   3.1107   2.5752   6.5290   1.6040   0.7902  -0.7931   0.00    0.0
2017/05/29 01:47:00.000   45.709754671   13.763530699   322.1775   5   6   3.1111   2.5707   6.5369   1.5968   0.8189  -0.7899   0.00    0.0
2017/05/29 01:47:30.000   45.709750808   13.763529766   322.5540   5   6   3.1116   2.5663   6.5444   1.5895   0.8463  -0.7873   0.00    0.0
2017/05/29 01:48:00.000   45.709757088   13.763528309   322.7190   5   6   3.1121   2.5618   6.5514   1.5821   0.8723  -0.7855   0.00    0.0
2017/05/29 01:48:30.000   45.709752643   13.763522327   321.4620   5   6   3.1126   2.5573   6.5580   1.5746   0.8971  -0.7845   0.00    0.0
2017/05/29 01:49:00.000   45.709754352   13.763527216   323.0357   5   6   3.1131   2.5529   6.5642   1.5670   0.9208  -0.7841   0.00    0.0
2017/05/29 01:49:30.000   45.709753595   13.763519849   322.6745   5   6   3.1137   2.5485   6.5699   1.5594   0.9435  -0.7845   0.00    0.0
2017/05/29 01:50:00.000   45.709757545   13.763524855   320.4671   5   6   3.1142   2.5441   6.5752   1.5516   0.9652  -0.7857   0.00    0.0
2017/05/29 01:50:30.000   45.709752858   13.763526917   322.2424   5   6   3.1149   2.5397   6.5800   1.5437   0.9860  -0.7876   0.00    0.0
2017/05/29 01:51:00.000   45.709754885   13.763524729   322.4126   5   6   3.1155   2.5353   6.5843   1.5357   1.0059  -0.7903   0.00    0.0
2017/05/29 01:51:30.000   45.709760983   13.763520570   321.9205   5   6   3.1162   2.5310   6.5882   1.5276   1.0250  -0.7938   0.00    0.0
2017/05/29 01:52:00.000   45.709753652   13.763523704   321.6553   5   6   3.1170   2.5266   6.5916   1.5193   1.0433  -0.7980   0.00    0.0
2017/05/29 01:52:30.000   45.709758981   13.763527616   321.0906   5   6   3.1177   2.5223   6.5945   1.5110   1.0608  -0.8030   0.00    0.0
2017/05/29 01:53:00.000   45.709754084   13.763524357   321.6342   5   6   3.1185   2.5180   6.5970   1.5026   1.0777  -0.8087   0.00    0.0
2017/05/29 01:53:30.000   45.709757670   13.763524640   322.5238   5   6   3.1194   2.5137   6.5989   1.4940   1.0938  -0.8151   0.00    0.0
2017/05/29 01:54:00.000   45.709751787   13.763529438   322.4581   5   6   3.1203   2.5094   6.6005   1.4853   1.1092  -0.8223   0.00    0.0
2017/05/29 01:54:30.000   45.709753400   13.763525698   322.3111   5   6   3.1212   2.5051   6.6015   1.4765   1.1240  -0.8302   0.00    0.0
2017/05/29 01:55:00.000   45.709756766   13.763524573   321.7074   5   6   3.1222   2.5009   6.6020   1.4676   1.1382  -0.8387   0.00    0.0
2017/05/29 01:55:30.000   45.709755838   13.763521814   321.8955   5   6   3.1232   2.4967   6.6021   1.4586   1.1518  -0.8479   0.00    0.0
2017/05/29 01:56:00.000   45.709757078   13.763523640   322.6531   5   6   3.1243   2.4924   6.6017   1.4494   1.1647  -0.8578   0.00    0.0
2017/05/29 01:56:30.000   45.709758076   13.763525877   321.5888   5   6   3.1254   2.4882   6.6008   1.4401   1.1771  -0.8682   0.00    0.0
2017/05/29 01:57:00.000   45.709750344   13.763529542   323.2143   5   7   2.9278   2.2691   5.6498   0.9686   2.2048   1.7229   0.00    0.0
2017/05/29 01:57:30.000   45.709759848   13.763527093   322.5041   5   8   2.4331   2.1059   4.7160  -0.6747   1.4962  -1.4536   0.00    0.0
2017/05/29 01:58:00.000   45.709757497   13.763528279   323.0679   5   8   2.4323   2.1058   4.7248  -0.6883   1.5018  -1.4526   0.00    0.0
2017/05/29 01:58:30.000   45.709759160   13.763525697   322.9307   5   8   2.4316   2.1057   4.7334  -0.7017   1.5073  -1.4516   0.00    0.0
2017/05/29 01:59:00.000   45.709755768   13.763524188   323.1038   5   8   2.4309   2.1057   4.7420  -0.7149   1.5127  -1.4504   0.00    0.0
2017/05/29 01:59:30.000   45.709754894   13.763522941   322.5750   5   8   2.4303   2.1058   4.7505  -0.7277   1.5181  -1.4492   0.00    0.0
2017/05/29 02:00:00.000   45.709750252   13.763528329   323.4903   5   8   2.4298   2.1058   4.7590  -0.7403   1.5234  -1.4479   0.00    0.0
2017/05/29 02:00:30.000   45.709757225   13.763525961   322.3315   5   8   2.4294   2.1060   4.7673  -0.7527   1.5287  -1.4465   0.00    0.0
2017/05/29 02:01:00.000   45.709756544   13.763524908   322.4023   5   8   2.4290   2.1061   4.7755  -0.7648   1.5338  -1.4450   0.00    0.0
2017/05/29 02:01:30.000   45.709756078   13.763528823   322.8741   5   8   2.4286   2.1063   4.7837  -0.7768   1.5390  -1.4434   0.00    0.0
2017/05/29 02:02:00.000   45.709757206   13.763526235   323.2583   5   8   2.4284   2.1066   4.7917  -0.7885   1.5440  -1.4418   0.00    0.0
2017/05/29 02:02:30.000   45.709760368   13.763528074   322.1860   5   8   2.4282   2.1068   4.7996  -0.8001   1.5490  -1.4400   0.00    0.0
2017/05/29 02:03:00.000   45.709752839   13.763524386   323.3397   5   8   2.4281   2.1071   4.8074  -0.8114   1.5539  -1.4382   0.00    0.0
2017/05/29 02:03:30.000   45.709754251   13.763525518   322.6886   5   8   2.4280   2.1075   4.8150  -0.8226   1.5587  -1.4363   0.00    0.0
2017/05/29 02:04:00.000   45.709759541   13.763525112   323.0932   5   8   2.4280   2.1079   4.8225  -0.8337   1.5634  -1.4343   0.00    0.0
2017/05/29 02:04:30.000   45.709758200   13.763531191   323.4822   5   8   2.4281   2.1083   4.8299  -0.8445   1.5681  -1.4323   0.00    0.0
2017/05/29 02:05:00.000   45.709756977   13.763529194   322.2731   5   8   2.4282   2.1088   4.8372  -0.8553   1.5726  -1.4301   0.00    0.0
2017/05/29 02:05:30.000   45.709756124   13.763520345   323.2185   5   8   2.4284   2.1092   4.8443  -0.8659   1.5771  -1.4279   0.00    0.0
2017/05/29 02:06:00.000   45.709754421   13.763526827   322.5783   5   8   2.4287   2.1098   4.8513  -0.8763   1.5815  -1.4255   0.00    0.0
2017/05/29 02:06:30.000   45.709753737   13.763525321   322.9158   5   8   2.4290   2.1103   4.8581  -0.8866   1.5858  -1.4231   0.00    0.0
2017/05/29 02:07:00.000   45.709754011   13.763529659   323.7730   5   8   2.4294   2.1109   4.8648  -0.8968   1.5899  -1.4206   0.00    0.0
2017/05/29 02:07:30.000   45.709755267   13.763529275   323.1784   5   8   2.4299   2.1115   4.8713  -0.9069   1.5940  -1.4180   0.00    0.0
2017/05/29 02:08:00.000   45.709755605   13.763530771   323.6040   5   8   2.4305   2.1122   4.8776  -0.9169   1.5980  -1.4153   0.00    0.0
2017/05/29 02:08:30.000   45.709753166   13.763527034   323.1122   5   8   2.4311   2.1129   4.8838  -0.9267   1.6019  -1.4126   0.00    0.0
2017/05/29 02:09:00.000   45.709756047   13.763522089   323.1945   5   8   2.4317   2.1136   4.8898  -0.9364   1.6057  -1.4097   0.00    0.0
2017/05/29 02:09:30.000   45.709754670   13.763528200   322.8573   5   8   2.4325   2.1143   4.8956  -0.9461   1.6093  -1.4068   0.00    0.0
2017/05/29 02:10:00.000   45.709754636   13.763528888   323.0033   5   8   2.4333   2.1151   4.9012  -0.9556   1.6129  -1.4038   0.00    0.0
2017/05/29 02:10:30.000   45.709753985   13.763524609   323.6439   5   8   2.4341   2.1159   4.9067  -0.9651   1.6163  -1.4006   0.00    0.0
2017/05/29 02:11:00.000   45.709751724   13.763528442   323.5176   5   8   2.4350   2.1167   4.9119  -0.9744   1.6196  -1.3974   0.00    0.0
2017/05/29 02:11:30.000   45.709755330   13.763526692   322.5033   5   8   2.4360   2.1176   4.9170  -0.9837   1.6228  -1.3941   0.00    0.0
2017/05/29 02:12:00.000   45.709757414   13.763520717   322.7527   5   8   2.4371   2.1184   4.9219  -0.9929   1.6259  -1.3907   0.00    0.0
2017/05/29 02:12:30.000   45.709753677   13.763528419   323.0799   5   8   2.4382   2.1193   4.9266  -1.0020   1.6289  -1.3872   0.00    0.0
2017/05/29 02:13:00.000   45.709758487   13.763526608   322.8642   5   8   2.4394   2.1203   4.9311  -1.0110   1.6317  -1.3837   0.00    0.0
2017/05/29 02:13:30.000   45.709752685   13.763527542   322.9881   5   8   2.4407   2.1212   4.9354  -1.0200   1.6344  -1.3800   0.00    0.0
2017/05/29 02:14:00.000   45.709758865   13.763524058   322.4378   5   8   2.4420   2.1222   4.9395  -1.0289   1.6370  -1.3762   0.00    0.0
2017/05/29 02:14:30.000   45.709754458   13.763524052   322.8237   5   8   2.4434   2.1232   4.9434  -1.0377   1.6394  -1.3724   0.00    0.0
2017/05/29 02:15:00.000   45.709756738   13.763523015   322.5195   5   8   2.4449   2.1243   4.9471  -1.0465   1.6417  -1.3684   0.00    0.0
2017/05/29 02:15:30.000   45.709753970   13.763519583   323.2049   5   8   2.4464   2.1253   4.9505  -1.0551   1.6439  -1.3643   0.00    0.0
2017/05/29 02:16:00.000   45.709755500   13.763524576   323.3291   5   8   2.4480   2.1264   4.9538  -1.0638   1.6460  -1.3602   0.00    0.0
2017/05/29 02:16:30.000   45.709759632   13.763523844   323.2167   5   8   2.4497   2.1275   4.9568  -1.0723   1.6479  -1.3559   0.00    0.0
2017/05/29 02:17:00.000   45.709753720   13.763525876   323.0606   5   8   2.4514   2.1286   4.9597  -1.0808   1.6497  -1.3515   0.00    0.0
2017/05/29 02:17:30.000   45.709757200   13.763524172   322.6642   5   8   2.4532   2.1298   4.9623  -1.0893   1.6513  -1.3471   0.00    0.0
2017/05/29 02:18:00.000   45.709758439   13.763524429   323.1942   5   8   2.4551   2.1309   4.9647  -1.0977   1.6528  -1.3425   0.00    0.0
2017/05/29 02:18:30.000   45.709757924   13.763527345   323.2090   5   8   2.4570   2.1321   4.9668  -1.1061   1.6541  -1.3378   0.00    0.0
2017/05/29 02:19:00.000   45.709759214   13.763521712   323.0323   5   8   2.4591   2.1334   4.9688  -1.1144   1.6553  -1.3330   0.00    0.0
2017/05/29 02:19:30.000   45.709756701   13.763524291   323.7320   5   8   2.4611   2.1346   4.9705  -1.1226   1.6564  -1.3281   0.00    0.0
2017/05/29 02:20:00.000   45.709755322   13.763526488   322.9749   5   8   2.4633   2.1358   4.9720  -1.1309   1.6572  -1.3231   0.00    0.0
2017/05/29 02:20:30.000   45.709753979   13.763528772   323.3119   5   8   2.4655   2.1371   4.9733  -1.1390   1.6580  -1.3180   0.00    0.0
2017/05/29 02:21:00.000   45.709754855   13.763528822   322.6792   5   8   2.4678   2.1384   4.9744  -1.1472   1.6586  -1.3128   0.00    0.0
2017/05/29 02:21:30.000   45.709756277   13.763525928   323.0950   5   8   2.4701   2.1397   4.9753  -1.1553   1.6590  -1.3075   0.00    0.0
2017/05/29 02:22:00.000   45.709758074   13.763525863   322.7721   5   8   2.4726   2.1411   4.9759  -1.1633   1.6593  -1.3020   0.00    0.0
2017/05/29 02:22:30.000   45.709757842   13.763526152   322.3004   5   8   2.4751   2.1425   4.9763  -1.1714   1.6594  -1.2964   0.00    0.0
2017/05/29 02:23:00.000   45.709752541   13.763524490   322.7892   5   8   2.4777   2.1438   4.9765  -1.1794   1.6594  -1.2907   0.00    0.0
2017/05/29 02:23:30.000   45.709758730   13.763521173   323.0683   5   7   2.7662   2.4183   5.6021  -1.6665  -0.3449   1.2246   0.00    0.0
2017/05/29 02:24:00.000   45.709755222   13.763526449   324.1699   5   7   2.7738   2.4202   5.6160  -1.6765  -0.3974   1.2580   0.00    0.0
2017/05/29 02:24:30.000   45.709759210   13.763522136   324.1046   5   7   2.7815   2.4222   5.6298  -1.6866  -0.4443   1.2910   0.00    0.0
2017/05/29 02:25:00.000   45.709755653   13.763522649   324.0484   5   7   2.7894   2.4241   5.6434  -1.6966  -0.4873   1.3234   0.00    0.0
2017/05/29 02:25:30.000   45.709761719   13.763520748   323.5780   5   7   2.7973   2.4262   5.6569  -1.7067  -0.5272   1.3553   0.00    0.0
2017/05/29 02:26:00.000   45.709761298   13.763526122   324.0983   5   7   2.8055   2.4283   5.6701  -1.7168  -0.5647   1.3868   0.00    0.0
2017/05/29 02:26:30.000   45.709759625   13.763520543   323.9546   5   7   2.8137   2.4304   5.6831  -1.7270  -0.6003   1.4178   0.00    0.0
2017/05/29 02:27:00.000   45.709756841   13.763520174   323.7772   5   7   2.8220   2.4326   5.6958  -1.7371  -0.6342   1.4484   0.00    0.0
2017/05/29 02:27:30.000   45.709759358   13.763526778   323.5546   5   7   2.8305   2.4348   5.7084  -1.7473  -0.6668   1.4786   0.00    0.0
2017/05/29 02:28:00.000   45.709761991   13.763514788   323.7959   5   7   2.8391   2.4371   5.7206  -1.7575  -0.6981   1.5084   0.00    0.0
2017/05/29 02:28:30.000   45.709760505   13.763522032   323.5321   5   7   2.8479   2.4394   5.7327  -1.7677  -0.7283   1.5378   0.00    0.0
2017/05/29 02:29:00.000   45.709759973   13.763520423   323.7197   5   7   2.8567   2.4418   5.7444  -1.7780  -0.7576   1.5668   0.00    0.0
2017/05/29 02:29:30.000   45.709760251   13.763516846   323.8999   5   7   2.8657   2.4442   5.7559  -1.7882  -0.7860   1.5954   0.00    0.0
2017/05/29 02:30:00.000   45.709761641   13.763515966   323.5669   5   7   2.8747   2.4467   5.7672  -1.7984  -0.8136   1.6236   0.00    0.0
2017/05/29 02:30:30.000   45.709758778   13.763521041   323.1678   5   7   2.8839   2.4492   5.7781  -1.8087  -0.8405   1.6515   0.00    0.0
2017/05/29 02:31:00.000   45.709755223   13.763522345   322.8077   5   7   2.8932   2.4517   5.7887  -1.8190  -0.8667   1.6790   0.00    0.0
2017/05/29 02:31:30.000   45.709762325   13.763516954   323.4473   5   7   2.9026   2.4543   5.7990  -1.8293  -0.8922   1.7061   0.00    0.0
2017/05/29 02:32:00.000   45.709756196   13.763519095   322.6411   5   7   2.9121   2.4569   5.8089  -1.8396  -0.9172   1.7329   0.00    0.0
2017/05/29 02:32:30.000   45.709758801   13.763519844   322.5682   5   7   2.9217   2.4596   5.8185  -1.8499  -0.9416   1.7593   0.00    0.0
2017/05/29 02:33:00.000   45.709760291   13.763520650   322.7908   5   7   2.9314   2.4623   5.8278  -1.8602  -0.9654   1.7853   0.00    0.0
2017/05/29 02:33:30.000   45.709760351   13.763520486   323.4917   5   7   2.9411   2.4650   5.8367  -1.8705  -0.9888   1.8109   0.00    0.0
2017/05/29 02:34:00.000   45.709759955   13.763516801   323.9367   5   7   2.9510   2.4678   5.8453  -1.8808  -1.0116   1.8362   0.00    0.0
2017/05/29 02:34:30.000   45.709763916   13.763519780   323.1423   5   7   2.9610   2.4706   5.8534  -1.8911  -1.0339   1.8610   0.00    0.0
2017/05/29 02:35:00.000   45.709759007   13.763524506   323.5971   5   7   2.9710   2.4734   5.8612  -1.9014  -1.0558   1.8855   0.00    0.0
2017/05/29 02:35:30.000   45.709756171   13.763523601   323.0438   5   7   2.9811   2.4763   5.8686  -1.9117  -1.0772   1.9097   0.00    0.0
2017/05/29 02:36:00.000   45.709757261   13.763520426   322.0657   5   7   2.9913   2.4792   5.8756  -1.9220  -1.0982   1.9334   0.00    0.0
2017/05/29 02:36:30.000   45.709761009   13.763514416   322.2912   5   8   2.6899   2.1434   5.5457  -1.4375  -1.9250   2.5377   0.00    0.0
2017/05/29 02:37:00.000   45.709757091   13.763517136   321.9180   5   8   2.6953   2.1428   5.5626  -1.4427  -1.9307   2.5524   0.00    0.0
2017/05/29 02:37:30.000   45.709761821   13.763515951   322.5045   5   8   2.7006   2.1421   5.5789  -1.4478  -1.9360   2.5667   0.00    0.0
2017/05/29 02:38:00.000   45.709759721   13.763517494   322.9182   5   8   2.7059   2.1414   5.5949  -1.4527  -1.9410   2.5805   0.00    0.0
2017/05/29 02:38:30.000   45.709762678   13.763517305   322.9811   5   8   2.7111   2.1406   5.6103  -1.4574  -1.9456   2.5938   0.00    0.0
2017/05/29 02:39:00.000   45.709761516   13.763517029   323.0403   5   8   2.7162   2.1398   5.6252  -1.4619  -1.9499   2.6067   0.00    0.0
2017/05/29 02:39:30.000   45.709760347   13.763514218   322.3605   5   8   2.7211   2.1390   5.6396  -1.4663  -1.9538   2.6191   0.00    0.0
2017/05/29 02:40:00.000   45.709761762   13.763516826   322.9420   5   8   2.7260   2.1381   5.6534  -1.4705  -1.9573   2.6311   0.00    0.0
2017/05/29 02:40:30.000   45.709764869   13.763516404   322.9259   5   8   2.7308   2.1372   5.6667  -1.4745  -1.9604   2.6425   0.00    0.0
2017/05/29 02:41:00.000   45.709766164   13.763515117   323.5108   5   8   2.7355   2.1363   5.6793  -1.4783  -1.9631   2.6534   0.00    0.0
2017/05/29 02:41:30.000   45.709757469   13.763521077   322.5429   5   8   2.7400   2.1353   5.6914  -1.4819  -1.9655   2.6638   0.00    0.0
2017/05/29 02:42:00.000   45.709762447   13.763513780   324.1800   5   8   2.7444   2.1342   5.7028  -1.4853  -1.9674   2.6737   0.00    0.0
2017/05/29 02:42:30.000   45.709763129   13.763514228   322.8264   5   8   2.7487   2.1331   5.7135  -1.4886  -1.9689   2.6830   0.00    0.0
2017/05/29 02:43:00.000   45.709763198   13.763517109   322.3467   5   8   2.7528   2.1319   5.7236  -1.4916  -1.9700   2.6918   0.00    0.0
2017/05/29 02:43:30.000   45.709764655   13.763513560   322.6862   5   8   2.7568   2.1307   5.7331  -1.4944  -1.9707   2.7000   0.00    0.0
2017/05/29 02:44:00.000   45.709765054   13.763514743   322.0684   5   8   2.7607   2.1295   5.7418  -1.4970  -1.9709   2.7076   0.00    0.0
2017/05/29 02:44:30.000   45.709759702   13.763514750   323.2223   5   8   2.7643   2.1282   5.7498  -1.4995  -1.9707   2.7147   0.00    0.0
2017/05/29 02:45:00.000   45.709759719   13.763515258   322.9331   5   8   2.7679   2.1268   5.7571  -1.5017  -1.9701   2.7211   0.00    0.0
2017/05/29 02:45:30.000   45.709760962   13.763519139   322.6344   5   8   2.7712   2.1254   5.7636  -1.5037  -1.9690   2.7270   0.00    0.0
2017/05/29 02:46:00.000   45.709758983   13.763519360   322.3782   5   8   2.7744   2.1240   5.7694  -1.5055  -1.9675   2.7323   0.00    0.0
2017/05/29 02:46:30.000   45.709763129   13.763510053   322.2879   5   8   2.7775   2.1225   5.7744  -1.5071  -1.9655   2.7369   0.00    0.0
2017/05/29 02:47:00.000   45.709765802   13.763512760   324.0192   5   8   2.7804   2.1209   5.7787  -1.5085  -1.9631   2.7410   0.00    0.0
2017/05/29 02:47:30.000   45.709758007   13.763521091   322.4404   5   8   2.7830   2.1193   5.7822  -1.5097  -1.9603   2.7444   0.00    0.0
2017/05/29 02:48:00.000   45.709762019   13.763515481   322.7938   5   8   2.7856   2.1176   5.7850  -1.5107  -1.9570   2.7472   0.00    0.0
2017/05/29 02:48:30.000   45.709761458   13.763519865   322.9639   5   8   2.7879   2.1159   5.7869  -1.5115  -1.9532   2.7493   0.00    0.0
2017/05/29 02:49:00.000   45.709758387   13.763517490   323.2629   5   8   2.7901   2.1142   5.7880  -1.5120  -1.9490   2.7509   0.00    0.0
2017/05/29 02:49:30.000   45.709760531   13.763516851   323.1468   5   8   2.7921   2.1124   5.7884  -1.5124  -1.9444   2.7518   0.00    0.0
2017/05/29 02:50:00.000   45.709763717   13.763515446   323.1957   5   8   2.7939   2.1106   5.7880  -1.5126  -1.9393   2.7520   0.00    0.0
2017/05/29 02:50:30.000   45.709762435   13.763518769   323.1818   5   8   2.7955   2.1087   5.7868  -1.5126  -1.9338   2.7517   0.00    0.0
2017/05/29 02:51:00.000   45.709760301   13.763518334   323.2649   5   8   2.7970   2.1068   5.7848  -1.5123  -1.9278   2.7507   0.00    0.0
2017/05/29 02:51:30.000   45.709763460   13.763515802   322.1768   5   8   2.7982   2.1048   5.7820  -1.5119  -1.9214   2.7490   0.00    0.0
2017/05/29 02:52:00.000   45.709763471   13.763509827   322.8832   5   8   2.7993   2.1028   5.7784  -1.5113  -1.9146   2.7468   0.00    0.0
2017/05/29 02:52:30.000   45.709763737   13.763514288   323.0034   5   8   2.8003   2.1008   5.7741  -1.5105  -1.9073   2.7439   0.00    0.0
2017/05/29 02:53:00.000   45.709758668   13.763513416   322.1759   5   8   2.8010   2.0987   5.7690  -1.5096  -1.8996   2.7404   0.00    0.0
2017/05/29 02:53:30.000   45.709759414   13.763514949   322.1268   5   8   2.8016   2.0966   5.7631  -1.5084  -1.8915   2.7363   0.00    0.0
2017/05/29 02:54:00.000   45.709757156   13.763519486   322.5449   5   8   2.8020   2.0945   5.7565  -1.5071  -1.8830   2.7316   0.00    0.0
2017/05/29 02:54:30.000   45.709758371   13.763517651   321.7342   5   8   2.8023   2.0923   5.7491  -1.5056  -1.8740   2.7262   0.00    0.0
2017/05/29 02:55:00.000   45.709760228   13.763516315   323.1624   5   8   2.8024   2.0901   5.7411  -1.5040  -1.8647   2.7203   0.00    0.0
2017/05/29 02:55:30.000   45.709761647   13.763514833   323.1061   5   8   2.8023   2.0879   5.7323  -1.5022  -1.8550   2.7138   0.00    0.0
2017/05/29 02:56:00.000   45.709759384   13.763513974   321.8527   5   8   2.8021   2.0857   5.7228  -1.5002  -1.8449   2.7067   0.00    0.0
2017/05/29 02:56:30.000   45.709762906   13.763514670   323.5951   5   8   2.8018   2.0834   5.7126  -1.4981  -1.8344   2.6990   0.00    0.0
2017/05/29 02:57:00.000   45.709753256   13.763522086   322.2922   5   8   2.8013   2.0812   5.7017  -1.4959  -1.8235   2.6908   0.00    0.0
2017/05/29 02:57:30.000   45.709760307   13.763517748   323.1755   5   8   2.8007   2.0789   5.6902  -1.4935  -1.8123   2.6820   0.00    0.0
2017/05/29 02:58:00.000   45.709759736   13.763515881   323.5229   5   8   2.7999   2.0766   5.6781  -1.4910  -1.8008   2.6726   0.00    0.0
2017/05/29 02:58:30.000   45.709758655   13.763513801   322.6715   5   8   2.7990   2.0743   5.6653  -1.4884  -1.7889   2.6627   0.00    0.0
2017/05/29 02:59:00.000   45.709758144   13.763517008   322.5976   5   8   2.7980   2.0720   5.6520  -1.4857  -1.7766   2.6523   0.00    0.0
2017/05/29 02:59:30.000   45.709760555   13.763518473   322.9601   5   8   2.7969   2.0697   5.6381  -1.4828  -1.7641   2.6414   0.00    0.0
2017/05/29 03:00:00.000   45.709760505   13.763517689   322.3316   5   8   2.7957   2.0674   5.6236  -1.4798  -1.7512   2.6300   0.00    0.0
2017/05/29 03:00:30.000   45.709758028   13.763521166   321.6054   5   8   2.7943   2.0651   5.6085  -1.4768  -1.7380   2.6181   0.00    0.0
2017/05/29 03:01:00.000   45.709757288   13.763519625   322.6530   5   8   2.7929   2.0629   5.5930  -1.4736  -1.7246   2.6057   0.00    0.0
2017/05/29 03:01:30.000   45.709757939   13.763519437   322.8422   5   8   2.7914   2.0606   5.5769  -1.4704  -1.7108   2.5929   0.00    0.0
2017/05/29 03:02:00.000   45.709760746   13.763518544   322.4478   5   7   2.8917   2.2352   6.4231  -1.2203  -2.3836   2.0512   0.00    0.0
2017/05/29 03:02:30.000   45.709763779   13.763516965   322.8352   5   7   2.8941   2.2280   6.3978  -1.2151  -2.3606   2.0261   0.00    0.0
2017/05/29 03:03:00.000   45.709757950   13.763515965   322.8150   5   7   2.8965   2.2209   6.3722  -1.2098  -2.3375   2.0001   0.00    0.0
2017/05/29 03:03:30.000   45.709756114   13.763520641   323.6186   5   7   2.8990   2.2139   6.3464  -1.2046  -2.3143   1.9735   0.00    0.0
2017/05/29 03:04:00.000   45.709762868   13.763519102   322.2095   5   7   2.9015   2.2070   6.3203  -1.1994  -2.2910   1.9460   0.00    0.0
2017/05/29 03:04:30.000   45.709760376   13.763516398   323.6232   5   7   2.9041   2.2002   6.2941  -1.1943  -2.2676   1.9179   0.00    0.0
2017/05/29 03:05:00.000   45.709755876   13.763517407   323.1135   5   7   2.9067   2.1936   6.2678  -1.1891  -2.2442   1.8890   0.00    0.0
2017/05/29 03:05:30.000   45.709759219   13.763518581   323.0502   5   7   2.9095   2.1870   6.2414  -1.1841  -2.2207   1.8593   0.00    0.0
2017/05/29 03:06:00.000   45.709758220   13.763515953   322.5916   5   7   2.9122   2.1806   6.2148  -1.1791  -2.1972   1.8288   0.00    0.0
2017/05/29 03:06:30.000   45.709757346   13.763515407   323.8473   5   7   2.9151   2.1743   6.1882  -1.1742  -2.1737   1.7975   0.00    0.0
2017/05/29 03:07:00.000   45.709756666   13.763515518   322.5187   5   7   2.9181   2.1681   6.1615  -1.1693  -2.1501   1.7654   0.00    0.0
2017/05/29 03:07:30.000   45.709763491   13.763514987   323.3747   5   7   2.9211   2.1620   6.1348  -1.1645  -2.1265   1.7324   0.00    0.0
2017/05/29 03:08:00.000   45.709760840   13.763518262   322.8242   5   7   2.9243   2.1560   6.1081  -1.1599  -2.1029   1.6985   0.00    0.0
2017/05/29 03:08:30.000   45.709761069   13.763517570   322.4862   5   7   2.9275   2.1502   6.0814  -1.1553  -2.0793   1.6638   0.00    0.0
2017/05/29 03:09:00.000   45.709763126   13.763518089   321.9806   5   7   2.9309   2.1445   6.0548  -1.1508  -2.0556   1.6280   0.00    0.0
2017/05/29 03:09:30.000   45.709761034   13.763515561   322.2512   5   7   2.9344   2.1389   6.0282  -1.1465  -2.0320   1.5913   0.00    0.0
2017/05/29 03:10:00.000   45.709762670   13.763513209   323.1981   5   7   2.9380   2.1334   6.0017  -1.1423  -2.0084   1.5535   0.00    0.0
2017/05/29 03:10:30.000   45.709759209   13.763513200   322.7741   5   7   2.9417   2.1281   5.9753  -1.1382  -1.9848   1.5146   0.00    0.0
2017/05/29 03:11:00.000   45.709754631   13.763523489   321.2592   5   7   2.9456   2.1229   5.9490  -1.1342  -1.9612   1.4746   0.00    0.0
2017/05/29 03:11:30.000   45.709759905   13.763517653   323.0194   5   7   2.9496   2.1178   5.9228  -1.1304  -1.9377   1.4332   0.00    0.0
2017/05/29 03:12:00.000   45.709758593   13.763520118   321.5991   5   7   2.9537   2.1128   5.8968  -1.1267  -1.9141   1.3905   0.00    0.0
2017/05/29 03:12:30.000   45.709760904   13.763514766   322.5672   5   7   2.9580   2.1080   5.8709  -1.1231  -1.8906   1.3463   0.00    0.0
2017/05/29 03:13:00.000   45.709765540   13.763516948   322.4558   5   7   2.9624   2.1032   5.8453  -1.1198  -1.8671   1.3004   0.00    0.0
2017/05/29 03:13:30.000   45.709760354   13.763513395   322.8236   5   7   2.9670   2.0986   5.8198  -1.1165  -1.8437   1.2528   0.00    0.0
2017/05/29 03:14:00.000   45.709759896   13.763519389   321.6256   5   7   2.9717   2.0941   5.7945  -1.1135  -1.8202   1.2032   0.00    0.0
2017/05/29 03:14:30.000   45.709761186   13.763518115   322.1037   5   7   2.9766   2.0898   5.7695  -1.1106  -1.7968   1.1514   0.00    0.0
2017/05/29 03:15:00.000   45.709763385   13.763512077   322.4936   5   7   2.9817   2.0855   5.7446  -1.1078  -1.7735   1.0970   0.00    0.0
2017/05/29 03:15:30.000   45.709755415   13.763520045   322.8246   5   7   2.9869   2.0814   5.7201  -1.1053  -1.7501   1.0397   0.00    0.0
2017/05/29 03:16:00.000   45.709758040   13.763518988   322.0642   5   7   2.9923   2.0774   5.6958  -1.1029  -1.7268   0.9790   0.00    0.0
2017/05/29 03:16:30.000   45.709758696   13.763515458   322.3380   5   7   2.9979   2.0735   5.6717  -1.1007  -1.7035   0.9141   0.00    0.0
2017/05/29 03:17:00.000   45.709757526   13.763510944   322.8082   5   7   3.0037   2.0698   5.6480  -1.0987  -1.6802   0.8442   0.00    0.0
2017/05/29 03:17:30.000   45.709755880   13.763517147   323.1309   5   7   3.0096   2.0661   5.6245  -1.0969  -1.6570   0.7679   0.00    0.0
2017/05/29 03:18:00.000   45.709769848   13.763514469   323.9038   5   7   3.0158   2.0626   5.6013  -1.0952  -1.6338   0.6830   0.00    0.0
2017/05/29 03:18:30.000   45.709761384   13.763512151   323.2321   5   7   3.0221   2.0592   5.5785  -1.0938  -1.6106   0.5859   0.00    0.0
2017/05/29 03:19:00.000   45.709762715   13.763516901   322.3827   5   7   3.0287   2.0559   5.5559  -1.0925  -1.5874   0.4690   0.00    0.0
2017/05/29 03:19:30.000   45.709762796   13.763513564   322.5155   5   7   3.0354   2.0527   5.5337  -1.0914  -1.5642   0.3106   0.00    0.0
2017/05/29 03:20:00.000   45.709762200   13.763515507   322.9052   5   7   3.0423   2.0496   5.5118  -1.0906  -1.5410  -0.1645   0.00    0.0
2017/05/29 03:20:30.000   45.709756772   13.763518555   322.7680   5   7   3.0495   2.0467   5.4903  -1.0899  -1.5178  -0.3883   0.00    0.0
2017/05/29 03:21:00.000   45.709760820   13.763518146   322.8202   5   7   3.0568   2.0438   5.4691  -1.0895  -1.4946  -0.5240   0.00    0.0
2017/05/29 03:21:30.000   45.709762323   13.763515550   323.4200   5   7   3.0644   2.0411   5.4482  -1.0892  -1.4714  -0.6313   0.00    0.0
2017/05/29 03:22:00.000   45.709763676   13.763517333   322.5442   5   7   3.0721   2.0384   5.4278  -1.0891  -1.4482  -0.7229   0.00    0.0
2017/05/29 03:22:30.000   45.709759513   13.763514273   323.4093   5   7   3.0801   2.0359   5.4076  -1.0893  -1.4249  -0.8043   0.00    0.0
2017/05/29 03:23:00.000   45.709767037   13.763515691   322.9654   5   7   3.0883   2.0335   5.3879  -1.0896  -1.4016  -0.8782   0.00    0.0
2017/05/29 03:23:30.000   45.709765683   13.763517058   322.6171   5   7   3.0968   2.0312   5.3685  -1.0902  -1.3782  -0.9465   0.00    0.0
2017/05/29 03:24:00.000   45.709768282   13.763514566   322.2024   5   7   3.1054   2.0290   5.3496  -1.0909  -1.3548  -1.0102   0.00    0.0
2017/05/29 03:24:30.000   45.709759254   13.763515549   322.0286   5   7   3.1143   2.0269   5.3310  -1.0919  -1.3313  -1.0703   0.00    0.0
2017/05/29 03:25:00.000   45.709762408   13.763519430   323.1100   5   7   3.1234   2.0249   5.3128  -1.0931  -1.3078  -1.1273   0.00    0.0
2017/05/29 03:25:30.000   45.709758183   13.763516621   322.2491   5   7   3.1328   2.0230   5.2950  -1.0945  -1.2841  -1.1816   0.00    0.0
2017/05/29 03:26:00.000   45.709765007   13.763517221   323.0962   5   7   3.1424   2.0212   5.2776  -1.0961  -1.2603  -1.2337   0.00    0.0
2017/05/29 03:26:30.000   45.709762813   13.763520841   322.2566   5   7   3.1522   2.0195   5.2606  -1.0979  -1.2365  -1.2838   0.00    0.0
2017/05/29 03:27:00.000   45.709761694   13.763517361   322.4089   5   7   3.1623   2.0179   5.2440  -1.0999  -1.2124  -1.3321   0.00    0.0
2017/05/29 03:27:30.000   45.709761579   13.763511342   323.7176   5   7   3.1727   2.0164   5.2278  -1.1021  -1.1882  -1.3788   0.00    0.0
2017/05/29 03:28:00.000   45.709759524   13.763516066   323.4388   5   7   3.1832   2.0150   5.2120  -1.1045  -1.1638  -1.4242   0.00    0.0
2017/05/29 03:28:30.000   45.709757012   13.763517238   323.1230   5   7   3.1941   2.0137   5.1967  -1.1072  -1.1393  -1.4683   0.00    0.0
2017/05/29 03:29:00.000   45.709761576   13.763516768   322.8743   5   7   3.2052   2.0125   5.1817  -1.1100  -1.1145  -1.5112   0.00    0.0
