% program   : RTKPOST-EX 2.5.0
% inp file  : D:\Academic\0 Research\000 In preparation\00 GPS positioning performance circular analysis during short-term fast-developing geomagnetic storms\Storm 3\trie2500.17d
% inp file  : D:\Academic\0 Research\000 In preparation\00 GPS positioning performance circular analysis during short-term fast-developing geomagnetic storms\Storm 3\brdc2500.17n
% obs start : 2017/09/07 00:00:00.0 GPST (week1965 345600.0s)
% obs end   : 2017/09/07 23:59:30.0 GPST (week1965 431970.0s)
% pos mode  : Single
% elev mask : 15.0 deg
% tidecorr  :
% ionos opt : Broadcast
% tropo opt : Saastamoinen
% ephemeris : Broadcast
% navi sys  : GPS
%
% (lat/lon/height=WGS84/ellipsoidal,Q=1:fix,2:float,3:sbas,4:dgps,5:single,6:ppp,ns=# of satellites)
%  GPST                  latitude(deg) longitude(deg)  height(m)   Q  ns   sdn(m)   sde(m)   sdu(m)  sdne(m)  sdeu(m)  sdun(m) age(s)  ratio
2017/09/07 00:00:00.000   45.709776018   13.763511399   318.8848   5   8   3.7011   1.8286   6.5174  -0.7436   0.9684  -3.5397   0.00    0.0
2017/09/07 00:00:30.000   45.709771011   13.763509823   318.0512   5   8   3.7040   1.8278   6.5099  -0.7531   0.9791  -3.5370   0.00    0.0
2017/09/07 00:01:00.000   45.709777332   13.763506033   317.8709   5   8   3.7069   1.8271   6.5020  -0.7623   0.9896  -3.5341   0.00    0.0
2017/09/07 00:01:30.000   45.709775971   13.763509571   318.1720   5   8   3.7097   1.8264   6.4935  -0.7714   0.9997  -3.5308   0.00    0.0
2017/09/07 00:02:00.000   45.709777557   13.763507758   317.6413   5   8   3.7124   1.8258   6.4845  -0.7803   1.0095  -3.5273   0.00    0.0
2017/09/07 00:02:30.000   45.709782209   13.763510571   317.2233   5   8   3.7152   1.8252   6.4751  -0.7890   1.0189  -3.5236   0.00    0.0
2017/09/07 00:03:00.000   45.709779950   13.763507308   317.4291   5   8   3.7178   1.8247   6.4652  -0.7975   1.0281  -3.5195   0.00    0.0
2017/09/07 00:03:30.000   45.709771301   13.763509095   318.3296   5   8   3.7205   1.8242   6.4548  -0.8058   1.0370  -3.5152   0.00    0.0
2017/09/07 00:04:00.000   45.709779106   13.763508194   317.6478   5   8   3.7231   1.8237   6.4439  -0.8140   1.0456  -3.5106   0.00    0.0
2017/09/07 00:04:30.000   45.709777445   13.763506595   318.3727   5   8   3.7256   1.8233   6.4326  -0.8220   1.0539  -3.5058   0.00    0.0
2017/09/07 00:05:00.000   45.709773702   13.763505873   318.7290   5   8   3.7282   1.8229   6.4209  -0.8299   1.0620  -3.5007   0.00    0.0
2017/09/07 00:05:30.000   45.709773185   13.763504786   318.6950   5   8   3.7307   1.8226   6.4087  -0.8376   1.0698  -3.4953   0.00    0.0
2017/09/07 00:06:00.000   45.709766963   13.763506250   318.5032   5   8   3.7331   1.8224   6.3961  -0.8452   1.0774  -3.4897   0.00    0.0
2017/09/07 00:06:30.000   45.709777513   13.763509639   318.6511   5   8   3.7355   1.8221   6.3831  -0.8526   1.0847  -3.4839   0.00    0.0
2017/09/07 00:07:00.000   45.709763369   13.763511573   320.6374   5   8   3.7379   1.8219   6.3697  -0.8599   1.0917  -3.4779   0.00    0.0
2017/09/07 00:07:30.000   45.709777514   13.763508674   318.5390   5   8   3.7403   1.8218   6.3559  -0.8671   1.0986  -3.4716   0.00    0.0
2017/09/07 00:08:00.000   45.709774604   13.763506476   318.3283   5   8   3.7426   1.8217   6.3417  -0.8742   1.1052  -3.4651   0.00    0.0
2017/09/07 00:08:30.000   45.709779388   13.763508683   317.9016   5   8   3.7449   1.8216   6.3272  -0.8811   1.1116  -3.4584   0.00    0.0
2017/09/07 00:09:00.000   45.709764396   13.763501140   319.4895   5   8   3.7471   1.8216   6.3123  -0.8879   1.1178  -3.4514   0.00    0.0
2017/09/07 00:09:30.000   45.709771093   13.763505335   318.5360   5   8   3.7493   1.8217   6.2971  -0.8946   1.1237  -3.4443   0.00    0.0
2017/09/07 00:10:00.000   45.709766084   13.763502461   320.0173   5   8   3.7515   1.8217   6.2816  -0.9012   1.1295  -3.4370   0.00    0.0
2017/09/07 00:10:30.000   45.709774416   13.763503074   319.2020   5   8   3.7537   1.8218   6.2657  -0.9076   1.1351  -3.4294   0.00    0.0
2017/09/07 00:11:00.000   45.709773755   13.763502433   319.2755   5   8   3.7559   1.8220   6.2496  -0.9140   1.1405  -3.4217   0.00    0.0
2017/09/07 00:11:30.000   45.709778782   13.763507212   318.7930   5   8   3.7580   1.8222   6.2331  -0.9203   1.1457  -3.4139   0.00    0.0
2017/09/07 00:12:00.000   45.709771111   13.763499895   319.3104   5   8   3.7601   1.8224   6.2164  -0.9264   1.1507  -3.4058   0.00    0.0
2017/09/07 00:12:30.000   45.709770279   13.763503667   318.5056   5   8   3.7622   1.8227   6.1994  -0.9325   1.1556  -3.3976   0.00    0.0
2017/09/07 00:13:00.000   45.709772055   13.763508194   319.6726   5   8   3.7642   1.8230   6.1822  -0.9385   1.1603  -3.3892   0.00    0.0
2017/09/07 00:13:30.000   45.709774189   13.763510111   318.3014   5   8   3.7662   1.8234   6.1647  -0.9444   1.1648  -3.3807   0.00    0.0
2017/09/07 00:14:00.000   45.709774192   13.763510511   319.4712   5   8   3.7683   1.8238   6.1470  -0.9502   1.1692  -3.3720   0.00    0.0
2017/09/07 00:14:30.000   45.709777869   13.763507908   318.4152   5   8   3.7702   1.8242   6.1291  -0.9559   1.1734  -3.3632   0.00    0.0
2017/09/07 00:15:00.000   45.709773183   13.763507036   318.6939   5   8   3.7722   1.8247   6.1110  -0.9616   1.1775  -3.3542   0.00    0.0
2017/09/07 00:15:30.000   45.709776550   13.763508386   317.2318   5   8   3.7742   1.8253   6.0927  -0.9671   1.1815  -3.3452   0.00    0.0
2017/09/07 00:16:00.000   45.709768693   13.763500911   318.7373   5   8   3.7761   1.8258   6.0743  -0.9726   1.1853  -3.3360   0.00    0.0
2017/09/07 00:16:30.000   45.709779727   13.763503311   319.0169   5   9   3.5822   1.7646   6.0217  -0.6251   1.3099  -3.4404   0.00    0.0
2017/09/07 00:17:00.000   45.709768433   13.763512185   320.5000   5   9   3.5812   1.7646   6.0052  -0.6276   1.3096  -3.4281   0.00    0.0
2017/09/07 00:17:30.000   45.709772918   13.763506113   319.1535   5   9   3.5801   1.7646   5.9885  -0.6300   1.3093  -3.4157   0.00    0.0
2017/09/07 00:18:00.000   45.709780975   13.763500120   318.6311   5   9   3.5791   1.7647   5.9715  -0.6324   1.3088  -3.4031   0.00    0.0
2017/09/07 00:18:30.000   45.709774749   13.763505880   320.0187   5   9   3.5781   1.7648   5.9544  -0.6347   1.3083  -3.3904   0.00    0.0
2017/09/07 00:19:00.000   45.709760690   13.763507998   321.5835   5  10   2.7577   1.7114   4.9365   0.7598   0.5355  -1.9731   0.00    0.0
2017/09/07 00:19:30.000   45.709762967   13.763505086   321.2589   5  10   2.7605   1.7110   4.9309   0.7600   0.5360  -1.9684   0.00    0.0
2017/09/07 00:20:00.000   45.709764078   13.763508978   320.6591   5  10   2.7632   1.7107   4.9252   0.7602   0.5365  -1.9637   0.00    0.0
2017/09/07 00:20:30.000   45.709762917   13.763507900   321.0650   5  10   2.7661   1.7103   4.9193   0.7604   0.5369  -1.9588   0.00    0.0
2017/09/07 00:21:00.000   45.709765359   13.763510825   321.6865   5  10   2.7690   1.7101   4.9132   0.7607   0.5373  -1.9538   0.00    0.0
2017/09/07 00:21:30.000   45.709760099   13.763509105   321.7496   5  10   2.7719   1.7098   4.9069   0.7609   0.5376  -1.9487   0.00    0.0
2017/09/07 00:22:00.000   45.709762877   13.763513752   321.3480   5  10   2.7748   1.7096   4.9005   0.7612   0.5379  -1.9436   0.00    0.0
2017/09/07 00:22:30.000   45.709766088   13.763509380   320.9922   5  10   2.7778   1.7094   4.8939   0.7615   0.5381  -1.9383   0.00    0.0
2017/09/07 00:23:00.000   45.709762377   13.763506727   320.5385   5   9   3.3909   1.7826   5.0922   1.2498   1.0067  -0.9802   0.00    0.0
2017/09/07 00:23:30.000   45.709761779   13.763511475   321.3812   5   9   3.3936   1.7823   5.0931   1.2495   1.0129  -0.9423   0.00    0.0
2017/09/07 00:24:00.000   45.709765629   13.763510338   322.4707   5   9   3.3963   1.7820   5.0939   1.2492   1.0190  -0.9030   0.00    0.0
2017/09/07 00:24:30.000   45.709769494   13.763509799   322.1977   5   9   3.3991   1.7817   5.0947   1.2489   1.0248  -0.8622   0.00    0.0
2017/09/07 00:25:00.000   45.709768786   13.763505313   320.8262   5   9   3.4020   1.7815   5.0953   1.2486   1.0305  -0.8197   0.00    0.0
2017/09/07 00:25:30.000   45.709766934   13.763511342   321.2376   5   9   3.4049   1.7813   5.0958   1.2483   1.0359  -0.7752   0.00    0.0
2017/09/07 00:26:00.000   45.709766334   13.763510363   320.8775   5   9   3.4078   1.7812   5.0962   1.2480   1.0412  -0.7283   0.00    0.0
2017/09/07 00:26:30.000   45.709760456   13.763503939   321.3676   5   9   3.4108   1.7810   5.0965   1.2477   1.0464  -0.6786   0.00    0.0
2017/09/07 00:27:00.000   45.709768773   13.763509068   321.9820   5   9   3.4138   1.7809   5.0967   1.2473   1.0513  -0.6254   0.00    0.0
2017/09/07 00:27:30.000   45.709761507   13.763505281   321.2788   5   9   3.4168   1.7808   5.0967   1.2469   1.0560  -0.5679   0.00    0.0
2017/09/07 00:28:00.000   45.709768697   13.763513840   321.7926   5   9   3.4199   1.7807   5.0967   1.2465   1.0606  -0.5044   0.00    0.0
2017/09/07 00:28:30.000   45.709762663   13.763510308   321.9949   5   9   3.4229   1.7807   5.0965   1.2461   1.0650  -0.4325   0.00    0.0
2017/09/07 00:29:00.000   45.709767141   13.763511675   320.6834   5   9   3.4260   1.7807   5.0962   1.2456   1.0692  -0.3471   0.00    0.0
2017/09/07 00:29:30.000   45.709765729   13.763509406   321.5963   5   9   3.4291   1.7807   5.0958   1.2451   1.0732  -0.2337   0.00    0.0
2017/09/07 00:30:00.000   45.709763735   13.763513640   321.8784   5   9   3.4322   1.7807   5.0953   1.2446   1.0771   0.1024   0.00    0.0
2017/09/07 00:30:30.000   45.709759701   13.763511679   322.1521   5   9   3.4353   1.7808   5.0947   1.2440   1.0807   0.2734   0.00    0.0
2017/09/07 00:31:00.000   45.709760056   13.763506902   321.1601   5   9   3.4384   1.7808   5.0939   1.2433   1.0842   0.3717   0.00    0.0
2017/09/07 00:31:30.000   45.709763487   13.763509194   321.6437   5   9   3.4415   1.7809   5.0930   1.2427   1.0875   0.4480   0.00    0.0
2017/09/07 00:32:00.000   45.709762839   13.763509685   323.1612   5   9   3.4446   1.7810   5.0920   1.2420   1.0907   0.5122   0.00    0.0
2017/09/07 00:32:30.000   45.709761943   13.763506335   322.5509   5   9   3.4477   1.7812   5.0909   1.2412   1.0936   0.5683   0.00    0.0
2017/09/07 00:33:00.000   45.709759067   13.763509781   321.6855   5   9   3.4508   1.7813   5.0896   1.2403   1.0964   0.6186   0.00    0.0
2017/09/07 00:33:30.000   45.709770414   13.763511008   321.8277   5   9   3.4538   1.7815   5.0882   1.2395   1.0990   0.6644   0.00    0.0
2017/09/07 00:34:00.000   45.709760320   13.763509267   322.0473   5   9   3.4568   1.7817   5.0867   1.2385   1.1015   0.7065   0.00    0.0
2017/09/07 00:34:30.000   45.709762366   13.763511202   322.4625   5   9   3.4598   1.7820   5.0850   1.2375   1.1037   0.7455   0.00    0.0
2017/09/07 00:35:00.000   45.709762281   13.763509391   321.4755   5   9   3.4627   1.7822   5.0832   1.2364   1.1058   0.7818   0.00    0.0
2017/09/07 00:35:30.000   45.709767375   13.763507836   321.3596   5   9   3.4656   1.7825   5.0813   1.2353   1.1077   0.8159   0.00    0.0
2017/09/07 00:36:00.000   45.709767855   13.763508906   322.2380   5   9   3.4685   1.7828   5.0793   1.2340   1.1094   0.8479   0.00    0.0
2017/09/07 00:36:30.000   45.709763449   13.763509771   322.0758   5   9   3.4713   1.7831   5.0771   1.2327   1.1109   0.8781   0.00    0.0
2017/09/07 00:37:00.000   45.709765844   13.763509192   321.4445   5   9   3.4741   1.7834   5.0748   1.2314   1.1123   0.9066   0.00    0.0
2017/09/07 00:37:30.000   45.709769087   13.763508920   321.4185   5   9   3.4768   1.7838   5.0724   1.2299   1.1134   0.9336   0.00    0.0
2017/09/07 00:38:00.000   45.709768821   13.763510785   322.1582   5   9   3.4794   1.7841   5.0698   1.2284   1.1144   0.9592   0.00    0.0
2017/09/07 00:38:30.000   45.709761853   13.763499277   322.1991   5   8   3.6734   2.1232   5.7023   1.6886  -1.3286  -1.4469   0.00    0.0
2017/09/07 00:39:00.000   45.709758799   13.763508220   323.9079   5   8   3.6703   2.1208   5.7084   1.6796  -1.3311  -1.4226   0.00    0.0
2017/09/07 00:39:30.000   45.709755187   13.763504184   323.7800   5   8   3.6672   2.1184   5.7144   1.6706  -1.3336  -1.3980   0.00    0.0
2017/09/07 00:40:00.000   45.709771775   13.763504607   322.8058   5   8   3.6640   2.1161   5.7203   1.6615  -1.3361  -1.3730   0.00    0.0
2017/09/07 00:40:30.000   45.709767056   13.763505964   322.6073   5   8   3.6609   2.1138   5.7261   1.6524  -1.3387  -1.3478   0.00    0.0
2017/09/07 00:41:00.000   45.709760328   13.763503059   322.7559   5   8   3.6577   2.1116   5.7317   1.6431  -1.3414  -1.3221   0.00    0.0
2017/09/07 00:41:30.000   45.709767449   13.763506025   323.3345   5   8   3.6545   2.1094   5.7371   1.6338  -1.3440  -1.2962   0.00    0.0
2017/09/07 00:42:00.000   45.709757625   13.763498901   323.9219   5   8   3.6514   2.1072   5.7425   1.6244  -1.3467  -1.2698   0.00    0.0
2017/09/07 00:42:30.000   45.709767320   13.763506473   323.4583   5   8   3.6481   2.1051   5.7476   1.6149  -1.3495  -1.2431   0.00    0.0
2017/09/07 00:43:00.000   45.709760286   13.763500249   323.7613   5   8   3.6449   2.1031   5.7526   1.6054  -1.3522  -1.2160   0.00    0.0
2017/09/07 00:43:30.000   45.709760514   13.763506683   322.9775   5   8   3.6417   2.1011   5.7575   1.5958  -1.3550  -1.1885   0.00    0.0
2017/09/07 00:44:00.000   45.709767105   13.763507099   324.4537   5   8   3.6384   2.0991   5.7622   1.5861  -1.3578  -1.1605   0.00    0.0
2017/09/07 00:44:30.000   45.709769449   13.763505576   324.0038   5   8   3.6351   2.0972   5.7667   1.5763  -1.3607  -1.1322   0.00    0.0
2017/09/07 00:45:00.000   45.709763133   13.763507139   323.8248   5   8   3.6318   2.0954   5.7711   1.5664  -1.3635  -1.1033   0.00    0.0
2017/09/07 00:45:30.000   45.709768300   13.763504583   322.9424   5   8   3.6284   2.0936   5.7753   1.5564  -1.3664  -1.0740   0.00    0.0
2017/09/07 00:46:00.000   45.709768318   13.763503568   323.7108   5   8   3.6251   2.0919   5.7793   1.5464  -1.3693  -1.0442   0.00    0.0
2017/09/07 00:46:30.000   45.709761356   13.763502957   322.5277   5   8   3.6217   2.0902   5.7831   1.5363  -1.3722  -1.0138   0.00    0.0
2017/09/07 00:47:00.000   45.709770533   13.763505871   322.9917   5   8   3.6183   2.0885   5.7867   1.5261  -1.3751  -0.9829   0.00    0.0
2017/09/07 00:47:30.000   45.709767568   13.763509920   323.4807   5   8   3.6148   2.0870   5.7902   1.5158  -1.3781  -0.9513   0.00    0.0
2017/09/07 00:48:00.000   45.709764531   13.763500489   322.7148   5   8   3.6114   2.0854   5.7935   1.5054  -1.3810  -0.9191   0.00    0.0
2017/09/07 00:48:30.000   45.709770781   13.763501480   324.2908   5   8   3.6079   2.0839   5.7966   1.4949  -1.3839  -0.8862   0.00    0.0
2017/09/07 00:49:00.000   45.709764684   13.763499170   324.8336   5   8   3.6043   2.0825   5.7995   1.4844  -1.3869  -0.8525   0.00    0.0
2017/09/07 00:49:30.000   45.709760823   13.763506246   324.7325   5   8   3.6008   2.0811   5.8022   1.4737  -1.3898  -0.8179   0.00    0.0
2017/09/07 00:50:00.000   45.709760658   13.763501533   324.1829   5   8   3.5972   2.0798   5.8047   1.4630  -1.3927  -0.7823   0.00    0.0
2017/09/07 00:50:30.000   45.709763508   13.763503424   324.4162   5   8   3.5936   2.0786   5.8070   1.4522  -1.3957  -0.7456   0.00    0.0
2017/09/07 00:51:00.000   45.709761947   13.763504412   324.0428   5   8   3.5899   2.0773   5.8091   1.4413  -1.3986  -0.7077   0.00    0.0
2017/09/07 00:51:30.000   45.709767635   13.763506882   323.2724   5   8   3.5862   2.0762   5.8109   1.4303  -1.4015  -0.6684   0.00    0.0
2017/09/07 00:52:00.000   45.709760967   13.763499922   323.1295   5   8   3.5825   2.0751   5.8126   1.4192  -1.4043  -0.6274   0.00    0.0
2017/09/07 00:52:30.000   45.709764169   13.763497934   324.2636   5   8   3.5788   2.0740   5.8141   1.4080  -1.4072  -0.5843   0.00    0.0
2017/09/07 00:53:00.000   45.709770507   13.763499721   322.8348   5   8   3.5750   2.0730   5.8154   1.3967  -1.4100  -0.5388   0.00    0.0
2017/09/07 00:53:30.000   45.709771526   13.763499693   324.8994   5   8   3.5711   2.0721   5.8164   1.3854  -1.4128  -0.4901   0.00    0.0
2017/09/07 00:54:00.000   45.709762111   13.763501191   323.5486   5   9   3.1305   1.9999   5.3851   0.9830  -1.7858  -1.9885   0.00    0.0
2017/09/07 00:54:30.000   45.709767489   13.763502200   323.8923   5   9   3.1269   1.9993   5.3886   0.9680  -1.7864  -1.9725   0.00    0.0
2017/09/07 00:55:00.000   45.709764030   13.763499295   324.1223   5   9   3.1234   1.9987   5.3921   0.9528  -1.7869  -1.9564   0.00    0.0
2017/09/07 00:55:30.000   45.709764159   13.763501198   323.6043   5   9   3.1200   1.9981   5.3955   0.9374  -1.7874  -1.9401   0.00    0.0
2017/09/07 00:56:00.000   45.709759710   13.763504858   323.8227   5   9   3.1166   1.9976   5.3988   0.9217  -1.7877  -1.9236   0.00    0.0
2017/09/07 00:56:30.000   45.709762584   13.763503227   324.2026   5   9   3.1133   1.9972   5.4021   0.9058  -1.7881  -1.9070   0.00    0.0
2017/09/07 00:57:00.000   45.709765544   13.763498406   324.4524   5   9   3.1101   1.9968   5.4052   0.8896  -1.7883  -1.8902   0.00    0.0
2017/09/07 00:57:30.000   45.709768343   13.763503422   323.8500   5   9   3.1069   1.9964   5.4084   0.8732  -1.7885  -1.8733   0.00    0.0
2017/09/07 00:58:00.000   45.709764672   13.763503217   323.7716   5   9   3.1038   1.9961   5.4114   0.8564  -1.7886  -1.8562   0.00    0.0
2017/09/07 00:58:30.000   45.709761861   13.763503025   324.1779   5   9   3.1008   1.9958   5.4143   0.8394  -1.7887  -1.8390   0.00    0.0
2017/09/07 00:59:00.000   45.709757614   13.763503688   323.1446   5   9   3.0979   1.9955   5.4172   0.8220  -1.7886  -1.8216   0.00    0.0
2017/09/07 00:59:30.000   45.709768215   13.763501295   323.7638   5   9   3.0950   1.9953   5.4200   0.8043  -1.7885  -1.8041   0.00    0.0
2017/09/07 01:00:00.000   45.709760240   13.763512721   322.8730   5   9   2.5049   1.7446   4.8816   0.1561  -1.4653   0.3179   0.00    0.0
2017/09/07 01:00:30.000   45.709763889   13.763513408   322.7725   5   9   2.5053   1.7444   4.8880   0.0863  -1.4658   0.4020   0.00    0.0
2017/09/07 01:01:00.000   45.709761016   13.763514081   322.6877   5   9   2.5059   1.7443   4.8942  -0.0972  -1.4663   0.4711   0.00    0.0
2017/09/07 01:01:30.000   45.709760109   13.763517086   322.3333   5   9   2.5066   1.7442   4.9004  -0.1621  -1.4667   0.5310   0.00    0.0
2017/09/07 01:02:00.000   45.709765252   13.763511615   323.2492   5   9   2.5074   1.7442   4.9064  -0.2074  -1.4670   0.5846   0.00    0.0
2017/09/07 01:02:30.000   45.709769207   13.763511865   322.8372   5   9   2.5082   1.7442   4.9122  -0.2444  -1.4673   0.6334   0.00    0.0
2017/09/07 01:03:00.000   45.709766999   13.763512703   322.7027   5   9   2.5091   1.7442   4.9180  -0.2764  -1.4675   0.6784   0.00    0.0
2017/09/07 01:03:30.000   45.709758129   13.763514800   322.7674   5   9   2.5101   1.7443   4.9236  -0.3049  -1.4676   0.7203   0.00    0.0
2017/09/07 01:04:00.000   45.709766145   13.763508993   322.6661   5   9   2.5112   1.7443   4.9291  -0.3309  -1.4677   0.7597   0.00    0.0
2017/09/07 01:04:30.000   45.709765473   13.763513051   323.8954   5   9   2.5124   1.7444   4.9344  -0.3548  -1.4676   0.7968   0.00    0.0
2017/09/07 01:05:00.000   45.709765460   13.763513841   322.6196   5   9   2.5136   1.7446   4.9396  -0.3772  -1.4676   0.8320   0.00    0.0
2017/09/07 01:05:30.000   45.709765891   13.763505900   322.9409   5   9   2.5149   1.7447   4.9447  -0.3982  -1.4674   0.8655   0.00    0.0
2017/09/07 01:06:00.000   45.709763719   13.763510231   322.0388   5   8   2.7729   1.8032   5.5953   0.5957  -0.9829   1.9610   0.00    0.0
2017/09/07 01:06:30.000   45.709767282   13.763514869   323.0373   5   8   2.7782   1.8021   5.6198   0.5803  -0.9797   1.9944   0.00    0.0
2017/09/07 01:07:00.000   45.709767208   13.763513828   322.7083   5   8   2.7837   1.8010   5.6444   0.5645  -0.9765   2.0273   0.00    0.0
2017/09/07 01:07:30.000   45.709760838   13.763511046   322.8325   5   8   2.7893   1.7999   5.6691   0.5483  -0.9734   2.0598   0.00    0.0
2017/09/07 01:08:00.000   45.709763097   13.763507270   322.7058   5   8   2.7950   1.7989   5.6937   0.5316  -0.9704   2.0918   0.00    0.0
2017/09/07 01:08:30.000   45.709766799   13.763507697   322.8530   5   8   2.8008   1.7980   5.7183   0.5145  -0.9675   2.1234   0.00    0.0
2017/09/07 01:09:00.000   45.709764318   13.763512766   322.6236   5   8   2.8067   1.7971   5.7429   0.4968  -0.9646   2.1546   0.00    0.0
2017/09/07 01:09:30.000   45.709757553   13.763515038   322.6728   5   8   2.8128   1.7963   5.7674   0.4786  -0.9618   2.1853   0.00    0.0
2017/09/07 01:10:00.000   45.709762687   13.763512044   322.3205   5   8   2.8189   1.7955   5.7918   0.4596  -0.9590   2.2156   0.00    0.0
2017/09/07 01:10:30.000   45.709768046   13.763513868   322.6349   5   8   2.8250   1.7948   5.8162   0.4400  -0.9563   2.2455   0.00    0.0
2017/09/07 01:11:00.000   45.709762866   13.763513111   323.5250   5   8   2.8313   1.7941   5.8403   0.4194  -0.9536   2.2748   0.00    0.0
2017/09/07 01:11:30.000   45.709762053   13.763509815   322.0679   5   8   2.8376   1.7934   5.8643   0.3979  -0.9509   2.3037   0.00    0.0
2017/09/07 01:12:00.000   45.709759399   13.763513211   322.2440   5   8   2.8439   1.7928   5.8881   0.3753  -0.9484   2.3321   0.00    0.0
2017/09/07 01:12:30.000   45.709760455   13.763516869   323.6555   5   8   2.8503   1.7923   5.9117   0.3512  -0.9458   2.3600   0.00    0.0
2017/09/07 01:13:00.000   45.709762930   13.763508647   321.1533   5   8   2.8567   1.7918   5.9350   0.3254  -0.9433   2.3874   0.00    0.0
2017/09/07 01:13:30.000   45.709766961   13.763516231   322.3701   5   8   2.8631   1.7914   5.9580   0.2976  -0.9408   2.4143   0.00    0.0
2017/09/07 01:14:00.000   45.709760840   13.763513855   322.0724   5   8   2.8696   1.7910   5.9807   0.2669  -0.9383   2.4406   0.00    0.0
2017/09/07 01:14:30.000   45.709759608   13.763512627   321.7682   5   8   2.8760   1.7907   6.0031   0.2323  -0.9359   2.4663   0.00    0.0
2017/09/07 01:15:00.000   45.709764130   13.763514213   323.3255   5   8   2.8824   1.7904   6.0250   0.1917  -0.9334   2.4915   0.00    0.0
2017/09/07 01:15:30.000   45.709763327   13.763515109   323.3965   5   8   2.8887   1.7901   6.0466   0.1401  -0.9310   2.5161   0.00    0.0
2017/09/07 01:16:00.000   45.709762049   13.763514340   323.0711   5   8   2.8951   1.7899   6.0677   0.0503  -0.9286   2.5400   0.00    0.0
2017/09/07 01:16:30.000   45.709758330   13.763515266   321.4216   5   8   2.9013   1.7898   6.0883  -0.1204  -0.9261   2.5634   0.00    0.0
2017/09/07 01:17:00.000   45.709761689   13.763513184   323.6367   5   8   2.9075   1.7897   6.1083  -0.1774  -0.9237   2.5861   0.00    0.0
2017/09/07 01:17:30.000   45.709764414   13.763513357   323.2532   5   8   2.9137   1.7897   6.1278  -0.2199  -0.9212   2.6081   0.00    0.0
2017/09/07 01:18:00.000   45.709769028   13.763513712   322.4210   5   8   2.9197   1.7897   6.1467  -0.2553  -0.9187   2.6294   0.00    0.0
2017/09/07 01:18:30.000   45.709765765   13.763508000   322.4698   5   8   2.9256   1.7897   6.1650  -0.2863  -0.9161   2.6500   0.00    0.0
2017/09/07 01:19:00.000   45.709766187   13.763509838   322.8075   5   8   2.9314   1.7898   6.1827  -0.3141  -0.9135   2.6698   0.00    0.0
2017/09/07 01:19:30.000   45.709766511   13.763509014   323.5031   5   8   2.9371   1.7900   6.1996  -0.3395  -0.9109   2.6890   0.00    0.0
2017/09/07 01:20:00.000   45.709763662   13.763510267   322.0862   5   8   2.9426   1.7902   6.2158  -0.3631  -0.9082   2.7073   0.00    0.0
2017/09/07 01:20:30.000   45.709763033   13.763512603   321.9887   5   8   2.9479   1.7905   6.2313  -0.3851  -0.9054   2.7249   0.00    0.0
2017/09/07 01:21:00.000   45.709771510   13.763512424   323.0645   5   8   2.9531   1.7908   6.2459  -0.4058  -0.9026   2.7416   0.00    0.0
2017/09/07 01:21:30.000   45.709770456   13.763513160   322.5212   5   8   2.9581   1.7911   6.2597  -0.4255  -0.8996   2.7575   0.00    0.0
2017/09/07 01:22:00.000   45.709768765   13.763513439   322.9645   5   8   2.9629   1.7915   6.2727  -0.4441  -0.8966   2.7726   0.00    0.0
2017/09/07 01:22:30.000   45.709766552   13.763510432   322.8836   5   8   2.9675   1.7920   6.2848  -0.4619  -0.8935   2.7868   0.00    0.0
2017/09/07 01:23:00.000   45.709764471   13.763510539   322.7556   5   8   2.9719   1.7925   6.2960  -0.4790  -0.8902   2.8001   0.00    0.0
2017/09/07 01:23:30.000   45.709761358   13.763511164   321.8946   5   8   2.9761   1.7930   6.3063  -0.4954  -0.8869   2.8125   0.00    0.0
2017/09/07 01:24:00.000   45.709766973   13.763513315   322.2967   5   8   2.9800   1.7936   6.3156  -0.5111  -0.8834   2.8240   0.00    0.0
2017/09/07 01:24:30.000   45.709766012   13.763514035   322.5227   5   8   2.9837   1.7942   6.3240  -0.5263  -0.8797   2.8345   0.00    0.0
2017/09/07 01:25:00.000   45.709760905   13.763511160   321.5258   5   8   2.9871   1.7949   6.3313  -0.5410  -0.8760   2.8442   0.00    0.0
2017/09/07 01:25:30.000   45.709763217   13.763510900   322.1772   5   8   2.9902   1.7957   6.3376  -0.5552  -0.8720   2.8528   0.00    0.0
2017/09/07 01:26:00.000   45.709764766   13.763513954   322.1845   5   8   2.9931   1.7965   6.3429  -0.5689  -0.8679   2.8605   0.00    0.0
2017/09/07 01:26:30.000   45.709760589   13.763512242   322.6811   5   8   2.9957   1.7973   6.3472  -0.5822  -0.8637   2.8672   0.00    0.0
2017/09/07 01:27:00.000   45.709762938   13.763512690   321.7660   5   8   2.9980   1.7982   6.3503  -0.5952  -0.8592   2.8730   0.00    0.0
2017/09/07 01:27:30.000   45.709763395   13.763514218   321.4888   5   8   3.0000   1.7991   6.3525  -0.6078  -0.8546   2.8777   0.00    0.0
2017/09/07 01:28:00.000   45.709763771   13.763516947   321.3402   5   8   3.0017   1.8001   6.3535  -0.6200  -0.8497   2.8814   0.00    0.0
2017/09/07 01:28:30.000   45.709763908   13.763513573   322.1409   5   8   3.0031   1.8011   6.3535  -0.6319  -0.8447   2.8842   0.00    0.0
2017/09/07 01:29:00.000   45.709766849   13.763513930   323.0777   5   8   3.0042   1.8022   6.3524  -0.6435  -0.8394   2.8859   0.00    0.0
2017/09/07 01:29:30.000   45.709763232   13.763511828   321.4011   5   8   3.0050   1.8034   6.3502  -0.6548  -0.8339   2.8867   0.00    0.0
2017/09/07 01:30:00.000   45.709761815   13.763515253   322.6281   5   8   3.0055   1.8046   6.3470  -0.6659  -0.8282   2.8864   0.00    0.0
2017/09/07 01:30:30.000   45.709767259   13.763517846   323.0525   5   8   3.0056   1.8058   6.3426  -0.6766  -0.8223   2.8851   0.00    0.0
2017/09/07 01:31:00.000   45.709765996   13.763512966   322.3541   5   8   3.0055   1.8071   6.3373  -0.6872  -0.8161   2.8828   0.00    0.0
2017/09/07 01:31:30.000   45.709760378   13.763515164   321.9377   5   8   3.0051   1.8084   6.3308  -0.6975  -0.8096   2.8795   0.00    0.0
2017/09/07 01:32:00.000   45.709761759   13.763511735   320.6891   5   8   3.0043   1.8098   6.3234  -0.7075  -0.8029   2.8753   0.00    0.0
2017/09/07 01:32:30.000   45.709763055   13.763510082   321.4919   5   8   3.0033   1.8112   6.3149  -0.7174  -0.7960   2.8700   0.00    0.0
2017/09/07 01:33:00.000   45.709760190   13.763510624   321.7032   5   8   3.0020   1.8127   6.3054  -0.7270  -0.7887   2.8638   0.00    0.0
2017/09/07 01:33:30.000   45.709764020   13.763512837   323.4870   5   8   3.0003   1.8143   6.2949  -0.7365  -0.7812   2.8567   0.00    0.0
2017/09/07 01:34:00.000   45.709763929   13.763512770   323.2721   5   8   2.9984   1.8158   6.2834  -0.7457  -0.7734   2.8485   0.00    0.0
2017/09/07 01:34:30.000   45.709763636   13.763516941   322.9198   5   8   2.9962   1.8175   6.2710  -0.7548  -0.7653   2.8395   0.00    0.0
2017/09/07 01:35:00.000   45.709767004   13.763512092   323.8927   5   8   2.9937   1.8192   6.2577  -0.7637  -0.7569   2.8295   0.00    0.0
2017/09/07 01:35:30.000   45.709765567   13.763514964   324.3710   5   8   2.9910   1.8209   6.2436  -0.7725  -0.7481   2.8186   0.00    0.0
2017/09/07 01:36:00.000   45.709765721   13.763514384   322.3720   5   8   2.9880   1.8227   6.2285  -0.7811  -0.7391   2.8069   0.00    0.0
2017/09/07 01:36:30.000   45.709764719   13.763516735   321.7128   5   8   2.9848   1.8246   6.2126  -0.7896  -0.7298   2.7942   0.00    0.0
2017/09/07 01:37:00.000   45.709766409   13.763510807   322.3241   5   8   2.9813   1.8265   6.1959  -0.7979  -0.7201   2.7807   0.00    0.0
2017/09/07 01:37:30.000   45.709763484   13.763516241   323.1321   5   8   2.9776   1.8284   6.1785  -0.8061  -0.7100   2.7664   0.00    0.0
2017/09/07 01:38:00.000   45.709765903   13.763513818   321.7244   5   8   2.9737   1.8305   6.1603  -0.8142  -0.6996   2.7512   0.00    0.0
2017/09/07 01:38:30.000   45.709758640   13.763511823   322.2573   5   7   3.2125   2.0732   7.4034   0.7159  -2.1173   1.5539   0.00    0.0
2017/09/07 01:39:00.000   45.709759509   13.763510004   325.1084   5   7   3.2043   2.0731   7.4005   0.6954  -2.1150   1.5299   0.00    0.0
2017/09/07 01:39:30.000   45.709762136   13.763512930   323.5273   5   7   3.1960   2.0730   7.3964   0.6746  -2.1122   1.5045   0.00    0.0
2017/09/07 01:40:00.000   45.709763503   13.763511395   323.7824   5   7   3.1878   2.0730   7.3911   0.6536  -2.1089   1.4777   0.00    0.0
2017/09/07 01:40:30.000   45.709759151   13.763509804   325.1769   5   7   3.1796   2.0730   7.3848   0.6322  -2.1052   1.4494   0.00    0.0
2017/09/07 01:41:00.000   45.709764568   13.763510915   324.6419   5   7   3.1714   2.0731   7.3773   0.6104  -2.1009   1.4196   0.00    0.0
2017/09/07 01:41:30.000   45.709765431   13.763508386   321.6416   5   7   3.1633   2.0731   7.3687   0.5881  -2.0962   1.3883   0.00    0.0
2017/09/07 01:42:00.000   45.709760373   13.763510559   322.6286   5   7   3.1551   2.0732   7.3591   0.5653  -2.0910   1.3554   0.00    0.0
2017/09/07 01:42:30.000   45.709759517   13.763510493   323.2267   5   7   3.1471   2.0734   7.3484   0.5419  -2.0853   1.3208   0.00    0.0
2017/09/07 01:43:00.000   45.709760625   13.763513012   324.4488   5   7   3.1390   2.0735   7.3367   0.5178  -2.0791   1.2845   0.00    0.0
2017/09/07 01:43:30.000   45.709757903   13.763516791   324.6039   5   7   3.1311   2.0737   7.3240   0.4928  -2.0725   1.2464   0.00    0.0
2017/09/07 01:44:00.000   45.709758961   13.763510929   322.5159   5   7   3.1232   2.0740   7.3104   0.4669  -2.0654   1.2064   0.00    0.0
2017/09/07 01:44:30.000   45.709760190   13.763514263   324.2295   5   7   3.1153   2.0743   7.2958   0.4398  -2.0578   1.1643   0.00    0.0
2017/09/07 01:45:00.000   45.709759790   13.763515607   322.5874   5   7   3.1075   2.0746   7.2803   0.4112  -2.0498   1.1200   0.00    0.0
2017/09/07 01:45:30.000   45.709761056   13.763509112   323.5352   5   7   3.0998   2.0749   7.2639   0.3808  -2.0413   1.0733   0.00    0.0
2017/09/07 01:46:00.000   45.709762297   13.763514152   322.6127   5   7   3.0922   2.0753   7.2466   0.3481  -2.0324   1.0240   0.00    0.0
2017/09/07 01:46:30.000   45.709762015   13.763511684   323.2188   5   7   3.0847   2.0757   7.2286   0.3123  -2.0230   0.9716   0.00    0.0
2017/09/07 01:47:00.000   45.709759132   13.763511595   322.5006   5   7   3.0772   2.0762   7.2098   0.2723  -2.0132   0.9158   0.00    0.0
2017/09/07 01:47:30.000   45.709755547   13.763516189   321.3808   5   7   3.0699   2.0767   7.1902   0.2257  -2.0029   0.8560   0.00    0.0
2017/09/07 01:48:00.000   45.709760591   13.763510731   323.0209   5   7   3.0626   2.0773   7.1699   0.1669  -1.9922   0.7914   0.00    0.0
2017/09/07 01:48:30.000   45.709762539   13.763510119   322.4615   5   7   3.0555   2.0779   7.1489   0.0703  -1.9811   0.7206   0.00    0.0
2017/09/07 01:49:00.000   45.709762298   13.763511502   323.7545   5   7   3.0485   2.0786   7.1272  -0.1336  -1.9696   0.6420   0.00    0.0
2017/09/07 01:49:30.000   45.709761033   13.763511883   323.4376   5   7   3.0415   2.0793   7.1050  -0.2013  -1.9577   0.5521   0.00    0.0
2017/09/07 01:50:00.000   45.709759446   13.763515180   322.0347   5   7   3.0347   2.0800   7.0822  -0.2512  -1.9454   0.4443   0.00    0.0
2017/09/07 01:50:30.000   45.709759912   13.763510562   322.4782   5   7   3.0280   2.0809   7.0588  -0.2927  -1.9327   0.3001   0.00    0.0
2017/09/07 01:51:00.000   45.709761352   13.763510906   322.7258   5   7   3.0214   2.0817   7.0348  -0.3288  -1.9196  -0.1305   0.00    0.0
2017/09/07 01:51:30.000   45.709764563   13.763515080   322.3054   5   7   3.0150   2.0827   7.0104  -0.3613  -1.9061  -0.3519   0.00    0.0
2017/09/07 01:52:00.000   45.709757779   13.763514755   322.7838   5   7   3.0086   2.0837   6.9856  -0.3911  -1.8923  -0.4798   0.00    0.0
2017/09/07 01:52:30.000   45.709759730   13.763510424   320.9108   5   6   3.7579   2.7529  14.1726  -2.0588   4.3208  -5.3139   0.00    0.0
2017/09/07 01:53:00.000   45.709764938   13.763509382   320.1053   5   6   3.7674   2.7748  14.1950  -2.0922   4.3810  -5.3599   0.00    0.0
2017/09/07 01:53:30.000   45.709765229   13.763507072   320.4753   5   6   3.7772   2.7971  14.2140  -2.1255   4.4404  -5.4048   0.00    0.0
2017/09/07 01:54:00.000   45.709763286   13.763511330   321.8676   5   6   3.7873   2.8199  14.2294  -2.1589   4.4988  -5.4487   0.00    0.0
2017/09/07 01:54:30.000   45.709762038   13.763509633   321.5147   5   6   3.7976   2.8430  14.2413  -2.1923   4.5563  -5.4915   0.00    0.0
2017/09/07 01:55:00.000   45.709761051   13.763511149   320.8330   5   6   3.8082   2.8666  14.2497  -2.2257   4.6128  -5.5332   0.00    0.0
2017/09/07 01:55:30.000   45.709761182   13.763507599   319.7715   5   6   3.8189   2.8905  14.2547  -2.2590   4.6684  -5.5736   0.00    0.0
2017/09/07 01:56:00.000   45.709759032   13.763507612   319.1366   5   6   3.8299   2.9147  14.2563  -2.2923   4.7229  -5.6129   0.00    0.0
2017/09/07 01:56:30.000   45.709767375   13.763505227   318.7382   5   6   3.8410   2.9393  14.2546  -2.3255   4.7763  -5.6510   0.00    0.0
2017/09/07 01:57:00.000   45.709759718   13.763514361   321.6823   5   6   3.8523   2.9643  14.2496  -2.3586   4.8287  -5.6879   0.00    0.0
2017/09/07 01:57:30.000   45.709765175   13.763504984   319.6327   5   6   3.8637   2.9896  14.2415  -2.3916   4.8800  -5.7235   0.00    0.0
2017/09/07 01:58:00.000   45.709757848   13.763513155   321.1114   5   6   3.8752   3.0151  14.2302  -2.4245   4.9302  -5.7578   0.00    0.0
2017/09/07 01:58:30.000   45.709769993   13.763503615   318.4924   5   6   3.8867   3.0410  14.2158  -2.4573   4.9793  -5.7909   0.00    0.0
2017/09/07 01:59:00.000   45.709763149   13.763514689   320.6545   5   6   3.8984   3.0671  14.1985  -2.4899   5.0273  -5.8227   0.00    0.0
2017/09/07 01:59:30.000   45.709765324   13.763502269   319.6022   5   6   3.9101   3.0935  14.1784  -2.5223   5.0742  -5.8532   0.00    0.0
2017/09/07 02:00:00.000   45.709774187   13.763496882   324.6692   5   6   3.9218   3.1201  14.1554  -2.5546   5.1200  -5.8825   0.00    0.0
2017/09/07 02:00:30.000   45.709775375   13.763498727   325.5603   5   6   3.9336   3.1469  14.1298  -2.5867   5.1647  -5.9105   0.00    0.0
2017/09/07 02:01:00.000   45.709776905   13.763496580   321.2505   5   6   3.9453   3.1740  14.1015  -2.6187   5.2082  -5.9372   0.00    0.0
2017/09/07 02:01:30.000   45.709767209   13.763506286   325.3134   5   6   3.9570   3.2012  14.0708  -2.6504   5.2507  -5.9627   0.00    0.0
2017/09/07 02:02:00.000   45.709771041   13.763504327   324.8851   5   6   3.9687   3.2287  14.0377  -2.6819   5.2921  -5.9870   0.00    0.0
2017/09/07 02:02:30.000   45.709773303   13.763501798   325.5756   5   6   3.9803   3.2563  14.0022  -2.7131   5.3323  -6.0100   0.00    0.0
2017/09/07 02:03:00.000   45.709770094   13.763501274   325.8155   5   6   3.9919   3.2841  13.9646  -2.7442   5.3715  -6.0318   0.00    0.0
2017/09/07 02:03:30.000   45.709772640   13.763502881   324.8276   5   6   4.0034   3.3120  13.9248  -2.7750   5.4096  -6.0524   0.00    0.0
2017/09/07 02:04:00.000   45.709770906   13.763505502   325.5894   5   6   4.0148   3.3400  13.8831  -2.8055   5.4467  -6.0718   0.00    0.0
2017/09/07 02:04:30.000   45.709774024   13.763494867   323.6015   5   6   4.0262   3.3682  13.8394  -2.8358   5.4827  -6.0901   0.00    0.0
2017/09/07 02:05:00.000   45.709769150   13.763505565   326.0730   5   6   4.0374   3.3965  13.7939  -2.8659   5.5176  -6.1072   0.00    0.0
2017/09/07 02:05:30.000   45.709768783   13.763500946   325.4597   5   6   4.0485   3.4249  13.7467  -2.8957   5.5516  -6.1232   0.00    0.0
2017/09/07 02:06:00.000   45.709766838   13.763502952   324.4465   5   6   4.0594   3.4535  13.6978  -2.9252   5.5846  -6.1381   0.00    0.0
2017/09/07 02:06:30.000   45.709763429   13.763502896   327.3290   5   6   4.0702   3.4820  13.6475  -2.9544   5.6165  -6.1520   0.00    0.0
2017/09/07 02:07:00.000   45.709771862   13.763494435   323.4830   5   6   4.0809   3.5107  13.5956  -2.9834   5.6475  -6.1648   0.00    0.0
2017/09/07 02:07:30.000   45.709767182   13.763505316   325.1827   5   6   4.0915   3.5394  13.5424  -3.0121   5.6776  -6.1765   0.00    0.0
2017/09/07 02:08:00.000   45.709762910   13.763508827   326.9915   5   6   4.1018   3.5682  13.4880  -3.0405   5.7067  -6.1873   0.00    0.0
2017/09/07 02:08:30.000   45.709769089   13.763493386   323.6335   5   6   4.1121   3.5971  13.4323  -3.0686   5.7349  -6.1971   0.00    0.0
2017/09/07 02:09:00.000   45.709766800   13.763509152   326.0164   5   6   4.1221   3.6260  13.3755  -3.0964   5.7622  -6.2059   0.00    0.0
2017/09/07 02:09:30.000   45.709769084   13.763504059   326.0843   5   6   4.1320   3.6549  13.3177  -3.1240   5.7886  -6.2138   0.00    0.0
2017/09/07 02:10:00.000   45.709770377   13.763504475   326.1837   5   6   4.1416   3.6838  13.2589  -3.1512   5.8141  -6.2208   0.00    0.0
2017/09/07 02:10:30.000   45.709769319   13.763504328   324.5243   5   6   4.1511   3.7128  13.1992  -3.1782   5.8388  -6.2268   0.00    0.0
2017/09/07 02:11:00.000   45.709771753   13.763501085   323.7891   5   6   4.1604   3.7418  13.1387  -3.2049   5.8627  -6.2321   0.00    0.0
2017/09/07 02:11:30.000   45.709765535   13.763505721   325.7477   5   6   4.1696   3.7708  13.0774  -3.2312   5.8857  -6.2364   0.00    0.0
2017/09/07 02:12:00.000   45.709768911   13.763509554   326.9833   5   6   4.1785   3.7998  13.0154  -3.2573   5.9080  -6.2400   0.00    0.0
2017/09/07 02:12:30.000   45.709768518   13.763503145   325.3079   5   6   4.1872   3.8288  12.9527  -3.2831   5.9295  -6.2428   0.00    0.0
2017/09/07 02:13:00.000   45.709772296   13.763500768   323.2312   5   6   4.1957   3.8578  12.8895  -3.3085   5.9502  -6.2447   0.00    0.0
2017/09/07 02:13:30.000   45.709764486   13.763511354   326.3089   5   6   4.2040   3.8867  12.8257  -3.3337   5.9702  -6.2460   0.00    0.0
2017/09/07 02:14:00.000   45.709763167   13.763506937   326.7676   5   6   4.2121   3.9157  12.7615  -3.3586   5.9894  -6.2464   0.00    0.0
2017/09/07 02:14:30.000   45.709767354   13.763504942   324.4095   5   6   4.2200   3.9446  12.6968  -3.3832   6.0079  -6.2462   0.00    0.0
2017/09/07 02:15:00.000   45.709768385   13.763505109   324.7411   5   6   4.2277   3.9735  12.6316  -3.4075   6.0257  -6.2453   0.00    0.0
2017/09/07 02:15:30.000   45.709768906   13.763506543   326.0583   5   6   4.2351   4.0023  12.5662  -3.4314   6.0429  -6.2437   0.00    0.0
2017/09/07 02:16:00.000   45.709765169   13.763504027   324.5550   5   6   4.2424   4.0311  12.5004  -3.4551   6.0593  -6.2414   0.00    0.0
2017/09/07 02:16:30.000   45.709765650   13.763513343   324.6674   5   6   4.2494   4.0599  12.4344  -3.4785   6.0751  -6.2385   0.00    0.0
2017/09/07 02:17:00.000   45.709767062   13.763505214   325.8098   5   6   4.2562   4.0886  12.3681  -3.5015   6.0902  -6.2349   0.00    0.0
2017/09/07 02:17:30.000   45.709767969   13.763503142   325.0130   5   6   4.2628   4.1172  12.3016  -3.5243   6.1047  -6.2307   0.00    0.0
2017/09/07 02:18:00.000   45.709760739   13.763512373   326.8036   5   6   4.2691   4.1458  12.2349  -3.5468   6.1186  -6.2259   0.00    0.0
2017/09/07 02:18:30.000   45.709767291   13.763513426   325.6168   5   6   4.2753   4.1743  12.1680  -3.5689   6.1318  -6.2206   0.00    0.0
2017/09/07 02:19:00.000   45.709762272   13.763508241   325.2065   5   6   4.2812   4.2028  12.1011  -3.5908   6.1444  -6.2146   0.00    0.0
2017/09/07 02:19:30.000   45.709766127   13.763503694   324.6280   5   6   4.2869   4.2312  12.0340  -3.6123   6.1565  -6.2081   0.00    0.0
2017/09/07 02:20:00.000   45.709762550   13.763510863   325.7930   5   6   4.2923   4.2594  11.9669  -3.6336   6.1679  -6.2011   0.00    0.0
2017/09/07 02:20:30.000   45.709763628   13.763511707   325.8683   5   6   4.2975   4.2876  11.8997  -3.6545   6.1788  -6.1935   0.00    0.0
2017/09/07 02:21:00.000   45.709763808   13.763510352   325.7025   5   6   4.3025   4.3157  11.8325  -3.6751   6.1891  -6.1854   0.00    0.0
2017/09/07 02:21:30.000   45.709768137   13.763506004   326.0456   5   7   3.2045   2.4510   6.1676  -1.8261   1.5794  -3.0521   0.00    0.0
2017/09/07 02:22:00.000   45.709765863   13.763502577   324.8097   5   7   3.2022   2.4562   6.1536  -1.8336   1.5998  -3.0517   0.00    0.0
2017/09/07 02:22:30.000   45.709767621   13.763502717   323.9558   5   7   3.2000   2.4613   6.1396  -1.8411   1.6198  -3.0512   0.00    0.0
2017/09/07 02:23:00.000   45.709767349   13.763506169   324.9789   5   7   3.1977   2.4665   6.1255  -1.8485   1.6395  -3.0506   0.00    0.0
2017/09/07 02:23:30.000   45.709761426   13.763511759   325.9199   5   7   3.1955   2.4718   6.1113  -1.8558   1.6588  -3.0498   0.00    0.0
2017/09/07 02:24:00.000   45.709758497   13.763509231   325.3336   5   7   3.1933   2.4771   6.0971  -1.8631   1.6778  -3.0488   0.00    0.0
2017/09/07 02:24:30.000   45.709762113   13.763505722   324.5874   5   7   3.1910   2.4825   6.0827  -1.8704   1.6964  -3.0477   0.00    0.0
2017/09/07 02:25:00.000   45.709758765   13.763514490   325.4489   5   7   3.1888   2.4879   6.0683  -1.8775   1.7146  -3.0464   0.00    0.0
2017/09/07 02:25:30.000   45.709761340   13.763513404   325.7862   5   7   3.1865   2.4934   6.0538  -1.8847   1.7325  -3.0450   0.00    0.0
2017/09/07 02:26:00.000   45.709760851   13.763512630   325.2545   5   7   3.1843   2.4989   6.0392  -1.8917   1.7501  -3.0434   0.00    0.0
2017/09/07 02:26:30.000   45.709762198   13.763505226   325.0886   5   7   3.1820   2.5045   6.0246  -1.8987   1.7673  -3.0417   0.00    0.0
2017/09/07 02:27:00.000   45.709759507   13.763509902   326.2317   5   7   3.1798   2.5101   6.0098  -1.9056   1.7842  -3.0397   0.00    0.0
2017/09/07 02:27:30.000   45.709763246   13.763508155   325.5561   5   7   3.1775   2.5157   5.9950  -1.9124   1.8008  -3.0377   0.00    0.0
2017/09/07 02:28:00.000   45.709757710   13.763511034   325.9321   5   7   3.1752   2.5214   5.9801  -1.9191   1.8170  -3.0354   0.00    0.0
2017/09/07 02:28:30.000   45.709762263   13.763510195   325.4945   5   7   3.1729   2.5271   5.9651  -1.9258   1.8329  -3.0331   0.00    0.0
2017/09/07 02:29:00.000   45.709765807   13.763505069   324.2275   5   7   3.1706   2.5328   5.9500  -1.9324   1.8485  -3.0305   0.00    0.0
2017/09/07 02:29:30.000   45.709761754   13.763510332   325.2451   5   7   3.1683   2.5386   5.9349  -1.9389   1.8637  -3.0278   0.00    0.0
2017/09/07 02:30:00.000   45.709759961   13.763519731   326.5079   5   7   3.1659   2.5445   5.9197  -1.9454   1.8787  -3.0249   0.00    0.0
2017/09/07 02:30:30.000   45.709761742   13.763507610   325.0160   5   7   3.1636   2.5503   5.9044  -1.9518   1.8933  -3.0218   0.00    0.0
2017/09/07 02:31:00.000   45.709761643   13.763506129   324.8006   5   7   3.1612   2.5562   5.8890  -1.9581   1.9076  -3.0186   0.00    0.0
2017/09/07 02:31:30.000   45.709760156   13.763516464   325.3372   5   7   3.1588   2.5621   5.8736  -1.9643   1.9216  -3.0152   0.00    0.0
2017/09/07 02:32:00.000   45.709765187   13.763509309   326.1444   5   7   3.1564   2.5681   5.8581  -1.9704   1.9353  -3.0116   0.00    0.0
2017/09/07 02:32:30.000   45.709757811   13.763516958   325.2046   5   7   3.1540   2.5740   5.8425  -1.9764   1.9487  -3.0079   0.00    0.0
2017/09/07 02:33:00.000   45.709765759   13.763507449   325.1882   5   7   3.1516   2.5800   5.8269  -1.9824   1.9618  -3.0040   0.00    0.0
2017/09/07 02:33:30.000   45.709765015   13.763504790   324.3370   5   7   3.1492   2.5860   5.8112  -1.9883   1.9745  -2.9999   0.00    0.0
2017/09/07 02:34:00.000   45.709762281   13.763510540   325.5523   5   7   3.1467   2.5920   5.7955  -1.9940   1.9870  -2.9956   0.00    0.0
2017/09/07 02:34:30.000   45.709760907   13.763510599   324.7121   5   7   3.1442   2.5981   5.7797  -1.9997   1.9992  -2.9912   0.00    0.0
2017/09/07 02:35:00.000   45.709758047   13.763510130   324.9174   5   7   3.1417   2.6042   5.7638  -2.0053   2.0110  -2.9866   0.00    0.0
2017/09/07 02:35:30.000   45.709768450   13.763500659   325.7245   5   7   3.1392   2.6102   5.7479  -2.0109   2.0226  -2.9818   0.00    0.0
2017/09/07 02:36:00.000   45.709763423   13.763508893   324.9583   5   7   3.1366   2.6163   5.7320  -2.0163   2.0339  -2.9769   0.00    0.0
2017/09/07 02:36:30.000   45.709764053   13.763513152   325.7104   5   7   3.1341   2.6224   5.7159  -2.0216   2.0449  -2.9718   0.00    0.0
2017/09/07 02:37:00.000   45.709774687   13.763498408   325.9531   5   6   3.9742   3.0705   6.0375  -2.8270   1.0328  -1.9823   0.00    0.0
2017/09/07 02:37:30.000   45.709773957   13.763506328   325.9380   5   6   3.9644   3.0724   6.0230  -2.8243   1.0577  -1.9790   0.00    0.0
2017/09/07 02:38:00.000   45.709773606   13.763503355   326.2338   5   6   3.9546   3.0743   6.0085  -2.8216   1.0820  -1.9757   0.00    0.0
2017/09/07 02:38:30.000   45.709773770   13.763501528   326.5539   5   6   3.9446   3.0760   5.9939  -2.8187   1.1057  -1.9724   0.00    0.0
2017/09/07 02:39:00.000   45.709765392   13.763509494   326.8102   5   6   3.9346   3.0777   5.9792  -2.8156   1.1288  -1.9690   0.00    0.0
2017/09/07 02:39:30.000   45.709768617   13.763505115   326.9590   5   6   3.9246   3.0794   5.9643  -2.8124   1.1512  -1.9656   0.00    0.0
2017/09/07 02:40:00.000   45.709772426   13.763504265   326.1384   5   6   3.9145   3.0810   5.9495  -2.8091   1.1732  -1.9621   0.00    0.0
2017/09/07 02:40:30.000   45.709768161   13.763512522   327.1866   5   6   3.9044   3.0825   5.9345  -2.8056   1.1945  -1.9585   0.00    0.0
2017/09/07 02:41:00.000   45.709768360   13.763508785   326.1987   5   6   3.8942   3.0839   5.9194  -2.8020   1.2154  -1.9549   0.00    0.0
2017/09/07 02:41:30.000   45.709767477   13.763510425   326.0370   5   6   3.8839   3.0853   5.9043  -2.7983   1.2358  -1.9512   0.00    0.0
2017/09/07 02:42:00.000   45.709768911   13.763508175   326.2395   5   6   3.8736   3.0867   5.8891  -2.7944   1.2557  -1.9474   0.00    0.0
2017/09/07 02:42:30.000   45.709764680   13.763510011   327.1466   5   6   3.8633   3.0880   5.8739  -2.7905   1.2752  -1.9436   0.00    0.0
2017/09/07 02:43:00.000   45.709767014   13.763509350   327.0300   5   6   3.8529   3.0892   5.8586  -2.7864   1.2942  -1.9397   0.00    0.0
2017/09/07 02:43:30.000   45.709768340   13.763509005   324.8575   5   6   3.8425   3.0904   5.8432  -2.7821   1.3127  -1.9357   0.00    0.0
2017/09/07 02:44:00.000   45.709768226   13.763506993   326.9782   5   6   3.8321   3.0915   5.8278  -2.7778   1.3309  -1.9316   0.00    0.0
2017/09/07 02:44:30.000   45.709769067   13.763511240   327.1879   5   6   3.8216   3.0926   5.8123  -2.7734   1.3486  -1.9274   0.00    0.0
2017/09/07 02:45:00.000   45.709764352   13.763517598   325.7475   5   6   3.8111   3.0936   5.7968  -2.7688   1.3660  -1.9231   0.00    0.0
2017/09/07 02:45:30.000   45.709761791   13.763521117   326.7282   5   6   3.8006   3.0946   5.7812  -2.7641   1.3829  -1.9188   0.00    0.0
2017/09/07 02:46:00.000   45.709765403   13.763509721   326.2990   5   6   3.7900   3.0955   5.7656  -2.7593   1.3995  -1.9143   0.00    0.0
2017/09/07 02:46:30.000   45.709762488   13.763514967   326.9038   5   6   3.7795   3.0964   5.7499  -2.7545   1.4157  -1.9098   0.00    0.0
2017/09/07 02:47:00.000   45.709767398   13.763515064   325.7740   5   6   3.7689   3.0973   5.7343  -2.7495   1.4315  -1.9051   0.00    0.0
2017/09/07 02:47:30.000   45.709765205   13.763515619   325.4964   5   6   3.7583   3.0981   5.7186  -2.7444   1.4470  -1.9004   0.00    0.0
2017/09/07 02:48:00.000   45.709768926   13.763511115   326.3931   5   6   3.7477   3.0989   5.7029  -2.7392   1.4622  -1.8956   0.00    0.0
2017/09/07 02:48:30.000   45.709762624   13.763518712   326.8366   5   6   3.7371   3.0997   5.6871  -2.7339   1.4770  -1.8906   0.00    0.0
2017/09/07 02:49:00.000   45.709760819   13.763517061   325.8100   5   6   3.7265   3.1004   5.6714  -2.7286   1.4915  -1.8856   0.00    0.0
2017/09/07 02:49:30.000   45.709762020   13.763515298   325.9450   5   6   3.7158   3.1011   5.6556  -2.7231   1.5057  -1.8805   0.00    0.0
2017/09/07 02:50:00.000   45.709760079   13.763522567   327.1650   5   6   3.7052   3.1017   5.6398  -2.7176   1.5196  -1.8753   0.00    0.0
2017/09/07 02:50:30.000   45.709763032   13.763518086   327.0603   5   6   3.6946   3.1024   5.6241  -2.7120   1.5331  -1.8700   0.00    0.0
2017/09/07 02:51:00.000   45.709770737   13.763507828   325.3473   5   7   2.7357   2.4711   4.9242  -1.6411  -1.6267   1.7738   0.00    0.0
2017/09/07 02:51:30.000   45.709767868   13.763510418   325.5027   5   7   2.7299   2.4684   4.9151  -1.6336  -1.6085   1.7611   0.00    0.0
2017/09/07 02:52:00.000   45.709764427   13.763513554   325.2042   5   7   2.7243   2.4658   4.9060  -1.6261  -1.5901   1.7485   0.00    0.0
2017/09/07 02:52:30.000   45.709767464   13.763513941   325.1886   5   7   2.7187   2.4632   4.8969  -1.6187  -1.5715   1.7358   0.00    0.0
2017/09/07 02:53:00.000   45.709771918   13.763505696   325.3267   5   7   2.7132   2.4607   4.8877  -1.6113  -1.5528   1.7232   0.00    0.0
2017/09/07 02:53:30.000   45.709769611   13.763507072   324.9980   5   7   2.7078   2.4582   4.8786  -1.6038  -1.5338   1.7105   0.00    0.0
2017/09/07 02:54:00.000   45.709762861   13.763520499   324.8476   5   8   2.5070   1.9899   4.3275  -1.0469   0.9586   0.7933   0.00    0.0
2017/09/07 02:54:30.000   45.709761827   13.763518006   324.6585   5   8   2.5050   1.9898   4.3288  -1.0438   0.9674   0.7935   0.00    0.0
2017/09/07 02:55:00.000   45.709767829   13.763513775   323.5510   5   8   2.5031   1.9898   4.3301  -1.0407   0.9760   0.7938   0.00    0.0
2017/09/07 02:55:30.000   45.709762823   13.763513968   323.6077   5   8   2.5013   1.9898   4.3314  -1.0377   0.9846   0.7941   0.00    0.0
2017/09/07 02:56:00.000   45.709758842   13.763523136   324.9768   5   8   2.4995   1.9898   4.3325  -1.0346   0.9931   0.7944   0.00    0.0
2017/09/07 02:56:30.000   45.709763117   13.763514157   324.1912   5   8   2.4978   1.9899   4.3336  -1.0316   1.0014   0.7947   0.00    0.0
2017/09/07 02:57:00.000   45.709765723   13.763510524   324.5138   5   8   2.4962   1.9900   4.3346  -1.0286   1.0098   0.7951   0.00    0.0
2017/09/07 02:57:30.000   45.709767994   13.763515804   324.9965   5   8   2.4947   1.9901   4.3355  -1.0256   1.0180   0.7955   0.00    0.0
2017/09/07 02:58:00.000   45.709763889   13.763515673   324.9858   5   8   2.4932   1.9902   4.3364  -1.0226   1.0261   0.7960   0.00    0.0
2017/09/07 02:58:30.000   45.709764873   13.763513205   324.5065   5   8   2.4918   1.9904   4.3371  -1.0197   1.0342   0.7965   0.00    0.0
2017/09/07 02:59:00.000   45.709766784   13.763514123   324.5015   5   8   2.4905   1.9907   4.3378  -1.0167   1.0421   0.7970   0.00    0.0
2017/09/07 02:59:30.000   45.709759010   13.763516439   324.3272   5   8   2.4892   1.9909   4.3384  -1.0138   1.0500   0.7976   0.00    0.0
2017/09/07 03:00:00.000   45.709762695   13.763516677   322.5630   5   8   2.4880   1.9912   4.3389  -1.0109   1.0578   0.7983   0.00    0.0
2017/09/07 03:00:30.000   45.709763049   13.763511937   321.9758   5   8   2.4868   1.9915   4.3394  -1.0080   1.0656   0.7990   0.00    0.0
2017/09/07 03:01:00.000   45.709764719   13.763518273   321.3907   5   8   2.4858   1.9919   4.3397  -1.0051   1.0732   0.7997   0.00    0.0
2017/09/07 03:01:30.000   45.709758994   13.763518681   322.0174   5   8   2.4848   1.9923   4.3400  -1.0022   1.0808   0.8005   0.00    0.0
2017/09/07 03:02:00.000   45.709762093   13.763515949   321.4379   5   8   2.4838   1.9927   4.3401  -0.9993   1.0883   0.8014   0.00    0.0
2017/09/07 03:02:30.000   45.709758650   13.763517184   322.0404   5   8   2.4829   1.9932   4.3402  -0.9965   1.0957   0.8023   0.00    0.0
2017/09/07 03:03:00.000   45.709763918   13.763516041   321.4744   5   8   2.4821   1.9937   4.3402  -0.9936   1.1030   0.8032   0.00    0.0
2017/09/07 03:03:30.000   45.709765160   13.763508284   321.6253   5   8   2.4814   1.9942   4.3401  -0.9908   1.1103   0.8043   0.00    0.0
2017/09/07 03:04:00.000   45.709766404   13.763505916   320.8016   5   8   2.4807   1.9947   4.3399  -0.9879   1.1175   0.8053   0.00    0.0
2017/09/07 03:04:30.000   45.709762625   13.763518594   321.7136   5   8   2.4801   1.9953   4.3397  -0.9851   1.1246   0.8065   0.00    0.0
2017/09/07 03:05:00.000   45.709760286   13.763512535   321.2784   5   8   2.4795   1.9959   4.3393  -0.9823   1.1316   0.8077   0.00    0.0
2017/09/07 03:05:30.000   45.709761262   13.763509399   320.8059   5   8   2.4790   1.9966   4.3389  -0.9795   1.1386   0.8089   0.00    0.0
2017/09/07 03:06:00.000   45.709761179   13.763512353   321.3201   5   8   2.4786   1.9972   4.3384  -0.9767   1.1454   0.8103   0.00    0.0
2017/09/07 03:06:30.000   45.709764700   13.763507350   321.6473   5   8   2.4782   1.9979   4.3378  -0.9739   1.1522   0.8117   0.00    0.0
2017/09/07 03:07:00.000   45.709761127   13.763519610   321.5674   5   8   2.4779   1.9987   4.3371  -0.9711   1.1590   0.8131   0.00    0.0
2017/09/07 03:07:30.000   45.709766252   13.763507192   321.2351   5   8   2.4777   1.9994   4.3363  -0.9683   1.1656   0.8146   0.00    0.0
2017/09/07 03:08:00.000   45.709763008   13.763516037   321.8424   5   8   2.4775   2.0002   4.3355  -0.9655   1.1722   0.8162   0.00    0.0
2017/09/07 03:08:30.000   45.709763366   13.763514018   322.2410   5   8   2.4774   2.0011   4.3345  -0.9627   1.1787   0.8179   0.00    0.0
2017/09/07 03:09:00.000   45.709759706   13.763513294   320.9536   5   8   2.4773   2.0019   4.3335  -0.9600   1.1852   0.8196   0.00    0.0
2017/09/07 03:09:30.000   45.709760287   13.763509889   321.2704   5   8   2.4773   2.0028   4.3324  -0.9572   1.1916   0.8214   0.00    0.0
2017/09/07 03:10:00.000   45.709763452   13.763510947   321.7278   5   8   2.4774   2.0037   4.3312  -0.9544   1.1979   0.8232   0.00    0.0
2017/09/07 03:10:30.000   45.709757314   13.763516472   321.3788   5   8   2.4776   2.0047   4.3300  -0.9516   1.2041   0.8251   0.00    0.0
2017/09/07 03:11:00.000   45.709762813   13.763509330   321.3328   5   8   2.4778   2.0056   4.3287  -0.9489   1.2103   0.8271   0.00    0.0
2017/09/07 03:11:30.000   45.709762872   13.763513929   321.0710   5   8   2.4780   2.0066   4.3273  -0.9461   1.2164   0.8292   0.00    0.0
2017/09/07 03:12:00.000   45.709758293   13.763518709   320.5896   5   8   2.4783   2.0077   4.3258  -0.9433   1.2224   0.8313   0.00    0.0
2017/09/07 03:12:30.000   45.709761312   13.763514810   320.4992   5   8   2.4787   2.0087   4.3243  -0.9405   1.2284   0.8335   0.00    0.0
2017/09/07 03:13:00.000   45.709765649   13.763504339   320.9686   5   8   2.4792   2.0098   4.3227  -0.9378   1.2343   0.8358   0.00    0.0
2017/09/07 03:13:30.000   45.709763146   13.763515109   321.6967   5   8   2.4797   2.0109   4.3210  -0.9350   1.2401   0.8381   0.00    0.0
2017/09/07 03:14:00.000   45.709762257   13.763511567   321.8467   5   8   2.4802   2.0121   4.3193  -0.9322   1.2459   0.8405   0.00    0.0
2017/09/07 03:14:30.000   45.709760271   13.763513915   321.4273   5   8   2.4809   2.0132   4.3175  -0.9294   1.2516   0.8430   0.00    0.0
2017/09/07 03:15:00.000   45.709764332   13.763508465   321.9913   5   8   2.4816   2.0144   4.3157  -0.9266   1.2572   0.8455   0.00    0.0
2017/09/07 03:15:30.000   45.709765154   13.763513919   321.3966   5   8   2.4824   2.0157   4.3138  -0.9238   1.2628   0.8482   0.00    0.0
2017/09/07 03:16:00.000   45.709761298   13.763516551   321.7900   5   8   2.4832   2.0169   4.3118  -0.9211   1.2683   0.8509   0.00    0.0
2017/09/07 03:16:30.000   45.709760115   13.763513152   321.5405   5   8   2.4841   2.0182   4.3098  -0.9183   1.2738   0.8536   0.00    0.0
2017/09/07 03:17:00.000   45.709761279   13.763512430   321.4261   5   8   2.4850   2.0195   4.3078  -0.9154   1.2792   0.8565   0.00    0.0
2017/09/07 03:17:30.000   45.709758890   13.763513221   321.0549   5   8   2.4861   2.0209   4.3057  -0.9126   1.2846   0.8594   0.00    0.0
2017/09/07 03:18:00.000   45.709760595   13.763516190   321.5211   5   8   2.4871   2.0222   4.3035  -0.9098   1.2898   0.8624   0.00    0.0
2017/09/07 03:18:30.000   45.709766643   13.763513506   321.9294   5   9   2.2258   1.9285   4.1372  -0.3749   1.5488  -0.7486   0.00    0.0
2017/09/07 03:19:00.000   45.709763441   13.763514577   321.9881   5   9   2.2266   1.9294   4.1380  -0.3642   1.5517  -0.7375   0.00    0.0
2017/09/07 03:19:30.000   45.709764497   13.763515678   322.0080   5   8   2.5455   1.9713   4.4241   0.6067   1.3384  -1.5661   0.00    0.0
2017/09/07 03:20:00.000   45.709758230   13.763509414   321.9841   5   8   2.5455   1.9716   4.4285   0.6092   1.3420  -1.5640   0.00    0.0
2017/09/07 03:20:30.000   45.709762826   13.763515193   322.1683   5   8   2.5456   1.9718   4.4328   0.6118   1.3456  -1.5618   0.00    0.0
2017/09/07 03:21:00.000   45.709763490   13.763515495   322.0421   5   8   2.5457   1.9721   4.4370   0.6144   1.3492  -1.5593   0.00    0.0
2017/09/07 03:21:30.000   45.709763159   13.763511587   321.8048   5   8   2.5459   1.9725   4.4411   0.6170   1.3528  -1.5566   0.00    0.0
2017/09/07 03:22:00.000   45.709758675   13.763519006   321.4470   5   8   2.5461   1.9728   4.4452   0.6196   1.3563  -1.5538   0.00    0.0
2017/09/07 03:22:30.000   45.709762763   13.763512707   322.4533   5   8   2.5463   1.9732   4.4492   0.6222   1.3599  -1.5507   0.00    0.0
2017/09/07 03:23:00.000   45.709762005   13.763517426   321.9987   5   8   2.5466   1.9736   4.4531   0.6248   1.3635  -1.5475   0.00    0.0
2017/09/07 03:23:30.000   45.709763552   13.763511957   321.6049   5   8   2.5469   1.9741   4.4569   0.6274   1.3670  -1.5441   0.00    0.0
2017/09/07 03:24:00.000   45.709763783   13.763513044   322.0057   5   8   2.5473   1.9745   4.4606   0.6300   1.3706  -1.5404   0.00    0.0
2017/09/07 03:24:30.000   45.709765739   13.763513366   321.7519   5   8   2.5477   1.9750   4.4642   0.6326   1.3741  -1.5365   0.00    0.0
2017/09/07 03:25:00.000   45.709763307   13.763511419   321.6453   5   8   2.5481   1.9755   4.4678   0.6353   1.3777  -1.5325   0.00    0.0
2017/09/07 03:25:30.000   45.709766939   13.763517326   322.1649   5   8   2.5486   1.9761   4.4713   0.6380   1.3812  -1.5282   0.00    0.0
2017/09/07 03:26:00.000   45.709764010   13.763514869   322.0044   5   7   3.4712   2.1165   4.9925   1.4808   1.8954   1.7016   0.00    0.0
2017/09/07 03:26:30.000   45.709765598   13.763514752   321.7169   5   7   3.4742   2.1194   5.0133   1.4882   1.9098   1.7355   0.00    0.0
2017/09/07 03:27:00.000   45.709764108   13.763516937   322.4220   5   7   3.4774   2.1224   5.0342   1.4956   1.9242   1.7693   0.00    0.0
2017/09/07 03:27:30.000   45.709765020   13.763513841   321.6727   5   7   3.4806   2.1254   5.0555   1.5030   1.9388   1.8029   0.00    0.0
2017/09/07 03:28:00.000   45.709767657   13.763512626   322.1012   5   7   3.4840   2.1285   5.0769   1.5105   1.9534   1.8363   0.00    0.0
2017/09/07 03:28:30.000   45.709771143   13.763518319   322.6907   5   7   3.4874   2.1316   5.0986   1.5180   1.9681   1.8695   0.00    0.0
2017/09/07 03:29:00.000   45.709766329   13.763513710   321.4055   5   7   3.4910   2.1347   5.1205   1.5255   1.9828   1.9026   0.00    0.0
