% program   : RTKPOST-EX 2.5.0
% inp file  : D:\Academic\0 Research\000 In preparation\00 GPS positioning performance circular analysis during short-term fast-developing geomagnetic storms\Storm 3\trie2510.17d
% inp file  : D:\Academic\0 Research\000 In preparation\00 GPS positioning performance circular analysis during short-term fast-developing geomagnetic storms\Storm 3\brdc2510.17n
% obs start : 2017/09/08 00:00:00.0 GPST (week1965 432000.0s)
% obs end   : 2017/09/08 23:59:30.0 GPST (week1965 518370.0s)
% pos mode  : Single
% elev mask : 15.0 deg
% tidecorr  :
% ionos opt : Broadcast
% tropo opt : Saastamoinen
% ephemeris : Broadcast
% navi sys  : GPS
%
% (lat/lon/height=WGS84/ellipsoidal,Q=1:fix,2:float,3:sbas,4:dgps,5:single,6:ppp,ns=# of satellites)
%  GPST                  latitude(deg) longitude(deg)  height(m)   Q  ns   sdn(m)   sde(m)   sdu(m)  sdne(m)  sdeu(m)  sdun(m) age(s)  ratio
2017/09/08 00:00:00.000   45.709767146   13.763521907   323.0539   5   8   3.6432   1.8175   5.6099  -0.7403   0.7896  -3.1429   0.00    0.0
2017/09/08 00:00:30.000   45.709763896   13.763520765   323.2709   5   8   3.6448   1.8169   5.5991  -0.7473   0.7959  -3.1356   0.00    0.0
2017/09/08 00:01:00.000   45.709762716   13.763520320   323.4450   5   8   3.6464   1.8164   5.5880  -0.7542   0.8021  -3.1281   0.00    0.0
2017/09/08 00:01:30.000   45.709759175   13.763519506   323.8618   5   8   3.6480   1.8158   5.5767  -0.7609   0.8080  -3.1205   0.00    0.0
2017/09/08 00:02:00.000   45.709757673   13.763522161   323.2230   5   8   3.6496   1.8154   5.5652  -0.7675   0.8138  -3.1126   0.00    0.0
2017/09/08 00:02:30.000   45.709758249   13.763526908   323.8306   5   8   3.6512   1.8149   5.5535  -0.7740   0.8194  -3.1047   0.00    0.0
2017/09/08 00:03:00.000   45.709753881   13.763526834   324.7367   5   8   3.6527   1.8145   5.5416  -0.7804   0.8247  -3.0965   0.00    0.0
2017/09/08 00:03:30.000   45.709762361   13.763525111   323.0654   5   8   3.6542   1.8142   5.5296  -0.7866   0.8299  -3.0883   0.00    0.0
2017/09/08 00:04:00.000   45.709760643   13.763522174   323.4162   5   8   3.6557   1.8139   5.5174  -0.7928   0.8350  -3.0798   0.00    0.0
2017/09/08 00:04:30.000   45.709759894   13.763524107   322.8708   5   8   3.6572   1.8136   5.5050  -0.7988   0.8398  -3.0713   0.00    0.0
2017/09/08 00:05:00.000   45.709755360   13.763520339   323.4208   5   8   3.6587   1.8134   5.4924  -0.8047   0.8445  -3.0626   0.00    0.0
2017/09/08 00:05:30.000   45.709760020   13.763521822   323.4894   5   8   3.6601   1.8132   5.4797  -0.8105   0.8491  -3.0537   0.00    0.0
2017/09/08 00:06:00.000   45.709753907   13.763516697   323.2949   5   8   3.6616   1.8130   5.4669  -0.8162   0.8535  -3.0448   0.00    0.0
2017/09/08 00:06:30.000   45.709760593   13.763521099   323.7409   5   8   3.6630   1.8129   5.4539  -0.8218   0.8578  -3.0357   0.00    0.0
2017/09/08 00:07:00.000   45.709759284   13.763518004   323.4003   5   8   3.6644   1.8129   5.4408  -0.8273   0.8619  -3.0264   0.00    0.0
2017/09/08 00:07:30.000   45.709762399   13.763522811   322.5041   5   8   3.6657   1.8129   5.4276  -0.8327   0.8659  -3.0171   0.00    0.0
2017/09/08 00:08:00.000   45.709746605   13.763517271   323.5936   5   8   3.6671   1.8129   5.4143  -0.8380   0.8698  -3.0076   0.00    0.0
2017/09/08 00:08:30.000   45.709759965   13.763521250   322.8094   5   8   3.6685   1.8129   5.4008  -0.8432   0.8735  -2.9981   0.00    0.0
2017/09/08 00:09:00.000   45.709757989   13.763524204   323.1733   5   8   3.6698   1.8130   5.3873  -0.8484   0.8772  -2.9884   0.00    0.0
2017/09/08 00:09:30.000   45.709764160   13.763530936   322.5955   5   8   3.6711   1.8132   5.3737  -0.8534   0.8807  -2.9786   0.00    0.0
2017/09/08 00:10:00.000   45.709757930   13.763525986   323.3058   5   8   3.6724   1.8134   5.3600  -0.8584   0.8841  -2.9687   0.00    0.0
2017/09/08 00:10:30.000   45.709759559   13.763527873   322.8224   5   8   3.6737   1.8136   5.3462  -0.8633   0.8874  -2.9588   0.00    0.0
2017/09/08 00:11:00.000   45.709754635   13.763524447   323.3239   5   8   3.6750   1.8139   5.3323  -0.8681   0.8906  -2.9487   0.00    0.0
2017/09/08 00:11:30.000   45.709758447   13.763528650   322.6591   5   8   3.6763   1.8142   5.3184  -0.8729   0.8938  -2.9386   0.00    0.0
2017/09/08 00:12:00.000   45.709758330   13.763512983   323.2770   5   9   3.4813   1.7534   5.2599  -0.4653   1.0606  -3.0641   0.00    0.0
2017/09/08 00:12:30.000   45.709756276   13.763523456   323.8963   5   9   3.4803   1.7533   5.2476  -0.4682   1.0605  -3.0522   0.00    0.0
2017/09/08 00:13:00.000   45.709751498   13.763527191   324.1772   5   9   3.4793   1.7532   5.2353  -0.4710   1.0604  -3.0402   0.00    0.0
2017/09/08 00:13:30.000   45.709759805   13.763524919   323.3325   5   9   3.4783   1.7532   5.2229  -0.4737   1.0602  -3.0280   0.00    0.0
2017/09/08 00:14:00.000   45.709760310   13.763518449   323.4784   5   9   3.4774   1.7532   5.2104  -0.4764   1.0600  -3.0158   0.00    0.0
2017/09/08 00:14:30.000   45.709759148   13.763525085   323.7855   5   9   3.4765   1.7532   5.1978  -0.4790   1.0597  -3.0035   0.00    0.0
2017/09/08 00:15:00.000   45.709762574   13.763521991   323.5862   5  10   2.5891   1.7000   4.2705   0.8734  -0.3736  -1.4586   0.00    0.0
2017/09/08 00:15:30.000   45.709762931   13.763524241   322.7748   5  10   2.5916   1.6995   4.2684   0.8746  -0.3741  -1.4525   0.00    0.0
2017/09/08 00:16:00.000   45.709763164   13.763522833   322.0914   5  10   2.5942   1.6990   4.2662   0.8757  -0.3745  -1.4464   0.00    0.0
2017/09/08 00:16:30.000   45.709757218   13.763519097   323.1801   5  10   2.5969   1.6985   4.2639   0.8769  -0.3749  -1.4402   0.00    0.0
2017/09/08 00:17:00.000   45.709760800   13.763525234   323.4222   5  10   2.5996   1.6981   4.2616   0.8780  -0.3754  -1.4339   0.00    0.0
2017/09/08 00:17:30.000   45.709758953   13.763521941   323.1591   5  10   2.6023   1.6977   4.2592   0.8792  -0.3758  -1.4275   0.00    0.0
2017/09/08 00:18:00.000   45.709763960   13.763523818   322.6859   5  10   2.6051   1.6973   4.2567   0.8804  -0.3762  -1.4210   0.00    0.0
2017/09/08 00:18:30.000   45.709764851   13.763524775   322.2791   5   9   3.2265   1.7723   4.4779   1.3224   0.7569   0.8089   0.00    0.0
2017/09/08 00:19:00.000   45.709771516   13.763522101   322.9182   5   9   3.2298   1.7718   4.4827   1.3229   0.7637   0.8483   0.00    0.0
2017/09/08 00:19:30.000   45.709764835   13.763523437   323.3549   5   9   3.2332   1.7712   4.4875   1.3234   0.7703   0.8857   0.00    0.0
2017/09/08 00:20:00.000   45.709769610   13.763527756   323.9676   5   9   3.2366   1.7707   4.4923   1.3239   0.7768   0.9216   0.00    0.0
2017/09/08 00:20:30.000   45.709772577   13.763525705   324.1533   5   9   3.2401   1.7703   4.4971   1.3244   0.7831   0.9560   0.00    0.0
2017/09/08 00:21:00.000   45.709770262   13.763523720   323.2547   5   9   3.2436   1.7698   4.5019   1.3248   0.7893   0.9890   0.00    0.0
2017/09/08 00:21:30.000   45.709768724   13.763528687   323.5257   5   9   3.2471   1.7694   4.5067   1.3253   0.7952   1.0209   0.00    0.0
2017/09/08 00:22:00.000   45.709769674   13.763524167   323.3275   5   9   3.2507   1.7690   4.5114   1.3258   0.8011   1.0517   0.00    0.0
2017/09/08 00:22:30.000   45.709767391   13.763521923   323.5735   5   9   3.2543   1.7687   4.5161   1.3262   0.8067   1.0814   0.00    0.0
2017/09/08 00:23:00.000   45.709772785   13.763523845   323.6587   5   9   3.2579   1.7683   4.5208   1.3266   0.8122   1.1102   0.00    0.0
2017/09/08 00:23:30.000   45.709769437   13.763525291   323.4336   5   9   3.2615   1.7680   4.5254   1.3270   0.8176   1.1380   0.00    0.0
2017/09/08 00:24:00.000   45.709771233   13.763527467   323.3772   5   9   3.2651   1.7677   4.5300   1.3274   0.8228   1.1651   0.00    0.0
2017/09/08 00:24:30.000   45.709770080   13.763525939   323.5029   5   9   3.2687   1.7675   4.5346   1.3278   0.8278   1.1913   0.00    0.0
2017/09/08 00:25:00.000   45.709770360   13.763525373   322.3433   5   9   3.2724   1.7672   4.5391   1.3281   0.8327   1.2168   0.00    0.0
2017/09/08 00:25:30.000   45.709768427   13.763524966   322.3737   5   9   3.2760   1.7670   4.5435   1.3284   0.8374   1.2415   0.00    0.0
2017/09/08 00:26:00.000   45.709764197   13.763529636   323.4553   5   9   3.2797   1.7668   4.5479   1.3286   0.8419   1.2655   0.00    0.0
2017/09/08 00:26:30.000   45.709763220   13.763528958   324.0774   5   9   3.2833   1.7666   4.5523   1.3289   0.8463   1.2889   0.00    0.0
2017/09/08 00:27:00.000   45.709763575   13.763522119   322.5232   5   9   3.2869   1.7665   4.5565   1.3291   0.8505   1.3117   0.00    0.0
2017/09/08 00:27:30.000   45.709763703   13.763522739   323.8071   5   9   3.2905   1.7663   4.5608   1.3292   0.8545   1.3338   0.00    0.0
2017/09/08 00:28:00.000   45.709762699   13.763525126   324.5565   5   9   3.2941   1.7662   4.5649   1.3293   0.8584   1.3553   0.00    0.0
2017/09/08 00:28:30.000   45.709765004   13.763521379   323.5777   5   9   3.2976   1.7661   4.5690   1.3294   0.8621   1.3762   0.00    0.0
2017/09/08 00:29:00.000   45.709764557   13.763526236   322.7085   5   9   3.3011   1.7661   4.5730   1.3294   0.8656   1.3965   0.00    0.0
2017/09/08 00:29:30.000   45.709767959   13.763523215   323.1326   5   9   3.3046   1.7660   4.5770   1.3293   0.8690   1.4163   0.00    0.0
2017/09/08 00:30:00.000   45.709764265   13.763525057   324.1292   5   9   3.3080   1.7660   4.5808   1.3292   0.8722   1.4355   0.00    0.0
2017/09/08 00:30:30.000   45.709764492   13.763528195   323.8132   5   9   3.3114   1.7660   4.5846   1.3291   0.8752   1.4542   0.00    0.0
2017/09/08 00:31:00.000   45.709763617   13.763523952   322.3569   5   9   3.3147   1.7660   4.5883   1.3289   0.8780   1.4724   0.00    0.0
2017/09/08 00:31:30.000   45.709765513   13.763519149   322.6293   5   9   3.3180   1.7660   4.5919   1.3286   0.8807   1.4900   0.00    0.0
2017/09/08 00:32:00.000   45.709769207   13.763526213   324.1150   5   9   3.3212   1.7661   4.5954   1.3282   0.8832   1.5071   0.00    0.0
2017/09/08 00:32:30.000   45.709762493   13.763519645   322.9997   5   9   3.3243   1.7661   4.5988   1.3278   0.8855   1.5237   0.00    0.0
2017/09/08 00:33:00.000   45.709767652   13.763521471   322.9107   5   9   3.3274   1.7662   4.6021   1.3274   0.8876   1.5398   0.00    0.0
2017/09/08 00:33:30.000   45.709764561   13.763521646   323.2420   5   9   3.3304   1.7663   4.6053   1.3268   0.8895   1.5554   0.00    0.0
2017/09/08 00:34:00.000   45.709763960   13.763519719   323.3308   5   9   3.3333   1.7665   4.6084   1.3262   0.8912   1.5705   0.00    0.0
2017/09/08 00:34:30.000   45.709755218   13.763514334   324.6178   5   8   3.4713   2.1226   5.1321   1.6987  -1.3613   0.5933   0.00    0.0
2017/09/08 00:35:00.000   45.709751578   13.763514725   325.0107   5   8   3.4696   2.1201   5.1437   1.6912  -1.3653   0.6435   0.00    0.0
2017/09/08 00:35:30.000   45.709757551   13.763514698   324.8052   5   8   3.4678   2.1177   5.1552   1.6836  -1.3693   0.6897   0.00    0.0
2017/09/08 00:36:00.000   45.709769190   13.763519114   324.1413   5   8   3.4659   2.1152   5.1667   1.6760  -1.3734   0.7328   0.00    0.0
2017/09/08 00:36:30.000   45.709767565   13.763515547   324.1360   5   8   3.4641   2.1129   5.1781   1.6683  -1.3775   0.7733   0.00    0.0
2017/09/08 00:37:00.000   45.709761325   13.763515542   324.0968   5   8   3.4621   2.1106   5.1895   1.6605  -1.3817   0.8115   0.00    0.0
2017/09/08 00:37:30.000   45.709768144   13.763522610   324.5516   5   8   3.4602   2.1083   5.2007   1.6526  -1.3860   0.8478   0.00    0.0
2017/09/08 00:38:00.000   45.709755198   13.763513506   325.0956   5   8   3.4582   2.1060   5.2119   1.6447  -1.3903   0.8822   0.00    0.0
2017/09/08 00:38:30.000   45.709763629   13.763519320   324.5647   5   8   3.4561   2.1038   5.2230   1.6367  -1.3946   0.9151   0.00    0.0
2017/09/08 00:39:00.000   45.709754079   13.763514072   324.7920   5   8   3.4541   2.1016   5.2340   1.6286  -1.3990   0.9466   0.00    0.0
2017/09/08 00:39:30.000   45.709758763   13.763517839   323.7636   5   8   3.4519   2.0995   5.2449   1.6205  -1.4034   0.9767   0.00    0.0
2017/09/08 00:40:00.000   45.709763277   13.763517461   324.9588   5   8   3.4497   2.0974   5.2557   1.6122  -1.4079   1.0057   0.00    0.0
2017/09/08 00:40:30.000   45.709754430   13.763520249   324.6911   5   8   3.4475   2.0953   5.2663   1.6039  -1.4124   1.0335   0.00    0.0
2017/09/08 00:41:00.000   45.709755345   13.763519261   324.5952   5   8   3.4452   2.0933   5.2769   1.5956  -1.4170   1.0602   0.00    0.0
2017/09/08 00:41:30.000   45.709764767   13.763517090   324.5124   5   8   3.4428   2.0914   5.2873   1.5871  -1.4216   1.0860   0.00    0.0
2017/09/08 00:42:00.000   45.709765063   13.763517559   324.2030   5   8   3.4404   2.0894   5.2976   1.5786  -1.4262   1.1108   0.00    0.0
2017/09/08 00:42:30.000   45.709757082   13.763515964   324.1061   5   8   3.4379   2.0875   5.3077   1.5700  -1.4308   1.1348   0.00    0.0
2017/09/08 00:43:00.000   45.709764723   13.763515004   324.1349   5   8   3.4354   2.0857   5.3177   1.5613  -1.4355   1.1579   0.00    0.0
2017/09/08 00:43:30.000   45.709761948   13.763518865   323.7194   5   8   3.4328   2.0839   5.3276   1.5526  -1.4402   1.1801   0.00    0.0
2017/09/08 00:44:00.000   45.709761625   13.763516653   323.9595   5   8   3.4301   2.0821   5.3372   1.5437  -1.4449   1.2016   0.00    0.0
2017/09/08 00:44:30.000   45.709761837   13.763513927   324.9942   5   8   3.4274   2.0804   5.3468   1.5348  -1.4496   1.2224   0.00    0.0
2017/09/08 00:45:00.000   45.709758785   13.763515016   325.1203   5   8   3.4246   2.0787   5.3561   1.5259  -1.4544   1.2423   0.00    0.0
2017/09/08 00:45:30.000   45.709756295   13.763519722   324.6520   5   8   3.4217   2.0770   5.3652   1.5168  -1.4591   1.2616   0.00    0.0
2017/09/08 00:46:00.000   45.709759894   13.763515290   324.7533   5   8   3.4188   2.0754   5.3742   1.5077  -1.4639   1.2802   0.00    0.0
2017/09/08 00:46:30.000   45.709758783   13.763516600   325.1063   5   8   3.4158   2.0738   5.3830   1.4985  -1.4686   1.2981   0.00    0.0
2017/09/08 00:47:00.000   45.709758939   13.763519911   324.1820   5   8   3.4127   2.0723   5.3915   1.4893  -1.4734   1.3154   0.00    0.0
2017/09/08 00:47:30.000   45.709754287   13.763513796   323.3105   5   8   3.4096   2.0708   5.3999   1.4800  -1.4781   1.3320   0.00    0.0
2017/09/08 00:48:00.000   45.709755527   13.763515936   323.9050   5   8   3.4063   2.0694   5.4080   1.4706  -1.4829   1.3480   0.00    0.0
2017/09/08 00:48:30.000   45.709759529   13.763516557   324.1639   5   8   3.4030   2.0680   5.4160   1.4611  -1.4876   1.3633   0.00    0.0
2017/09/08 00:49:00.000   45.709766516   13.763515230   323.7325   5   8   3.3996   2.0667   5.4237   1.4516  -1.4923   1.3780   0.00    0.0
2017/09/08 00:49:30.000   45.709762568   13.763518551   324.3001   5   8   3.3962   2.0653   5.4312   1.4420  -1.4970   1.3922   0.00    0.0
2017/09/08 00:50:00.000   45.709752896   13.763515503   323.8178   5   9   2.9103   1.9944   4.9847   1.0603  -1.8470  -1.3475   0.00    0.0
2017/09/08 00:50:30.000   45.709756969   13.763515763   324.3576   5   9   2.9078   1.9934   4.9938   1.0487  -1.8496  -1.3293   0.00    0.0
2017/09/08 00:51:00.000   45.709758695   13.763515190   324.5340   5   9   2.9053   1.9925   5.0030   1.0371  -1.8522  -1.3107   0.00    0.0
2017/09/08 00:51:30.000   45.709754849   13.763520487   323.7614   5   9   2.9028   1.9916   5.0120   1.0253  -1.8547  -1.2919   0.00    0.0
2017/09/08 00:52:00.000   45.709751863   13.763519121   324.5864   5   9   2.9004   1.9907   5.0211   1.0134  -1.8571  -1.2728   0.00    0.0
2017/09/08 00:52:30.000   45.709749892   13.763518389   324.9121   5   9   2.8980   1.9899   5.0300   1.0014  -1.8594  -1.2534   0.00    0.0
2017/09/08 00:53:00.000   45.709754524   13.763519027   323.9459   5   9   2.8957   1.9890   5.0389   0.9893  -1.8617  -1.2336   0.00    0.0
2017/09/08 00:53:30.000   45.709759916   13.763518580   324.0658   5   9   2.8934   1.9883   5.0477   0.9770  -1.8639  -1.2136   0.00    0.0
2017/09/08 00:54:00.000   45.709753132   13.763520963   323.8822   5   9   2.8912   1.9875   5.0565   0.9646  -1.8660  -1.1932   0.00    0.0
2017/09/08 00:54:30.000   45.709756043   13.763519567   323.6341   5   9   2.8890   1.9868   5.0651   0.9521  -1.8681  -1.1724   0.00    0.0
2017/09/08 00:55:00.000   45.709747860   13.763520414   322.5627   5   9   2.8869   1.9860   5.0737   0.9395  -1.8700  -1.1513   0.00    0.0
2017/09/08 00:55:30.000   45.709754737   13.763519789   323.5610   5   9   2.8848   1.9854   5.0822   0.9267  -1.8719  -1.1299   0.00    0.0
2017/09/08 00:56:00.000   45.709748832   13.763517179   323.9250   5   9   2.8828   1.9847   5.0906   0.9137  -1.8737  -1.1081   0.00    0.0
2017/09/08 00:56:30.000   45.709756001   13.763517071   323.5425   5   9   2.8808   1.9841   5.0988   0.9006  -1.8754  -1.0859   0.00    0.0
2017/09/08 00:57:00.000   45.709756171   13.763522766   323.8267   5   9   2.8788   1.9835   5.1070   0.8874  -1.8770  -1.0633   0.00    0.0
2017/09/08 00:57:30.000   45.709751872   13.763521466   323.9080   5   9   2.8769   1.9829   5.1151   0.8740  -1.8785  -1.0404   0.00    0.0
2017/09/08 00:58:00.000   45.709760713   13.763520781   323.7636   5   9   2.8750   1.9823   5.1230   0.8604  -1.8800  -1.0170   0.00    0.0
2017/09/08 00:58:30.000   45.709757328   13.763521499   323.9448   5   9   2.8731   1.9818   5.1308   0.8467  -1.8813  -0.9932   0.00    0.0
2017/09/08 00:59:00.000   45.709758804   13.763518216   323.8799   5   9   2.8713   1.9813   5.1385   0.8328  -1.8825  -0.9689   0.00    0.0
2017/09/08 00:59:30.000   45.709753968   13.763518876   324.2118   5   9   2.8696   1.9808   5.1460   0.8186  -1.8836  -0.9441   0.00    0.0
2017/09/08 01:00:00.000   45.709765477   13.763521115   323.7635   5   9   2.5118   1.7444   4.9293  -0.3358  -1.4681   0.7674   0.00    0.0
2017/09/08 01:00:30.000   45.709767376   13.763522223   323.5875   5   9   2.5130   1.7445   4.9346  -0.3594  -1.4681   0.8041   0.00    0.0
2017/09/08 01:01:00.000   45.709766610   13.763520697   323.8867   5   9   2.5142   1.7447   4.9398  -0.3816  -1.4681   0.8390   0.00    0.0
2017/09/08 01:01:30.000   45.709767461   13.763517101   323.4005   5   9   2.5155   1.7449   4.9448  -0.4024  -1.4679   0.8721   0.00    0.0
2017/09/08 01:02:00.000   45.709766370   13.763515830   322.5272   5   8   2.7739   1.8031   5.5978   0.5926  -0.9836   1.9661   0.00    0.0
2017/09/08 01:02:30.000   45.709770078   13.763521732   323.6959   5   8   2.7793   1.8020   5.6223   0.5770  -0.9804   1.9993   0.00    0.0
2017/09/08 01:03:00.000   45.709769607   13.763521001   323.3688   5   8   2.7847   1.8009   5.6469   0.5611  -0.9773   2.0321   0.00    0.0
2017/09/08 01:03:30.000   45.709762940   13.763520075   323.5977   5   8   2.7903   1.7999   5.6715   0.5447  -0.9743   2.0645   0.00    0.0
2017/09/08 01:04:00.000   45.709764910   13.763512336   322.8600   5   8   2.7960   1.7989   5.6961   0.5280  -0.9714   2.0964   0.00    0.0
2017/09/08 01:04:30.000   45.709762026   13.763518274   323.8485   5   8   2.8019   1.7980   5.7207   0.5107  -0.9685   2.1280   0.00    0.0
2017/09/08 01:05:00.000   45.709763438   13.763518606   322.2140   5   8   2.8078   1.7971   5.7453   0.4929  -0.9656   2.1590   0.00    0.0
2017/09/08 01:05:30.000   45.709754629   13.763521685   322.4346   5   8   2.8138   1.7963   5.7698   0.4744  -0.9629   2.1897   0.00    0.0
2017/09/08 01:06:00.000   45.709760333   13.763522601   322.4084   5   8   2.8199   1.7955   5.7942   0.4553  -0.9601   2.2199   0.00    0.0
2017/09/08 01:06:30.000   45.709763659   13.763522658   322.4096   5   8   2.8261   1.7948   5.8184   0.4354  -0.9575   2.2496   0.00    0.0
2017/09/08 01:07:00.000   45.709760464   13.763522665   322.9541   5   8   2.8323   1.7941   5.8426   0.4146  -0.9549   2.2788   0.00    0.0
2017/09/08 01:07:30.000   45.709759269   13.763522002   322.3954   5   8   2.8386   1.7935   5.8665   0.3928  -0.9523   2.3076   0.00    0.0
2017/09/08 01:08:00.000   45.709757681   13.763521939   322.4458   5   8   2.8449   1.7929   5.8903   0.3698  -0.9498   2.3359   0.00    0.0
2017/09/08 01:08:30.000   45.709760779   13.763517691   323.0953   5   8   2.8513   1.7923   5.9138   0.3453  -0.9473   2.3637   0.00    0.0
2017/09/08 01:09:00.000   45.709757195   13.763518336   321.8372   5   8   2.8577   1.7919   5.9371   0.3191  -0.9448   2.3910   0.00    0.0
2017/09/08 01:09:30.000   45.709761659   13.763525055   323.3255   5   8   2.8641   1.7914   5.9600   0.2905  -0.9424   2.4177   0.00    0.0
2017/09/08 01:10:00.000   45.709760075   13.763522040   322.0164   5   8   2.8705   1.7911   5.9826   0.2590  -0.9400   2.4439   0.00    0.0
2017/09/08 01:10:30.000   45.709756782   13.763519071   321.6708   5   8   2.8769   1.7907   6.0049   0.2231  -0.9376   2.4695   0.00    0.0
2017/09/08 01:11:00.000   45.709759838   13.763523574   323.2415   5   8   2.8833   1.7905   6.0268   0.1804  -0.9352   2.4946   0.00    0.0
2017/09/08 01:11:30.000   45.709760937   13.763521434   323.1324   5   8   2.8897   1.7902   6.0482   0.1241  -0.9328   2.5190   0.00    0.0
2017/09/08 01:12:00.000   45.709759653   13.763524121   322.4202   5   8   2.8960   1.7901   6.0692  -0.0415  -0.9305   2.5429   0.00    0.0
2017/09/08 01:12:30.000   45.709757432   13.763520574   320.6288   5   8   2.9022   1.7899   6.0897  -0.1370  -0.9281   2.5661   0.00    0.0
2017/09/08 01:13:00.000   45.709761700   13.763520312   322.6265   5   8   2.9084   1.7898   6.1097  -0.1891  -0.9257   2.5886   0.00    0.0
2017/09/08 01:13:30.000   45.709760408   13.763517468   321.7506   5   8   2.9145   1.7898   6.1291  -0.2295  -0.9232   2.6105   0.00    0.0
2017/09/08 01:14:00.000   45.709765452   13.763517440   322.8200   5   8   2.9204   1.7898   6.1479  -0.2637  -0.9208   2.6316   0.00    0.0
2017/09/08 01:14:30.000   45.709755804   13.763511939   320.9505   5   8   2.9263   1.7899   6.1661  -0.2938  -0.9183   2.6521   0.00    0.0
2017/09/08 01:15:00.000   45.709758622   13.763511824   322.1084   5   8   2.9321   1.7900   6.1836  -0.3210  -0.9157   2.6718   0.00    0.0
2017/09/08 01:15:30.000   45.709761178   13.763513098   322.5341   5   8   2.9377   1.7902   6.2004  -0.3460  -0.9131   2.6908   0.00    0.0
2017/09/08 01:16:00.000   45.709762770   13.763517995   321.6211   5   8   2.9432   1.7904   6.2164  -0.3691  -0.9105   2.7090   0.00    0.0
2017/09/08 01:16:30.000   45.709758863   13.763517960   321.6794   5   8   2.9485   1.7906   6.2318  -0.3908  -0.9077   2.7264   0.00    0.0
2017/09/08 01:17:00.000   45.709763958   13.763521920   322.4592   5   8   2.9536   1.7910   6.2463  -0.4113  -0.9049   2.7430   0.00    0.0
2017/09/08 01:17:30.000   45.709764762   13.763515331   322.1340   5   8   2.9586   1.7913   6.2600  -0.4307  -0.9020   2.7587   0.00    0.0
2017/09/08 01:18:00.000   45.709765192   13.763517280   322.4150   5   8   2.9634   1.7917   6.2728  -0.4491  -0.8991   2.7736   0.00    0.0
2017/09/08 01:18:30.000   45.709762259   13.763516838   322.3086   5   8   2.9679   1.7922   6.2847  -0.4668  -0.8960   2.7876   0.00    0.0
2017/09/08 01:19:00.000   45.709760032   13.763517174   322.1046   5   8   2.9722   1.7927   6.2958  -0.4837  -0.8927   2.8008   0.00    0.0
2017/09/08 01:19:30.000   45.709756553   13.763519649   320.8451   5   8   2.9763   1.7932   6.3059  -0.4999  -0.8894   2.8130   0.00    0.0
2017/09/08 01:20:00.000   45.709763159   13.763521480   322.7902   5   8   2.9802   1.7938   6.3150  -0.5155  -0.8859   2.8243   0.00    0.0
2017/09/08 01:20:30.000   45.709761262   13.763515849   321.0948   5   8   2.9838   1.7945   6.3232  -0.5306  -0.8823   2.8347   0.00    0.0
2017/09/08 01:21:00.000   45.709752698   13.763517728   321.0170   5   8   2.9872   1.7952   6.3304  -0.5452  -0.8786   2.8442   0.00    0.0
2017/09/08 01:21:30.000   45.709757899   13.763517829   320.7250   5   8   2.9902   1.7960   6.3365  -0.5593  -0.8747   2.8526   0.00    0.0
2017/09/08 01:22:00.000   45.709757745   13.763520500   321.6739   5   8   2.9930   1.7968   6.3417  -0.5729  -0.8706   2.8602   0.00    0.0
2017/09/08 01:22:30.000   45.709758701   13.763519364   321.1491   5   8   2.9956   1.7976   6.3457  -0.5861  -0.8664   2.8667   0.00    0.0
2017/09/08 01:23:00.000   45.709755638   13.763518621   320.4807   5   8   2.9978   1.7985   6.3488  -0.5990  -0.8619   2.8722   0.00    0.0
2017/09/08 01:23:30.000   45.709759005   13.763521386   319.8321   5   8   2.9998   1.7994   6.3507  -0.6115  -0.8573   2.8768   0.00    0.0
2017/09/08 01:24:00.000   45.709755125   13.763521793   319.6133   5   8   3.0014   1.8004   6.3516  -0.6237  -0.8525   2.8804   0.00    0.0
2017/09/08 01:24:30.000   45.709757532   13.763518165   321.7510   5   8   3.0027   1.8015   6.3514  -0.6355  -0.8474   2.8829   0.00    0.0
2017/09/08 01:25:00.000   45.709760479   13.763520490   321.5805   5   8   3.0038   1.8026   6.3501  -0.6470  -0.8422   2.8845   0.00    0.0
2017/09/08 01:25:30.000   45.709753568   13.763515715   320.4088   5   8   3.0045   1.8037   6.3478  -0.6583  -0.8367   2.8850   0.00    0.0
2017/09/08 01:26:00.000   45.709755124   13.763524004   322.1068   5   8   3.0049   1.8049   6.3444  -0.6693  -0.8310   2.8846   0.00    0.0
2017/09/08 01:26:30.000   45.709759048   13.763523577   321.8289   5   8   3.0051   1.8062   6.3399  -0.6800  -0.8251   2.8831   0.00    0.0
2017/09/08 01:27:00.000   45.709755368   13.763519230   320.7448   5   8   3.0049   1.8075   6.3344  -0.6905  -0.8189   2.8807   0.00    0.0
2017/09/08 01:27:30.000   45.709752464   13.763521296   320.6711   5   8   3.0044   1.8088   6.3278  -0.7007  -0.8124   2.8772   0.00    0.0
2017/09/08 01:28:00.000   45.709755265   13.763517460   319.9074   5   8   3.0036   1.8102   6.3201  -0.7107  -0.8057   2.8728   0.00    0.0
2017/09/08 01:28:30.000   45.709758827   13.763518225   320.5639   5   8   3.0025   1.8116   6.3115  -0.7205  -0.7988   2.8674   0.00    0.0
2017/09/08 01:29:00.000   45.709754540   13.763518246   320.2183   5   8   3.0011   1.8131   6.3018  -0.7301  -0.7915   2.8610   0.00    0.0
2017/09/08 01:29:30.000   45.709759299   13.763520752   322.3206   5   8   2.9994   1.8147   6.2912  -0.7395  -0.7840   2.8537   0.00    0.0
2017/09/08 01:30:00.000   45.709755617   13.763519702   321.2507   5   8   2.9974   1.8163   6.2796  -0.7487  -0.7762   2.8454   0.00    0.0
2017/09/08 01:30:30.000   45.709756501   13.763519947   321.5333   5   8   2.9952   1.8179   6.2671  -0.7578  -0.7681   2.8362   0.00    0.0
2017/09/08 01:31:00.000   45.709759128   13.763519224   321.5100   5   8   2.9927   1.8196   6.2537  -0.7666  -0.7597   2.8261   0.00    0.0
2017/09/08 01:31:30.000   45.709757876   13.763520867   322.1879   5   8   2.9899   1.8214   6.2394  -0.7754  -0.7510   2.8150   0.00    0.0
2017/09/08 01:32:00.000   45.709758487   13.763520659   320.9504   5   8   2.9868   1.8232   6.2242  -0.7839  -0.7419   2.8031   0.00    0.0
2017/09/08 01:32:30.000   45.709760167   13.763522803   321.1033   5   8   2.9836   1.8251   6.2082  -0.7924  -0.7326   2.7903   0.00    0.0
2017/09/08 01:33:00.000   45.709757794   13.763517375   320.0574   5   8   2.9800   1.8270   6.1915  -0.8006  -0.7229   2.7767   0.00    0.0
2017/09/08 01:33:30.000   45.709756953   13.763521935   321.5952   5   8   2.9763   1.8289   6.1739  -0.8088  -0.7128   2.7622   0.00    0.0
2017/09/08 01:34:00.000   45.709758394   13.763523171   320.7064   5   8   2.9723   1.8310   6.1557  -0.8168  -0.7024   2.7469   0.00    0.0
2017/09/08 01:34:30.000   45.709757782   13.763519990   320.2915   5   7   3.2106   2.0736   7.4030   0.7117  -2.1196   1.5457   0.00    0.0
2017/09/08 01:35:00.000   45.709759376   13.763518192   322.2504   5   7   3.2024   2.0735   7.3999   0.6912  -2.1173   1.5214   0.00    0.0
2017/09/08 01:35:30.000   45.709756722   13.763521754   321.3911   5   7   3.1942   2.0735   7.3957   0.6704  -2.1144   1.4957   0.00    0.0
2017/09/08 01:36:00.000   45.709758398   13.763518587   321.5276   5   7   3.1859   2.0735   7.3903   0.6493  -2.1110   1.4686   0.00    0.0
2017/09/08 01:36:30.000   45.709757656   13.763519446   321.5157   5   7   3.1777   2.0735   7.3838   0.6278  -2.1072   1.4400   0.00    0.0
2017/09/08 01:37:00.000   45.709762604   13.763521066   321.2007   5   7   3.1696   2.0735   7.3762   0.6059  -2.1029   1.4099   0.00    0.0
2017/09/08 01:37:30.000   45.709761096   13.763521066   319.9379   5   7   3.1614   2.0736   7.3675   0.5835  -2.0981   1.3782   0.00    0.0
2017/09/08 01:38:00.000   45.709757207   13.763518463   320.3299   5   7   3.1533   2.0737   7.3577   0.5606  -2.0928   1.3449   0.00    0.0
2017/09/08 01:38:30.000   45.709755236   13.763517698   321.4315   5   7   3.1453   2.0738   7.3469   0.5371  -2.0870   1.3100   0.00    0.0
2017/09/08 01:39:00.000   45.709757648   13.763517477   322.0870   5   7   3.1372   2.0740   7.3351   0.5128  -2.0808   1.2733   0.00    0.0
2017/09/08 01:39:30.000   45.709753449   13.763524083   321.8111   5   7   3.1293   2.0742   7.3222   0.4876  -2.0741   1.2348   0.00    0.0
2017/09/08 01:40:00.000   45.709756461   13.763522924   322.5138   5   7   3.1214   2.0745   7.3085   0.4615  -2.0669   1.1943   0.00    0.0
2017/09/08 01:40:30.000   45.709761884   13.763523067   321.1159   5   7   3.1136   2.0747   7.2937   0.4341  -2.0592   1.1517   0.00    0.0
2017/09/08 01:41:00.000   45.709756454   13.763524058   321.8828   5   7   3.1058   2.0751   7.2781   0.4051  -2.0511   1.1068   0.00    0.0
2017/09/08 01:41:30.000   45.709762485   13.763522500   320.4192   5   7   3.0981   2.0754   7.2616   0.3743  -2.0426   1.0595   0.00    0.0
2017/09/08 01:42:00.000   45.709759054   13.763521982   321.8828   5   7   3.0905   2.0758   7.2443   0.3411  -2.0336   1.0094   0.00    0.0
2017/09/08 01:42:30.000   45.709762181   13.763519450   319.5964   5   7   3.0830   2.0763   7.2262   0.3046  -2.0241   0.9562   0.00    0.0
2017/09/08 01:43:00.000   45.709759065   13.763524816   319.6448   5   7   3.0756   2.0767   7.2072   0.2635  -2.0142   0.8995   0.00    0.0
2017/09/08 01:43:30.000   45.709755868   13.763522876   321.1035   5   7   3.0682   2.0773   7.1876   0.2151  -2.0039   0.8385   0.00    0.0
2017/09/08 01:44:00.000   45.709760245   13.763517200   320.9133   5   7   3.0610   2.0778   7.1672   0.1524  -1.9931   0.7724   0.00    0.0
2017/09/08 01:44:30.000   45.709761701   13.763515862   319.4756   5   7   3.0539   2.0784   7.1461   0.0191  -1.9820   0.6998   0.00    0.0
2017/09/08 01:45:00.000   45.709759850   13.763521578   321.7151   5   7   3.0469   2.0791   7.1244  -0.1496  -1.9704   0.6185   0.00    0.0
2017/09/08 01:45:30.000   45.709762336   13.763517009   320.9535   5   7   3.0400   2.0798   7.1021  -0.2122  -1.9584   0.5247   0.00    0.0
2017/09/08 01:46:00.000   45.709759526   13.763520947   320.4971   5   7   3.0332   2.0806   7.0792  -0.2600  -1.9460   0.4098   0.00    0.0
2017/09/08 01:46:30.000   45.709760603   13.763518797   320.7310   5   7   3.0265   2.0814   7.0557  -0.3002  -1.9332   0.2466   0.00    0.0
2017/09/08 01:47:00.000   45.709762191   13.763517552   321.4453   5   7   3.0200   2.0823   7.0317  -0.3355  -1.9201  -0.2149   0.00    0.0
2017/09/08 01:47:30.000   45.709761452   13.763521610   320.9910   5   7   3.0135   2.0832   7.0073  -0.3674  -1.9065  -0.3910   0.00    0.0
2017/09/08 01:48:00.000   45.709756682   13.763522594   320.5124   5   7   3.0072   2.0842   6.9824  -0.3967  -1.8926  -0.5090   0.00    0.0
2017/09/08 01:48:30.000   45.709757306   13.763516773   320.2220   5   6   3.7591   2.7549  14.1666  -2.0628   4.3230  -5.3198   0.00    0.0
2017/09/08 01:49:00.000   45.709763523   13.763515237   318.6081   5   6   3.7686   2.7768  14.1886  -2.0961   4.3832  -5.3656   0.00    0.0
2017/09/08 01:49:30.000   45.709763867   13.763516034   319.3767   5   6   3.7784   2.7992  14.2070  -2.1295   4.4424  -5.4104   0.00    0.0
2017/09/08 01:50:00.000   45.709765637   13.763517654   318.8903   5   6   3.7886   2.8219  14.2218  -2.1628   4.5007  -5.4541   0.00    0.0
2017/09/08 01:50:30.000   45.709761855   13.763521459   320.7248   5   6   3.7989   2.8451  14.2332  -2.1962   4.5581  -5.4966   0.00    0.0
2017/09/08 01:51:00.000   45.709761158   13.763520234   320.0899   5   6   3.8095   2.8687  14.2411  -2.2295   4.6144  -5.5381   0.00    0.0
2017/09/08 01:51:30.000   45.709761342   13.763515542   318.7783   5   6   3.8203   2.8926  14.2456  -2.2628   4.6698  -5.5783   0.00    0.0
2017/09/08 01:52:00.000   45.709761581   13.763516607   319.6201   5   6   3.8313   2.9169  14.2468  -2.2961   4.7242  -5.6174   0.00    0.0
2017/09/08 01:52:30.000   45.709763197   13.763512492   317.6871   5   6   3.8424   2.9415  14.2446  -2.3292   4.7775  -5.6553   0.00    0.0
2017/09/08 01:53:00.000   45.709763516   13.763513828   320.3893   5   6   3.8537   2.9664  14.2392  -2.3623   4.8297  -5.6919   0.00    0.0
2017/09/08 01:53:30.000   45.709762525   13.763512352   318.3301   5   6   3.8651   2.9917  14.2305  -2.3953   4.8809  -5.7273   0.00    0.0
2017/09/08 01:54:00.000   45.709761541   13.763514861   318.8042   5   6   3.8766   3.0173  14.2188  -2.4281   4.9310  -5.7614   0.00    0.0
2017/09/08 01:54:30.000   45.709766519   13.763512317   318.4007   5   6   3.8882   3.0431  14.2041  -2.4609   4.9799  -5.7942   0.00    0.0
2017/09/08 01:55:00.000   45.709760248   13.763520345   321.0592   5   6   3.8998   3.0693  14.1864  -2.4934   5.0278  -5.8258   0.00    0.0
2017/09/08 01:55:30.000   45.709771507   13.763504844   317.4895   5   6   3.9115   3.0956  14.1659  -2.5259   5.0746  -5.8561   0.00    0.0
2017/09/08 01:56:00.000   45.709765401   13.763516325   319.6369   5   6   3.9232   3.1222  14.1425  -2.5581   5.1202  -5.8852   0.00    0.0
2017/09/08 01:56:30.000   45.709767446   13.763513414   320.0621   5   6   3.9350   3.1491  14.1166  -2.5902   5.1647  -5.9129   0.00    0.0
2017/09/08 01:57:00.000   45.709767029   13.763511296   316.3240   5   6   3.9467   3.1761  14.0880  -2.6220   5.2082  -5.9395   0.00    0.0
2017/09/08 01:57:30.000   45.709762591   13.763516643   319.4955   5   6   3.9584   3.2034  14.0570  -2.6537   5.2505  -5.9647   0.00    0.0
2017/09/08 01:58:00.000   45.709764089   13.763514966   318.5726   5   6   3.9701   3.2308  14.0235  -2.6852   5.2917  -5.9888   0.00    0.0
2017/09/08 01:58:30.000   45.709768917   13.763515218   318.5290   5   6   3.9817   3.2585  13.9878  -2.7164   5.3318  -6.0116   0.00    0.0
2017/09/08 01:59:00.000   45.709766042   13.763509638   318.1736   5   6   3.9933   3.2862  13.9499  -2.7474   5.3709  -6.0332   0.00    0.0
2017/09/08 01:59:30.000   45.709763966   13.763515554   319.6957   5   6   4.0048   3.3141  13.9099  -2.7781   5.4089  -6.0536   0.00    0.0
2017/09/08 02:00:00.000   45.709767773   13.763512930   319.2018   5   6   4.0161   3.3422  13.8679  -2.8086   5.4458  -6.0728   0.00    0.0
2017/09/08 02:00:30.000   45.709767508   13.763508400   318.1119   5   6   4.0274   3.3704  13.8240  -2.8389   5.4817  -6.0909   0.00    0.0
2017/09/08 02:01:00.000   45.709764094   13.763514013   319.9937   5   6   4.0386   3.3987  13.7783  -2.8689   5.5166  -6.1078   0.00    0.0
2017/09/08 02:01:30.000   45.709768833   13.763508737   317.6216   5   6   4.0497   3.4271  13.7309  -2.8986   5.5504  -6.1236   0.00    0.0
2017/09/08 02:02:00.000   45.709765652   13.763512558   318.9065   5   6   4.0606   3.4556  13.6819  -2.9281   5.5832  -6.1384   0.00    0.0
2017/09/08 02:02:30.000   45.709758878   13.763515068   320.9695   5   6   4.0714   3.4842  13.6314  -2.9573   5.6151  -6.1520   0.00    0.0
2017/09/08 02:03:00.000   45.709774867   13.763505068   316.9174   5   6   4.0821   3.5128  13.5794  -2.9862   5.6460  -6.1646   0.00    0.0
2017/09/08 02:03:30.000   45.709765808   13.763511380   319.1717   5   6   4.0926   3.5415  13.5261  -3.0148   5.6759  -6.1762   0.00    0.0
2017/09/08 02:04:00.000   45.709766758   13.763512927   319.5550   5   6   4.1029   3.5703  13.4715  -3.0431   5.7049  -6.1868   0.00    0.0
2017/09/08 02:04:30.000   45.709769367   13.763503585   318.6115   5   6   4.1131   3.5991  13.4157  -3.0712   5.7330  -6.1964   0.00    0.0
2017/09/08 02:05:00.000   45.709769180   13.763513160   318.1291   5   6   4.1231   3.6280  13.3589  -3.0990   5.7602  -6.2051   0.00    0.0
2017/09/08 02:05:30.000   45.709769328   13.763511488   319.6461   5   6   4.1329   3.6569  13.3010  -3.1265   5.7865  -6.2128   0.00    0.0
2017/09/08 02:06:00.000   45.709774233   13.763508120   318.9293   5   6   4.1425   3.6859  13.2421  -3.1537   5.8120  -6.2196   0.00    0.0
2017/09/08 02:06:30.000   45.709771994   13.763510452   319.4418   5   6   4.1520   3.7148  13.1823  -3.1806   5.8366  -6.2256   0.00    0.0
2017/09/08 02:07:00.000   45.709770152   13.763505903   319.9432   5   6   4.1613   3.7438  13.1217  -3.2072   5.8603  -6.2307   0.00    0.0
2017/09/08 02:07:30.000   45.709770796   13.763510253   319.7720   5   6   4.1703   3.7728  13.0604  -3.2335   5.8833  -6.2349   0.00    0.0
2017/09/08 02:08:00.000   45.709768413   13.763509093   320.2561   5   6   4.1792   3.8017  12.9984  -3.2595   5.9055  -6.2383   0.00    0.0
2017/09/08 02:08:30.000   45.709772283   13.763502468   318.3156   5   6   4.1879   3.8307  12.9357  -3.2852   5.9269  -6.2409   0.00    0.0
2017/09/08 02:09:00.000   45.709772398   13.763504547   316.9079   5   6   4.1964   3.8597  12.8724  -3.3106   5.9475  -6.2428   0.00    0.0
2017/09/08 02:09:30.000   45.709765031   13.763513680   320.2498   5   6   4.2046   3.8886  12.8086  -3.3357   5.9674  -6.2439   0.00    0.0
2017/09/08 02:10:00.000   45.709766943   13.763508178   320.6897   5   6   4.2127   3.9175  12.7444  -3.3606   5.9866  -6.2442   0.00    0.0
2017/09/08 02:10:30.000   45.709770577   13.763507148   319.9252   5   6   4.2205   3.9464  12.6796  -3.3851   6.0050  -6.2439   0.00    0.0
2017/09/08 02:11:00.000   45.709769564   13.763512026   319.6912   5   6   4.2281   3.9753  12.6145  -3.4093   6.0227  -6.2428   0.00    0.0
2017/09/08 02:11:30.000   45.709772009   13.763500577   318.7275   5   6   4.2356   4.0041  12.5491  -3.4332   6.0398  -6.2411   0.00    0.0
2017/09/08 02:12:00.000   45.709772649   13.763503109   317.5209   5   6   4.2427   4.0329  12.4833  -3.4568   6.0561  -6.2387   0.00    0.0
2017/09/08 02:12:30.000   45.709763958   13.763517581   320.8844   5   6   4.2497   4.0616  12.4173  -3.4801   6.0718  -6.2356   0.00    0.0
2017/09/08 02:13:00.000   45.709774563   13.763500243   319.2148   5   6   4.2565   4.0903  12.3510  -3.5032   6.0869  -6.2320   0.00    0.0
2017/09/08 02:13:30.000   45.709776422   13.763501643   317.9034   5   6   4.2630   4.1190  12.2845  -3.5259   6.1013  -6.2277   0.00    0.0
2017/09/08 02:14:00.000   45.709768159   13.763508478   321.3423   5   6   4.2693   4.1475  12.2179  -3.5483   6.1151  -6.2228   0.00    0.0
2017/09/08 02:14:30.000   45.709770110   13.763511468   320.2861   5   6   4.2754   4.1760  12.1511  -3.5704   6.1283  -6.2173   0.00    0.0
2017/09/08 02:15:00.000   45.709766952   13.763506332   319.8397   5   6   4.2813   4.2044  12.0841  -3.5921   6.1408  -6.2113   0.00    0.0
2017/09/08 02:15:30.000   45.709773106   13.763497008   318.5704   5   6   4.2869   4.2328  12.0171  -3.6136   6.1528  -6.2047   0.00    0.0
2017/09/08 02:16:00.000   45.709772895   13.763504482   319.9227   5   6   4.2923   4.2610  11.9500  -3.6348   6.1642  -6.1975   0.00    0.0
2017/09/08 02:16:30.000   45.709774408   13.763506454   318.8400   5   6   4.2975   4.2892  11.8829  -3.6557   6.1749  -6.1899   0.00    0.0
2017/09/08 02:17:00.000   45.709773838   13.763499788   318.3217   5   6   4.3024   4.3173  11.8157  -3.6762   6.1852  -6.1817   0.00    0.0
2017/09/08 02:17:30.000   45.709765863   13.763515887   323.2782   5   7   3.2037   2.4519   6.1638  -1.8267   1.5798  -3.0515   0.00    0.0
2017/09/08 02:18:00.000   45.709761386   13.763517310   322.6684   5   7   3.2014   2.4570   6.1498  -1.8342   1.6001  -3.0511   0.00    0.0
2017/09/08 02:18:30.000   45.709762289   13.763516089   322.4563   5   7   3.1992   2.4622   6.1357  -1.8417   1.6201  -3.0506   0.00    0.0
2017/09/08 02:19:00.000   45.709764695   13.763516377   323.1711   5   7   3.1969   2.4674   6.1216  -1.8491   1.6397  -3.0499   0.00    0.0
2017/09/08 02:19:30.000   45.709756505   13.763521037   323.5433   5   7   3.1947   2.4726   6.1074  -1.8564   1.6590  -3.0490   0.00    0.0
2017/09/08 02:20:00.000   45.709754799   13.763523441   322.7596   5   7   3.1925   2.4779   6.0931  -1.8637   1.6779  -3.0480   0.00    0.0
2017/09/08 02:20:30.000   45.709759712   13.763516468   322.2915   5   7   3.1902   2.4833   6.0787  -1.8709   1.6964  -3.0469   0.00    0.0
2017/09/08 02:21:00.000   45.709764686   13.763519702   322.7228   5   7   3.1880   2.4887   6.0643  -1.8780   1.7146  -3.0456   0.00    0.0
2017/09/08 02:21:30.000   45.709758587   13.763525982   323.6815   5   7   3.1857   2.4942   6.0498  -1.8851   1.7325  -3.0441   0.00    0.0
2017/09/08 02:22:00.000   45.709766733   13.763515763   322.5663   5   7   3.1835   2.4997   6.0351  -1.8921   1.7500  -3.0425   0.00    0.0
2017/09/08 02:22:30.000   45.709762367   13.763510613   322.5506   5   7   3.1812   2.5052   6.0204  -1.8991   1.7672  -3.0407   0.00    0.0
2017/09/08 02:23:00.000   45.709764451   13.763513789   322.6866   5   7   3.1789   2.5108   6.0057  -1.9060   1.7840  -3.0388   0.00    0.0
2017/09/08 02:23:30.000   45.709762038   13.763516474   323.0292   5   7   3.1767   2.5165   5.9908  -1.9128   1.8005  -3.0367   0.00    0.0
2017/09/08 02:24:00.000   45.709764031   13.763515891   321.5853   5   7   3.1744   2.5221   5.9759  -1.9195   1.8167  -3.0344   0.00    0.0
2017/09/08 02:24:30.000   45.709767658   13.763515849   322.7434   5   7   3.1721   2.5278   5.9609  -1.9262   1.8325  -3.0320   0.00    0.0
2017/09/08 02:25:00.000   45.709766715   13.763516783   322.0869   5   7   3.1698   2.5336   5.9458  -1.9327   1.8481  -3.0294   0.00    0.0
2017/09/08 02:25:30.000   45.709770045   13.763511993   322.1566   5   7   3.1674   2.5393   5.9306  -1.9392   1.8633  -3.0266   0.00    0.0
2017/09/08 02:26:00.000   45.709765647   13.763521456   323.5557   5   7   3.1651   2.5452   5.9154  -1.9457   1.8782  -3.0237   0.00    0.0
2017/09/08 02:26:30.000   45.709766592   13.763514207   322.7494   5   7   3.1627   2.5510   5.9001  -1.9520   1.8927  -3.0206   0.00    0.0
2017/09/08 02:27:00.000   45.709762755   13.763516598   322.8663   5   7   3.1604   2.5569   5.8847  -1.9583   1.9070  -3.0173   0.00    0.0
2017/09/08 02:27:30.000   45.709766315   13.763514728   323.6816   5   7   3.1580   2.5628   5.8692  -1.9645   1.9210  -3.0139   0.00    0.0
2017/09/08 02:28:00.000   45.709763808   13.763515790   322.2733   5   7   3.1556   2.5687   5.8537  -1.9706   1.9346  -3.0102   0.00    0.0
2017/09/08 02:28:30.000   45.709762878   13.763521350   321.8799   5   7   3.1532   2.5747   5.8382  -1.9766   1.9479  -3.0065   0.00    0.0
2017/09/08 02:29:00.000   45.709768771   13.763510362   322.2580   5   7   3.1507   2.5806   5.8225  -1.9825   1.9610  -3.0025   0.00    0.0
2017/09/08 02:29:30.000   45.709767020   13.763515386   322.1349   5   7   3.1483   2.5866   5.8068  -1.9884   1.9737  -2.9984   0.00    0.0
2017/09/08 02:30:00.000   45.709768657   13.763512833   322.7051   5   7   3.1458   2.5926   5.7911  -1.9941   1.9861  -2.9941   0.00    0.0
2017/09/08 02:30:30.000   45.709766059   13.763515922   322.5458   5   7   3.1433   2.5987   5.7752  -1.9998   1.9982  -2.9897   0.00    0.0
2017/09/08 02:31:00.000   45.709761757   13.763518199   322.7383   5   7   3.1408   2.6047   5.7594  -2.0054   2.0101  -2.9850   0.00    0.0
2017/09/08 02:31:30.000   45.709773786   13.763509157   323.3268   5   7   3.1383   2.6108   5.7434  -2.0109   2.0216  -2.9802   0.00    0.0
2017/09/08 02:32:00.000   45.709772342   13.763507136   321.7744   5   7   3.1357   2.6169   5.7275  -2.0163   2.0328  -2.9753   0.00    0.0
2017/09/08 02:32:30.000   45.709766069   13.763519514   323.0154   5   6   3.9809   3.0682   6.0470  -2.8277   1.0077  -1.9859   0.00    0.0
2017/09/08 02:33:00.000   45.709768946   13.763514278   322.6710   5   6   3.9712   3.0702   6.0326  -2.8252   1.0333  -1.9827   0.00    0.0
2017/09/08 02:33:30.000   45.709770211   13.763509948   321.6495   5   6   3.9614   3.0721   6.0182  -2.8226   1.0582  -1.9794   0.00    0.0
2017/09/08 02:34:00.000   45.709773014   13.763508295   322.2088   5   6   3.9515   3.0739   6.0036  -2.8198   1.0824  -1.9761   0.00    0.0
2017/09/08 02:34:30.000   45.709768873   13.763514173   322.4882   5   6   3.9416   3.0756   5.9890  -2.8169   1.1060  -1.9727   0.00    0.0
2017/09/08 02:35:00.000   45.709761988   13.763518640   323.3496   5   6   3.9316   3.0773   5.9742  -2.8138   1.1290  -1.9693   0.00    0.0
2017/09/08 02:35:30.000   45.709765615   13.763514215   322.7993   5   6   3.9216   3.0789   5.9594  -2.8106   1.1514  -1.9658   0.00    0.0
2017/09/08 02:36:00.000   45.709769327   13.763512035   322.3993   5   6   3.9115   3.0805   5.9445  -2.8072   1.1733  -1.9623   0.00    0.0
2017/09/08 02:36:30.000   45.709769467   13.763513545   323.7882   5   6   3.9013   3.0820   5.9295  -2.8038   1.1946  -1.9587   0.00    0.0
2017/09/08 02:37:00.000   45.709765042   13.763516136   322.6900   5   6   3.8911   3.0834   5.9145  -2.8001   1.2154  -1.9550   0.00    0.0
2017/09/08 02:37:30.000   45.709766017   13.763519364   322.9333   5   6   3.8809   3.0848   5.8994  -2.7964   1.2358  -1.9513   0.00    0.0
2017/09/08 02:38:00.000   45.709770238   13.763512143   322.6618   5   6   3.8706   3.0861   5.8842  -2.7925   1.2556  -1.9475   0.00    0.0
2017/09/08 02:38:30.000   45.709768762   13.763513309   323.8393   5   6   3.8603   3.0874   5.8689  -2.7885   1.2750  -1.9436   0.00    0.0
2017/09/08 02:39:00.000   45.709768108   13.763516124   322.9304   5   6   3.8499   3.0886   5.8536  -2.7844   1.2939  -1.9396   0.00    0.0
2017/09/08 02:39:30.000   45.709766489   13.763513754   321.9472   5   6   3.8395   3.0898   5.8382  -2.7802   1.3125  -1.9356   0.00    0.0
2017/09/08 02:40:00.000   45.709767370   13.763516078   322.6945   5   6   3.8291   3.0909   5.8228  -2.7758   1.3306  -1.9315   0.00    0.0
2017/09/08 02:40:30.000   45.709763873   13.763519082   324.3205   5   6   3.8186   3.0919   5.8073  -2.7714   1.3482  -1.9272   0.00    0.0
2017/09/08 02:41:00.000   45.709768495   13.763516687   323.0781   5   6   3.8082   3.0930   5.7918  -2.7668   1.3655  -1.9229   0.00    0.0
2017/09/08 02:41:30.000   45.709765914   13.763517535   323.9001   5   6   3.7976   3.0939   5.7762  -2.7621   1.3824  -1.9185   0.00    0.0
2017/09/08 02:42:00.000   45.709767872   13.763509013   322.5293   5   6   3.7871   3.0948   5.7606  -2.7573   1.3990  -1.9140   0.00    0.0
2017/09/08 02:42:30.000   45.709763097   13.763521726   323.5718   5   6   3.7766   3.0957   5.7449  -2.7524   1.4151  -1.9095   0.00    0.0
2017/09/08 02:43:00.000   45.709764264   13.763521600   323.7988   5   6   3.7660   3.0966   5.7293  -2.7474   1.4309  -1.9048   0.00    0.0
2017/09/08 02:43:30.000   45.709767770   13.763516307   322.7197   5   6   3.7554   3.0974   5.7136  -2.7423   1.4464  -1.9000   0.00    0.0
2017/09/08 02:44:00.000   45.709772920   13.763511835   323.1147   5   6   3.7448   3.0982   5.6979  -2.7371   1.4615  -1.8951   0.00    0.0
2017/09/08 02:44:30.000   45.709769329   13.763517503   323.9062   5   6   3.7342   3.0989   5.6821  -2.7318   1.4763  -1.8902   0.00    0.0
2017/09/08 02:45:00.000   45.709768815   13.763516557   322.4444   5   6   3.7236   3.0996   5.6664  -2.7265   1.4907  -1.8851   0.00    0.0
2017/09/08 02:45:30.000   45.709770489   13.763514300   323.5056   5   6   3.7130   3.1003   5.6506  -2.7210   1.5048  -1.8799   0.00    0.0
2017/09/08 02:46:00.000   45.709770552   13.763517125   324.1935   5   6   3.7024   3.1009   5.6349  -2.7154   1.5187  -1.8747   0.00    0.0
2017/09/08 02:46:30.000   45.709770497   13.763515248   323.0774   5   6   3.6918   3.1015   5.6191  -2.7098   1.5322  -1.8693   0.00    0.0
2017/09/08 02:47:00.000   45.709773936   13.763512505   323.3192   5   7   2.7342   2.4709   4.9206  -1.6398  -1.6246   1.7700   0.00    0.0
2017/09/08 02:47:30.000   45.709771032   13.763512702   322.9656   5   7   2.7284   2.4682   4.9115  -1.6323  -1.6063   1.7574   0.00    0.0
2017/09/08 02:48:00.000   45.709764349   13.763520650   323.1005   5   7   2.7228   2.4656   4.9024  -1.6248  -1.5879   1.7447   0.00    0.0
2017/09/08 02:48:30.000   45.709768310   13.763515089   323.3775   5   7   2.7172   2.4630   4.8933  -1.6174  -1.5694   1.7321   0.00    0.0
2017/09/08 02:49:00.000   45.709770896   13.763512943   323.1015   5   7   2.7118   2.4605   4.8842  -1.6099  -1.5506   1.7195   0.00    0.0
2017/09/08 02:49:30.000   45.709765973   13.763514740   321.7269   5   8   2.5081   1.9900   4.3248  -1.0493   0.9490   0.7910   0.00    0.0
2017/09/08 02:50:00.000   45.709763775   13.763522826   322.6913   5   8   2.5061   1.9899   4.3262  -1.0462   0.9578   0.7912   0.00    0.0
2017/09/08 02:50:30.000   45.709766699   13.763518095   322.9570   5   8   2.5041   1.9898   4.3276  -1.0431   0.9665   0.7915   0.00    0.0
2017/09/08 02:51:00.000   45.709771789   13.763512312   321.2920   5   8   2.5023   1.9897   4.3289  -1.0400   0.9752   0.7918   0.00    0.0
2017/09/08 02:51:30.000   45.709769727   13.763516533   321.7131   5   8   2.5004   1.9897   4.3301  -1.0369   0.9837   0.7921   0.00    0.0
2017/09/08 02:52:00.000   45.709765457   13.763523380   322.4252   5   8   2.4987   1.9897   4.3312  -1.0339   0.9922   0.7925   0.00    0.0
2017/09/08 02:52:30.000   45.709769067   13.763513710   322.1265   5   8   2.4970   1.9898   4.3323  -1.0309   1.0006   0.7929   0.00    0.0
2017/09/08 02:53:00.000   45.709770353   13.763514944   322.3699   5   8   2.4954   1.9899   4.3333  -1.0278   1.0089   0.7933   0.00    0.0
2017/09/08 02:53:30.000   45.709765869   13.763513676   322.4318   5   8   2.4939   1.9900   4.3342  -1.0248   1.0171   0.7938   0.00    0.0
2017/09/08 02:54:00.000   45.709764310   13.763519599   323.0578   5   8   2.4924   1.9902   4.3350  -1.0219   1.0252   0.7943   0.00    0.0
2017/09/08 02:54:30.000   45.709766693   13.763519113   322.6884   5   8   2.4910   1.9904   4.3358  -1.0189   1.0333   0.7948   0.00    0.0
2017/09/08 02:55:00.000   45.709767128   13.763512416   322.3425   5   8   2.4897   1.9906   4.3365  -1.0160   1.0412   0.7954   0.00    0.0
2017/09/08 02:55:30.000   45.709766190   13.763514777   322.0172   5   8   2.4885   1.9908   4.3371  -1.0130   1.0491   0.7961   0.00    0.0
2017/09/08 02:56:00.000   45.709762246   13.763521588   322.7734   5   8   2.4873   1.9911   4.3376  -1.0101   1.0569   0.7968   0.00    0.0
2017/09/08 02:56:30.000   45.709764909   13.763518074   322.8857   5   8   2.4861   1.9915   4.3380  -1.0072   1.0646   0.7975   0.00    0.0
2017/09/08 02:57:00.000   45.709764265   13.763523324   322.7236   5   8   2.4851   1.9918   4.3383  -1.0043   1.0723   0.7983   0.00    0.0
2017/09/08 02:57:30.000   45.709764047   13.763521926   323.4140   5   8   2.4841   1.9922   4.3386  -1.0014   1.0798   0.7992   0.00    0.0
2017/09/08 02:58:00.000   45.709762173   13.763522792   323.0668   5   8   2.4832   1.9926   4.3387  -0.9985   1.0873   0.8001   0.00    0.0
2017/09/08 02:58:30.000   45.709761873   13.763523966   322.9009   5   8   2.4823   1.9931   4.3388  -0.9956   1.0947   0.8010   0.00    0.0
2017/09/08 02:59:00.000   45.709763901   13.763520308   322.6953   5   8   2.4815   1.9936   4.3388  -0.9928   1.1021   0.8020   0.00    0.0
2017/09/08 02:59:30.000   45.709764611   13.763517716   322.7933   5   8   2.4808   1.9941   4.3387  -0.9899   1.1093   0.8031   0.00    0.0
2017/09/08 03:00:00.000   45.709765391   13.763512502   322.6368   5   8   2.4801   1.9946   4.3385  -0.9871   1.1165   0.8042   0.00    0.0
2017/09/08 03:00:30.000   45.709760030   13.763526132   322.3013   5   8   2.4795   1.9952   4.3383  -0.9843   1.1236   0.8054   0.00    0.0
2017/09/08 03:01:00.000   45.709764243   13.763514364   322.6400   5   8   2.4789   1.9958   4.3379  -0.9814   1.1306   0.8067   0.00    0.0
2017/09/08 03:01:30.000   45.709766259   13.763510130   321.8432   5   8   2.4785   1.9965   4.3375  -0.9786   1.1376   0.8080   0.00    0.0
2017/09/08 03:02:00.000   45.709763249   13.763516917   322.2773   5   8   2.4780   1.9971   4.3369  -0.9758   1.1445   0.8094   0.00    0.0
2017/09/08 03:02:30.000   45.709762412   13.763517073   322.3539   5   8   2.4777   1.9978   4.3363  -0.9730   1.1513   0.8108   0.00    0.0
2017/09/08 03:03:00.000   45.709761350   13.763519707   322.2052   5   8   2.4774   1.9986   4.3356  -0.9702   1.1580   0.8123   0.00    0.0
2017/09/08 03:03:30.000   45.709764256   13.763513799   322.3274   5   8   2.4772   1.9993   4.3349  -0.9674   1.1647   0.8139   0.00    0.0
2017/09/08 03:04:00.000   45.709761833   13.763520737   323.0656   5   8   2.4770   2.0001   4.3340  -0.9646   1.1712   0.8155   0.00    0.0
2017/09/08 03:04:30.000   45.709765046   13.763514363   322.5833   5   8   2.4769   2.0009   4.3331  -0.9618   1.1778   0.8172   0.00    0.0
2017/09/08 03:05:00.000   45.709762369   13.763515432   322.0555   5   8   2.4769   2.0018   4.3320  -0.9590   1.1842   0.8190   0.00    0.0
2017/09/08 03:05:30.000   45.709760978   13.763519486   322.7678   5   8   2.4769   2.0027   4.3309  -0.9562   1.1906   0.8208   0.00    0.0
2017/09/08 03:06:00.000   45.709762260   13.763515696   322.2591   5   8   2.4770   2.0036   4.3298  -0.9534   1.1969   0.8227   0.00    0.0
2017/09/08 03:06:30.000   45.709765724   13.763517865   322.4758   5   8   2.4771   2.0045   4.3285  -0.9506   1.2031   0.8247   0.00    0.0
2017/09/08 03:07:00.000   45.709766462   13.763515591   322.5897   5   8   2.4773   2.0055   4.3272  -0.9478   1.2093   0.8267   0.00    0.0
2017/09/08 03:07:30.000   45.709765868   13.763514961   321.5104   5   8   2.4776   2.0065   4.3258  -0.9451   1.2154   0.8289   0.00    0.0
2017/09/08 03:08:00.000   45.709764846   13.763521186   322.3663   5   8   2.4779   2.0075   4.3244  -0.9423   1.2214   0.8310   0.00    0.0
2017/09/08 03:08:30.000   45.709764559   13.763515461   322.4026   5   8   2.4783   2.0086   4.3228  -0.9395   1.2274   0.8333   0.00    0.0
2017/09/08 03:09:00.000   45.709766050   13.763511363   322.5260   5   8   2.4788   2.0097   4.3212  -0.9367   1.2333   0.8356   0.00    0.0
2017/09/08 03:09:30.000   45.709764574   13.763513652   322.1242   5   8   2.4793   2.0108   4.3196  -0.9339   1.2391   0.8380   0.00    0.0
2017/09/08 03:10:00.000   45.709765562   13.763515394   322.9307   5   8   2.4799   2.0119   4.3178  -0.9311   1.2449   0.8405   0.00    0.0
2017/09/08 03:10:30.000   45.709763760   13.763519393   322.7454   5   8   2.4806   2.0131   4.3161  -0.9283   1.2506   0.8430   0.00    0.0
2017/09/08 03:11:00.000   45.709764160   13.763517386   323.0573   5   8   2.4813   2.0143   4.3142  -0.9255   1.2563   0.8456   0.00    0.0
2017/09/08 03:11:30.000   45.709768558   13.763518149   322.9002   5   8   2.4821   2.0155   4.3123  -0.9227   1.2618   0.8483   0.00    0.0
2017/09/08 03:12:00.000   45.709765456   13.763518230   322.4613   5   8   2.4829   2.0168   4.3104  -0.9199   1.2674   0.8510   0.00    0.0
2017/09/08 03:12:30.000   45.709762507   13.763520000   323.3354   5   8   2.4838   2.0181   4.3084  -0.9171   1.2728   0.8539   0.00    0.0
2017/09/08 03:13:00.000   45.709762528   13.763514938   322.4525   5   8   2.4848   2.0194   4.3064  -0.9143   1.2782   0.8568   0.00    0.0
2017/09/08 03:13:30.000   45.709760830   13.763518890   322.5035   5   8   2.4858   2.0207   4.3043  -0.9115   1.2836   0.8597   0.00    0.0
2017/09/08 03:14:00.000   45.709769247   13.763516599   323.2910   5   9   2.2252   1.9272   4.1359  -0.3816   1.5448  -0.7557   0.00    0.0
2017/09/08 03:14:30.000   45.709767193   13.763515844   323.1458   5   9   2.2259   1.9281   4.1368  -0.3711   1.5477  -0.7448   0.00    0.0
2017/09/08 03:15:00.000   45.709764170   13.763521474   323.6982   5   8   2.5455   1.9707   4.4194   0.6063   1.3334  -1.5663   0.00    0.0
2017/09/08 03:15:30.000   45.709766225   13.763518193   322.9498   5   8   2.5455   1.9709   4.4239   0.6088   1.3370  -1.5644   0.00    0.0
2017/09/08 03:16:00.000   45.709759197   13.763511229   322.9014   5   8   2.5456   1.9711   4.4282   0.6114   1.3406  -1.5622   0.00    0.0
2017/09/08 03:16:30.000   45.709766390   13.763515048   323.4776   5   8   2.5457   1.9714   4.4326   0.6140   1.3442  -1.5599   0.00    0.0
2017/09/08 03:17:00.000   45.709765429   13.763518292   323.0936   5   8   2.5459   1.9717   4.4368   0.6166   1.3478  -1.5574   0.00    0.0
2017/09/08 03:17:30.000   45.709765009   13.763515376   322.8820   5   8   2.5460   1.9720   4.4409   0.6191   1.3514  -1.5547   0.00    0.0
2017/09/08 03:18:00.000   45.709763056   13.763518213   322.3590   5   8   2.5462   1.9724   4.4450   0.6217   1.3550  -1.5518   0.00    0.0
2017/09/08 03:18:30.000   45.709759919   13.763518902   323.1463   5   8   2.5465   1.9728   4.4489   0.6243   1.3586  -1.5487   0.00    0.0
2017/09/08 03:19:00.000   45.709763056   13.763515942   322.5786   5   8   2.5468   1.9732   4.4528   0.6270   1.3621  -1.5454   0.00    0.0
2017/09/08 03:19:30.000   45.709764722   13.763510547   322.2058   5   8   2.5471   1.9736   4.4566   0.6296   1.3657  -1.5419   0.00    0.0
2017/09/08 03:20:00.000   45.709762338   13.763515333   323.2249   5   8   2.5475   1.9741   4.4603   0.6322   1.3692  -1.5382   0.00    0.0
2017/09/08 03:20:30.000   45.709766121   13.763517175   322.5892   5   8   2.5479   1.9746   4.4640   0.6349   1.3728  -1.5343   0.00    0.0
2017/09/08 03:21:00.000   45.709766228   13.763508742   322.6889   5   8   2.5483   1.9751   4.4675   0.6375   1.3764  -1.5301   0.00    0.0
2017/09/08 03:21:30.000   45.709771237   13.763516523   323.1577   5   7   3.4693   2.1135   4.9757   1.4753   1.8823   1.6767   0.00    0.0
2017/09/08 03:22:00.000   45.709771964   13.763514161   323.3434   5   7   3.4723   2.1163   4.9963   1.4826   1.8966   1.7108   0.00    0.0
2017/09/08 03:22:30.000   45.709766617   13.763516469   323.0097   5   7   3.4753   2.1193   5.0171   1.4900   1.9110   1.7447   0.00    0.0
2017/09/08 03:23:00.000   45.709769067   13.763522274   324.0748   5   7   3.4785   2.1222   5.0381   1.4974   1.9255   1.7784   0.00    0.0
2017/09/08 03:23:30.000   45.709772480   13.763520615   323.5516   5   7   3.4818   2.1253   5.0594   1.5049   1.9401   1.8120   0.00    0.0
2017/09/08 03:24:00.000   45.709768661   13.763516149   323.6841   5   7   3.4852   2.1283   5.0810   1.5124   1.9547   1.8453   0.00    0.0
2017/09/08 03:24:30.000   45.709769985   13.763520613   323.6465   5   7   3.4887   2.1314   5.1027   1.5199   1.9694   1.8785   0.00    0.0
2017/09/08 03:25:00.000   45.709767139   13.763516230   323.2040   5   7   3.4924   2.1346   5.1247   1.5275   1.9842   1.9116   0.00    0.0
2017/09/08 03:25:30.000   45.709765899   13.763511792   322.8895   5   7   3.4961   2.1378   5.1470   1.5350   1.9991   1.9445   0.00    0.0
2017/09/08 03:26:00.000   45.709772829   13.763514764   323.8616   5   7   3.5000   2.1411   5.1695   1.5427   2.0140   1.9772   0.00    0.0
2017/09/08 03:26:30.000   45.709770271   13.763520090   323.9410   5   7   3.5039   2.1444   5.1922   1.5503   2.0290   2.0098   0.00    0.0
2017/09/08 03:27:00.000   45.709767402   13.763514657   323.3189   5   7   3.5080   2.1477   5.2151   1.5579   2.0440   2.0423   0.00    0.0
2017/09/08 03:27:30.000   45.709774693   13.763513356   323.6810   5   7   3.5122   2.1511   5.2382   1.5656   2.0591   2.0746   0.00    0.0
2017/09/08 03:28:00.000   45.709767616   13.763512015   322.9836   5   7   3.5165   2.1545   5.2616   1.5733   2.0742   2.1068   0.00    0.0
2017/09/08 03:28:30.000   45.709767851   13.763512058   322.9110   5   7   3.5208   2.1580   5.2851   1.5811   2.0894   2.1388   0.00    0.0
2017/09/08 03:29:00.000   45.709768103   13.763515598   324.0295   5   8   3.4000   2.0575   4.8412   1.7723   1.7281   2.5965   0.00    0.0
