% program   : RTKPOST-EX 2.5.0
% inp file  : D:\Academic\0 Research\000 In preparation\00 GPS positioning performance circular analysis during short-term fast-developing geomagnetic storms\Storm 3\trie2520.17d
% inp file  : D:\Academic\0 Research\000 In preparation\00 GPS positioning performance circular analysis during short-term fast-developing geomagnetic storms\Storm 3\brdc2520.17n
% obs start : 2017/09/09 00:00:00.0 GPST (week1965 518400.0s)
% obs end   : 2017/09/09 23:59:30.0 GPST (week1965 604770.0s)
% pos mode  : Single
% elev mask : 15.0 deg
% tidecorr  :
% ionos opt : Broadcast
% tropo opt : Saastamoinen
% ephemeris : Broadcast
% navi sys  : GPS
%
% (lat/lon/height=WGS84/ellipsoidal,Q=1:fix,2:float,3:sbas,4:dgps,5:single,6:ppp,ns=# of satellites)
%  GPST                  latitude(deg) longitude(deg)  height(m)   Q  ns   sdn(m)   sde(m)   sdu(m)  sdne(m)  sdeu(m)  sdun(m) age(s)  ratio
2017/09/09 00:00:00.000   45.709759985   13.763524967   322.7185   5   8   3.5130   1.7556   5.5080  -1.0450   0.7708  -3.1171   0.00    0.0
2017/09/09 00:00:30.000   45.709753983   13.763523998   323.2366   5   8   3.5096   1.7560   5.4964  -1.0521   0.7827  -3.1057   0.00    0.0
2017/09/09 00:01:00.000   45.709762192   13.763524034   322.6542   5   8   3.5061   1.7564   5.4846  -1.0590   0.7941  -3.0940   0.00    0.0
2017/09/09 00:01:30.000   45.709758899   13.763525044   323.5892   5   8   3.5025   1.7569   5.4725  -1.0657   0.8050  -3.0821   0.00    0.0
2017/09/09 00:02:00.000   45.709753655   13.763527108   324.2958   5   8   3.4988   1.7574   5.4603  -1.0723   0.8156  -3.0699   0.00    0.0
2017/09/09 00:02:30.000   45.709762393   13.763523986   323.5227   5   8   3.4951   1.7579   5.4478  -1.0788   0.8258  -3.0576   0.00    0.0
2017/09/09 00:03:00.000   45.709761252   13.763522961   323.1055   5   8   3.4914   1.7585   5.4351  -1.0850   0.8357  -3.0450   0.00    0.0
2017/09/09 00:03:30.000   45.709766679   13.763523389   322.9683   5   8   3.4875   1.7591   5.4222  -1.0912   0.8452  -3.0322   0.00    0.0
2017/09/09 00:04:00.000   45.709755078   13.763525588   323.3010   5   8   3.4837   1.7597   5.4091  -1.0972   0.8543  -3.0192   0.00    0.0
2017/09/09 00:04:30.000   45.709759490   13.763525393   323.2998   5   8   3.4797   1.7604   5.3958  -1.1031   0.8631  -3.0060   0.00    0.0
2017/09/09 00:05:00.000   45.709758733   13.763527664   324.0938   5   8   3.4758   1.7611   5.3824  -1.1088   0.8717  -2.9926   0.00    0.0
2017/09/09 00:05:30.000   45.709766112   13.763533577   322.7523   5   8   3.4718   1.7619   5.3688  -1.1144   0.8799  -2.9791   0.00    0.0
2017/09/09 00:06:00.000   45.709755824   13.763526731   322.9889   5   8   3.4677   1.7626   5.3551  -1.1199   0.8879  -2.9653   0.00    0.0
2017/09/09 00:06:30.000   45.709754774   13.763529421   322.2719   5   8   3.4637   1.7635   5.3412  -1.1253   0.8955  -2.9514   0.00    0.0
2017/09/09 00:07:00.000   45.709757733   13.763526163   322.8130   5   8   3.4595   1.7643   5.3272  -1.1305   0.9030  -2.9374   0.00    0.0
2017/09/09 00:07:30.000   45.709756575   13.763529099   322.4428   5   8   3.4554   1.7652   5.3131  -1.1357   0.9101  -2.9231   0.00    0.0
2017/09/09 00:08:00.000   45.709765048   13.763520416   323.0674   5   9   3.2564   1.6991   5.2544  -0.8661   1.0822  -3.0404   0.00    0.0
2017/09/09 00:08:30.000   45.709760889   13.763525115   324.0203   5   9   3.2500   1.6995   5.2417  -0.8697   1.0855  -3.0246   0.00    0.0
2017/09/09 00:09:00.000   45.709756373   13.763533507   323.7972   5   9   3.2436   1.7000   5.2289  -0.8731   1.0886  -3.0085   0.00    0.0
2017/09/09 00:09:30.000   45.709763122   13.763525338   323.4328   5   9   3.2372   1.7005   5.2160  -0.8765   1.0916  -2.9924   0.00    0.0
2017/09/09 00:10:00.000   45.709763247   13.763522552   323.6214   5   9   3.2309   1.7010   5.2029  -0.8797   1.0945  -2.9760   0.00    0.0
2017/09/09 00:10:30.000   45.709757292   13.763528735   323.5567   5   9   3.2245   1.7016   5.1898  -0.8829   1.0972  -2.9596   0.00    0.0
2017/09/09 00:11:00.000   45.709767797   13.763524670   323.2099   5  10   2.4499   1.6171   4.2472   0.5690  -0.6023  -1.5766   0.00    0.0
2017/09/09 00:11:30.000   45.709766369   13.763524167   322.4781   5  10   2.4499   1.6165   4.2462   0.5669  -0.5976  -1.5689   0.00    0.0
2017/09/09 00:12:00.000   45.709766665   13.763523875   322.2263   5  10   2.4499   1.6159   4.2451   0.5649  -0.5929  -1.5611   0.00    0.0
2017/09/09 00:12:30.000   45.709768761   13.763523258   322.0179   5  10   2.4499   1.6153   4.2439   0.5628  -0.5882  -1.5532   0.00    0.0
2017/09/09 00:13:00.000   45.709762841   13.763527931   322.8727   5  10   2.4500   1.6148   4.2426   0.5608  -0.5834  -1.5451   0.00    0.0
2017/09/09 00:13:30.000   45.709761206   13.763524929   322.6213   5  10   2.4501   1.6143   4.2411   0.5588  -0.5785  -1.5369   0.00    0.0
2017/09/09 00:14:00.000   45.709771299   13.763528801   322.3912   5  10   2.4502   1.6138   4.2396   0.5568  -0.5737  -1.5285   0.00    0.0
2017/09/09 00:14:30.000   45.709770817   13.763527985   321.9143   5   9   2.9354   1.6538   4.4246   0.9459   0.3720  -0.5051   0.00    0.0
2017/09/09 00:15:00.000   45.709774270   13.763526851   322.2325   5   9   2.9345   1.6530   4.4301   0.9429   0.3881  -0.4380   0.00    0.0
2017/09/09 00:15:30.000   45.709774051   13.763527922   322.3860   5   9   2.9337   1.6523   4.4356   0.9400   0.4035  -0.3585   0.00    0.0
2017/09/09 00:16:00.000   45.709771041   13.763530642   322.7376   5   9   2.9330   1.6516   4.4410   0.9370   0.4182  -0.2552   0.00    0.0
2017/09/09 00:16:30.000   45.709772616   13.763523272   323.1924   5   9   2.9323   1.6509   4.4464   0.9341   0.4322  -0.0426   0.00    0.0
2017/09/09 00:17:00.000   45.709769979   13.763527040   322.7906   5   9   2.9318   1.6503   4.4518   0.9313   0.4456   0.2479   0.00    0.0
2017/09/09 00:17:30.000   45.709772327   13.763531234   322.8091   5   9   2.9312   1.6497   4.4572   0.9284   0.4585   0.3532   0.00    0.0
2017/09/09 00:18:00.000   45.709770383   13.763528304   322.5615   5   9   2.9308   1.6491   4.4626   0.9256   0.4709   0.4335   0.00    0.0
2017/09/09 00:18:30.000   45.709768167   13.763522576   322.2313   5   9   2.9304   1.6486   4.4679   0.9228   0.4829   0.5010   0.00    0.0
2017/09/09 00:19:00.000   45.709774267   13.763527113   322.9108   5   9   2.9300   1.6481   4.4733   0.9200   0.4944   0.5603   0.00    0.0
2017/09/09 00:19:30.000   45.709772045   13.763529378   322.8778   5   9   2.9298   1.6476   4.4785   0.9172   0.5055   0.6138   0.00    0.0
2017/09/09 00:20:00.000   45.709772503   13.763524523   322.6055   5   9   2.9295   1.6472   4.4838   0.9144   0.5162   0.6629   0.00    0.0
2017/09/09 00:20:30.000   45.709775189   13.763528761   322.3258   5   9   2.9294   1.6468   4.4890   0.9117   0.5265   0.7085   0.00    0.0
2017/09/09 00:21:00.000   45.709771108   13.763530008   321.7737   5   9   2.9293   1.6464   4.4942   0.9090   0.5366   0.7513   0.00    0.0
2017/09/09 00:21:30.000   45.709765882   13.763530816   323.0732   5   9   2.9292   1.6460   4.4993   0.9062   0.5463   0.7915   0.00    0.0
2017/09/09 00:22:00.000   45.709769326   13.763533899   322.7649   5   9   2.9292   1.6457   4.5044   0.9035   0.5557   0.8297   0.00    0.0
2017/09/09 00:22:30.000   45.709768644   13.763527763   323.0506   5   9   2.9293   1.6455   4.5094   0.9008   0.5648   0.8661   0.00    0.0
2017/09/09 00:23:00.000   45.709764735   13.763522845   321.2532   5   9   2.9294   1.6452   4.5144   0.8981   0.5736   0.9008   0.00    0.0
2017/09/09 00:23:30.000   45.709765531   13.763528661   323.0428   5   9   2.9295   1.6450   4.5193   0.8954   0.5821   0.9341   0.00    0.0
2017/09/09 00:24:00.000   45.709766609   13.763527310   323.9963   5   9   2.9297   1.6448   4.5242   0.8927   0.5904   0.9661   0.00    0.0
2017/09/09 00:24:30.000   45.709768076   13.763526425   323.0787   5   9   2.9299   1.6447   4.5290   0.8900   0.5984   0.9969   0.00    0.0
2017/09/09 00:25:00.000   45.709767476   13.763529207   322.5620   5   9   2.9301   1.6445   4.5337   0.8874   0.6062   1.0266   0.00    0.0
2017/09/09 00:25:30.000   45.709774753   13.763528724   322.6633   5   9   2.9304   1.6444   4.5384   0.8846   0.6137   1.0552   0.00    0.0
2017/09/09 00:26:00.000   45.709765597   13.763528343   322.6986   5   9   2.9308   1.6444   4.5430   0.8819   0.6210   1.0829   0.00    0.0
2017/09/09 00:26:30.000   45.709767981   13.763531795   321.9299   5   9   2.9311   1.6444   4.5476   0.8792   0.6280   1.1098   0.00    0.0
2017/09/09 00:27:00.000   45.709764799   13.763525787   322.3240   5   9   2.9315   1.6444   4.5520   0.8765   0.6349   1.1358   0.00    0.0
2017/09/09 00:27:30.000   45.709767203   13.763523423   321.4929   5   9   2.9319   1.6444   4.5564   0.8738   0.6415   1.1610   0.00    0.0
2017/09/09 00:28:00.000   45.709770153   13.763532534   323.6175   5   9   2.9323   1.6445   4.5607   0.8710   0.6479   1.1854   0.00    0.0
2017/09/09 00:28:30.000   45.709769110   13.763527347   322.1319   5   9   2.9327   1.6445   4.5649   0.8682   0.6541   1.2091   0.00    0.0
2017/09/09 00:29:00.000   45.709769995   13.763526585   322.3504   5   9   2.9332   1.6447   4.5690   0.8654   0.6600   1.2322   0.00    0.0
2017/09/09 00:29:30.000   45.709771265   13.763523887   322.4637   5   9   2.9337   1.6448   4.5730   0.8626   0.6658   1.2546   0.00    0.0
2017/09/09 00:30:00.000   45.709772135   13.763529475   322.4617   5   9   2.9341   1.6450   4.5770   0.8598   0.6714   1.2763   0.00    0.0
2017/09/09 00:30:30.000   45.709762148   13.763522231   322.4836   5   8   2.9554   1.8666   5.1263   1.0212  -1.2534   0.9371   0.00    0.0
2017/09/09 00:31:00.000   45.709765071   13.763529032   324.6685   5   8   2.9542   1.8653   5.1373   1.0119  -1.2536   0.9798   0.00    0.0
2017/09/09 00:31:30.000   45.709771318   13.763523054   322.8541   5   8   2.9531   1.8640   5.1482   1.0025  -1.2539   1.0206   0.00    0.0
2017/09/09 00:32:00.000   45.709775903   13.763525311   323.1276   5   8   2.9520   1.8628   5.1591   0.9931  -1.2542   1.0597   0.00    0.0
2017/09/09 00:32:30.000   45.709772473   13.763524139   322.8681   5   8   2.9510   1.8617   5.1698   0.9836  -1.2545   1.0974   0.00    0.0
2017/09/09 00:33:00.000   45.709766995   13.763522438   322.9520   5   8   2.9501   1.8605   5.1804   0.9741  -1.2549   1.1337   0.00    0.0
2017/09/09 00:33:30.000   45.709771669   13.763530034   323.6365   5   8   2.9493   1.8594   5.1909   0.9644  -1.2553   1.1687   0.00    0.0
2017/09/09 00:34:00.000   45.709766519   13.763521681   323.6917   5   8   2.9485   1.8584   5.2013   0.9548  -1.2558   1.2026   0.00    0.0
2017/09/09 00:34:30.000   45.709771496   13.763524307   323.3238   5   8   2.9477   1.8574   5.2116   0.9450  -1.2562   1.2354   0.00    0.0
2017/09/09 00:35:00.000   45.709768122   13.763523812   323.5875   5   8   2.9471   1.8564   5.2217   0.9352  -1.2568   1.2672   0.00    0.0
2017/09/09 00:35:30.000   45.709768830   13.763525090   322.8920   5   8   2.9465   1.8555   5.2317   0.9253  -1.2573   1.2980   0.00    0.0
2017/09/09 00:36:00.000   45.709775732   13.763526642   324.3714   5   8   2.9459   1.8547   5.2416   0.9153  -1.2579   1.3280   0.00    0.0
2017/09/09 00:36:30.000   45.709767868   13.763529968   323.7044   5   8   2.9454   1.8538   5.2512   0.9053  -1.2585   1.3571   0.00    0.0
2017/09/09 00:37:00.000   45.709766874   13.763521552   322.4919   5   8   2.9449   1.8530   5.2608   0.8952  -1.2591   1.3853   0.00    0.0
2017/09/09 00:37:30.000   45.709772633   13.763523664   323.9537   5   8   2.9445   1.8523   5.2701   0.8849  -1.2597   1.4128   0.00    0.0
2017/09/09 00:38:00.000   45.709769704   13.763522542   323.3439   5   8   2.9441   1.8516   5.2793   0.8747  -1.2604   1.4396   0.00    0.0
2017/09/09 00:38:30.000   45.709769011   13.763523538   322.4829   5   8   2.9437   1.8509   5.2883   0.8643  -1.2611   1.4656   0.00    0.0
2017/09/09 00:39:00.000   45.709769530   13.763520706   323.3633   5   8   2.9434   1.8503   5.2971   0.8538  -1.2617   1.4909   0.00    0.0
2017/09/09 00:39:30.000   45.709768090   13.763524355   322.7962   5   8   2.9432   1.8497   5.3057   0.8432  -1.2624   1.5155   0.00    0.0
2017/09/09 00:40:00.000   45.709770165   13.763520635   322.6681   5   8   2.9429   1.8491   5.3141   0.8326  -1.2631   1.5395   0.00    0.0
2017/09/09 00:40:30.000   45.709769462   13.763520857   324.6598   5   8   2.9427   1.8486   5.3222   0.8218  -1.2638   1.5628   0.00    0.0
2017/09/09 00:41:00.000   45.709766215   13.763523655   323.3815   5   8   2.9425   1.8481   5.3302   0.8109  -1.2645   1.5855   0.00    0.0
2017/09/09 00:41:30.000   45.709765406   13.763527125   323.9488   5   8   2.9423   1.8477   5.3378   0.8000  -1.2652   1.6075   0.00    0.0
2017/09/09 00:42:00.000   45.709770140   13.763524304   323.4538   5   8   2.9421   1.8473   5.3453   0.7889  -1.2659   1.6290   0.00    0.0
2017/09/09 00:42:30.000   45.709770786   13.763524556   324.1208   5   8   2.9419   1.8470   5.3525   0.7777  -1.2666   1.6498   0.00    0.0
2017/09/09 00:43:00.000   45.709768269   13.763526120   323.0694   5   8   2.9418   1.8467   5.3595   0.7664  -1.2672   1.6701   0.00    0.0
2017/09/09 00:43:30.000   45.709764783   13.763523580   323.6017   5   8   2.9416   1.8464   5.3662   0.7549  -1.2679   1.6897   0.00    0.0
2017/09/09 00:44:00.000   45.709764671   13.763521901   323.0628   5   8   2.9415   1.8461   5.3726   0.7433  -1.2685   1.7088   0.00    0.0
2017/09/09 00:44:30.000   45.709763373   13.763520259   322.7783   5   8   2.9413   1.8460   5.3787   0.7316  -1.2691   1.7274   0.00    0.0
2017/09/09 00:45:00.000   45.709765243   13.763519556   323.1935   5   8   2.9412   1.8458   5.3846   0.7198  -1.2697   1.7453   0.00    0.0
2017/09/09 00:45:30.000   45.709769749   13.763524139   323.1833   5   8   2.9410   1.8457   5.3901   0.7078  -1.2702   1.7627   0.00    0.0
2017/09/09 00:46:00.000   45.709758761   13.763523160   321.8783   5   9   2.5648   1.8109   4.8519  -0.1695  -1.5671  -0.4777   0.00    0.0
2017/09/09 00:46:30.000   45.709768039   13.763521129   322.7011   5   9   2.5642   1.8107   4.8586  -0.2168  -1.5678  -0.4103   0.00    0.0
2017/09/09 00:47:00.000   45.709762071   13.763523317   322.8433   5   9   2.5636   1.8105   4.8652  -0.2553  -1.5684  -0.3294   0.00    0.0
2017/09/09 00:47:30.000   45.709760145   13.763526648   322.4335   5   9   2.5632   1.8104   4.8717  -0.2886  -1.5690  -0.2209   0.00    0.0
2017/09/09 00:48:00.000   45.709759925   13.763525185   322.3998   5   9   2.5628   1.8103   4.8782  -0.3182  -1.5695   0.1038   0.00    0.0
2017/09/09 00:48:30.000   45.709757165   13.763524679   322.8264   5   9   2.5625   1.8103   4.8846  -0.3453  -1.5699   0.2649   0.00    0.0
2017/09/09 00:49:00.000   45.709763750   13.763525771   322.5524   5   9   2.5623   1.8102   4.8909  -0.3702  -1.5703   0.3596   0.00    0.0
2017/09/09 00:49:30.000   45.709766559   13.763525909   322.8902   5   9   2.5622   1.8102   4.8971  -0.3935  -1.5706   0.4340   0.00    0.0
2017/09/09 00:50:00.000   45.709759647   13.763525532   322.3515   5   9   2.5622   1.8102   4.9032  -0.4153  -1.5708   0.4970   0.00    0.0
2017/09/09 00:50:30.000   45.709760391   13.763527337   322.1254   5   9   2.5623   1.8102   4.9092  -0.4359  -1.5710   0.5527   0.00    0.0
2017/09/09 00:51:00.000   45.709758484   13.763523004   321.0210   5   9   2.5625   1.8103   4.9150  -0.4555  -1.5710   0.6031   0.00    0.0
2017/09/09 00:51:30.000   45.709760234   13.763522874   322.7867   5   9   2.5627   1.8104   4.9208  -0.4742  -1.5710   0.6493   0.00    0.0
2017/09/09 00:52:00.000   45.709758413   13.763521902   322.2855   5   9   2.5630   1.8105   4.9265  -0.4921  -1.5709   0.6921   0.00    0.0
2017/09/09 00:52:30.000   45.709758900   13.763523222   321.7961   5   9   2.5634   1.8106   4.9320  -0.5093  -1.5708   0.7322   0.00    0.0
2017/09/09 00:53:00.000   45.709761406   13.763525816   321.7900   5   9   2.5639   1.8108   4.9375  -0.5258  -1.5705   0.7700   0.00    0.0
2017/09/09 00:53:30.000   45.709759264   13.763527776   321.9473   5   9   2.5644   1.8110   4.9428  -0.5417  -1.5701   0.8057   0.00    0.0
2017/09/09 00:54:00.000   45.709763095   13.763523176   322.1897   5   9   2.5650   1.8112   4.9479  -0.5570  -1.5697   0.8396   0.00    0.0
2017/09/09 00:54:30.000   45.709764187   13.763528213   322.4125   5   9   2.5657   1.8114   4.9529  -0.5719  -1.5691   0.8719   0.00    0.0
2017/09/09 00:55:00.000   45.709762224   13.763525690   323.3020   5   9   2.5664   1.8116   4.9578  -0.5862  -1.5684   0.9028   0.00    0.0
2017/09/09 00:55:30.000   45.709755147   13.763523335   322.7228   5   9   2.5672   1.8119   4.9625  -0.6002  -1.5677   0.9324   0.00    0.0
2017/09/09 00:56:00.000   45.709761319   13.763521753   322.6380   5   9   2.5680   1.8122   4.9671  -0.6137  -1.5668   0.9608   0.00    0.0
2017/09/09 00:56:30.000   45.709764082   13.763527737   322.1292   5   9   2.5689   1.8125   4.9715  -0.6268  -1.5658   0.9880   0.00    0.0
2017/09/09 00:57:00.000   45.709761279   13.763522192   322.6531   5   9   2.5699   1.8128   4.9757  -0.6396  -1.5647   1.0142   0.00    0.0
2017/09/09 00:57:30.000   45.709760651   13.763518231   321.4172   5   9   2.5709   1.8132   4.9798  -0.6520  -1.5635   1.0395   0.00    0.0
2017/09/09 00:58:00.000   45.709762106   13.763521806   321.2515   5   8   2.8569   1.8558   5.6750   0.2209  -1.1711   2.1232   0.00    0.0
2017/09/09 00:58:30.000   45.709764921   13.763525203   322.2788   5   8   2.8620   1.8551   5.6988   0.1728  -1.1684   2.1534   0.00    0.0
2017/09/09 00:59:00.000   45.709763923   13.763526189   321.9881   5   8   2.8672   1.8543   5.7225   0.1052  -1.1657   2.1832   0.00    0.0
2017/09/09 00:59:30.000   45.709756139   13.763523173   321.8718   5   8   2.8724   1.8537   5.7461  -0.0871  -1.1630   2.2126   0.00    0.0
2017/09/09 01:00:00.000   45.709757314   13.763517111   321.8209   5   8   2.7970   1.7988   5.6989   0.5245  -0.9722   2.1010   0.00    0.0
2017/09/09 01:00:30.000   45.709758983   13.763522765   322.0001   5   8   2.8028   1.7979   5.7235   0.5071  -0.9693   2.1324   0.00    0.0
2017/09/09 01:01:00.000   45.709760073   13.763523555   322.0865   5   8   2.8088   1.7970   5.7480   0.4891  -0.9666   2.1634   0.00    0.0
2017/09/09 01:01:30.000   45.709754459   13.763522357   321.1293   5   8   2.8148   1.7962   5.7724   0.4706  -0.9638   2.1939   0.00    0.0
2017/09/09 01:02:00.000   45.709759287   13.763529075   321.7355   5   8   2.8209   1.7955   5.7968   0.4513  -0.9612   2.2240   0.00    0.0
2017/09/09 01:02:30.000   45.709760415   13.763527237   321.9680   5   8   2.8270   1.7947   5.8210   0.4312  -0.9586   2.2536   0.00    0.0
2017/09/09 01:03:00.000   45.709760323   13.763526630   322.0476   5   8   2.8333   1.7941   5.8451   0.4101  -0.9560   2.2828   0.00    0.0
2017/09/09 01:03:30.000   45.709752634   13.763525626   321.5001   5   8   2.8395   1.7934   5.8690   0.3880  -0.9535   2.3114   0.00    0.0
2017/09/09 01:04:00.000   45.709759075   13.763526480   321.9102   5   8   2.8459   1.7929   5.8927   0.3647  -0.9510   2.3396   0.00    0.0
2017/09/09 01:04:30.000   45.709759274   13.763524551   322.5173   5   8   2.8522   1.7924   5.9162   0.3398  -0.9486   2.3673   0.00    0.0
2017/09/09 01:05:00.000   45.709760898   13.763523156   321.3644   5   8   2.8586   1.7919   5.9393   0.3131  -0.9462   2.3944   0.00    0.0
2017/09/09 01:05:30.000   45.709762081   13.763529267   322.6242   5   8   2.8650   1.7915   5.9622   0.2839  -0.9438   2.4210   0.00    0.0
2017/09/09 01:06:00.000   45.709753026   13.763523817   321.0506   5   8   2.8714   1.7911   5.9848   0.2515  -0.9414   2.4471   0.00    0.0
2017/09/09 01:06:30.000   45.709753750   13.763521797   320.4097   5   8   2.8778   1.7908   6.0070   0.2143  -0.9391   2.4726   0.00    0.0
2017/09/09 01:07:00.000   45.709756278   13.763526645   322.2815   5   8   2.8841   1.7905   6.0287   0.1694  -0.9367   2.4975   0.00    0.0
2017/09/09 01:07:30.000   45.709759620   13.763524941   321.5464   5   8   2.8905   1.7903   6.0501   0.1073  -0.9344   2.5218   0.00    0.0
2017/09/09 01:08:00.000   45.709755698   13.763528762   321.3988   5   8   2.8967   1.7901   6.0710  -0.0750  -0.9321   2.5455   0.00    0.0
2017/09/09 01:08:30.000   45.709754068   13.763526273   321.1803   5   8   2.9029   1.7900   6.0914  -0.1506  -0.9297   2.5686   0.00    0.0
2017/09/09 01:09:00.000   45.709758623   13.763523337   321.1031   5   8   2.9091   1.7899   6.1112  -0.1992  -0.9274   2.5910   0.00    0.0
2017/09/09 01:09:30.000   45.709756849   13.763524350   321.5738   5   8   2.9151   1.7899   6.1305  -0.2380  -0.9250   2.6127   0.00    0.0
2017/09/09 01:10:00.000   45.709762594   13.763519830   321.5859   5   8   2.9211   1.7899   6.1492  -0.2711  -0.9226   2.6337   0.00    0.0
2017/09/09 01:10:30.000   45.709753067   13.763517535   320.0844   5   8   2.9269   1.7900   6.1672  -0.3005  -0.9201   2.6540   0.00    0.0
2017/09/09 01:11:00.000   45.709759831   13.763519680   321.9660   5   8   2.9326   1.7901   6.1846  -0.3272  -0.9176   2.6736   0.00    0.0
2017/09/09 01:11:30.000   45.709757350   13.763517383   321.2517   5   8   2.9382   1.7903   6.2013  -0.3517  -0.9150   2.6924   0.00    0.0
2017/09/09 01:12:00.000   45.709760831   13.763519901   320.6727   5   8   2.9437   1.7905   6.2172  -0.3745  -0.9124   2.7104   0.00    0.0
2017/09/09 01:12:30.000   45.709760218   13.763520800   320.3804   5   8   2.9489   1.7908   6.2323  -0.3960  -0.9097   2.7276   0.00    0.0
2017/09/09 01:13:00.000   45.709758426   13.763528296   321.9811   5   8   2.9540   1.7911   6.2467  -0.4162  -0.9069   2.7441   0.00    0.0
2017/09/09 01:13:30.000   45.709758220   13.763521335   320.2639   5   8   2.9589   1.7915   6.2602  -0.4354  -0.9041   2.7596   0.00    0.0
2017/09/09 01:14:00.000   45.709760504   13.763521717   321.4920   5   8   2.9636   1.7919   6.2729  -0.4536  -0.9011   2.7744   0.00    0.0
2017/09/09 01:14:30.000   45.709757123   13.763522082   320.8842   5   8   2.9681   1.7924   6.2847  -0.4711  -0.8980   2.7882   0.00    0.0
2017/09/09 01:15:00.000   45.709757221   13.763522179   319.9921   5   8   2.9724   1.7929   6.2956  -0.4879  -0.8948   2.8012   0.00    0.0
2017/09/09 01:15:30.000   45.709751283   13.763521155   318.5832   5   8   2.9764   1.7935   6.3055  -0.5040  -0.8915   2.8132   0.00    0.0
2017/09/09 01:16:00.000   45.709760927   13.763525839   321.1882   5   8   2.9802   1.7941   6.3145  -0.5195  -0.8881   2.8244   0.00    0.0
2017/09/09 01:16:30.000   45.709755438   13.763520357   319.5310   5   8   2.9838   1.7947   6.3225  -0.5344  -0.8845   2.8346   0.00    0.0
2017/09/09 01:17:00.000   45.709749062   13.763519165   318.8317   5   8   2.9871   1.7954   6.3295  -0.5489  -0.8808   2.8438   0.00    0.0
2017/09/09 01:17:30.000   45.709756381   13.763523648   320.0432   5   8   2.9901   1.7962   6.3354  -0.5629  -0.8769   2.8521   0.00    0.0
2017/09/09 01:18:00.000   45.709754741   13.763522139   320.6203   5   8   2.9928   1.7970   6.3404  -0.5765  -0.8728   2.8594   0.00    0.0
2017/09/09 01:18:30.000   45.709756548   13.763522698   318.5602   5   8   2.9953   1.7979   6.3443  -0.5896  -0.8685   2.8658   0.00    0.0
2017/09/09 01:19:00.000   45.709753853   13.763527212   319.5335   5   8   2.9975   1.7988   6.3471  -0.6024  -0.8641   2.8711   0.00    0.0
2017/09/09 01:19:30.000   45.709757777   13.763524802   318.9185   5   8   2.9994   1.7997   6.3489  -0.6148  -0.8595   2.8755   0.00    0.0
2017/09/09 01:20:00.000   45.709749433   13.763529385   319.2770   5   8   3.0009   1.8007   6.3496  -0.6269  -0.8547   2.8789   0.00    0.0
2017/09/09 01:20:30.000   45.709753441   13.763523154   320.0521   5   8   3.0022   1.8018   6.3492  -0.6387  -0.8496   2.8813   0.00    0.0
2017/09/09 01:21:00.000   45.709757755   13.763526184   320.8867   5   8   3.0032   1.8029   6.3477  -0.6502  -0.8444   2.8826   0.00    0.0
2017/09/09 01:21:30.000   45.709751940   13.763521960   319.4811   5   8   3.0039   1.8040   6.3452  -0.6614  -0.8389   2.8830   0.00    0.0
2017/09/09 01:22:00.000   45.709754209   13.763525054   320.1280   5   8   3.0042   1.8052   6.3416  -0.6723  -0.8332   2.8823   0.00    0.0
2017/09/09 01:22:30.000   45.709756691   13.763525734   320.0596   5   8   3.0043   1.8065   6.3370  -0.6829  -0.8273   2.8807   0.00    0.0
2017/09/09 01:23:00.000   45.709752108   13.763522706   319.4101   5   8   3.0040   1.8078   6.3312  -0.6934  -0.8211   2.8781   0.00    0.0
2017/09/09 01:23:30.000   45.709751379   13.763521061   319.6637   5   8   3.0035   1.8091   6.3245  -0.7035  -0.8146   2.8744   0.00    0.0
2017/09/09 01:24:00.000   45.709750612   13.763523750   318.7185   5   8   3.0026   1.8106   6.3167  -0.7135  -0.8079   2.8698   0.00    0.0
2017/09/09 01:24:30.000   45.709757003   13.763519620   318.7077   5   8   3.0015   1.8120   6.3079  -0.7233  -0.8009   2.8642   0.00    0.0
2017/09/09 01:25:00.000   45.709750470   13.763526575   319.2029   5   8   3.0000   1.8135   6.2981  -0.7328  -0.7937   2.8577   0.00    0.0
2017/09/09 01:25:30.000   45.709754145   13.763524658   320.8392   5   8   2.9983   1.8151   6.2873  -0.7422  -0.7862   2.8502   0.00    0.0
2017/09/09 01:26:00.000   45.709754720   13.763525144   319.7202   5   8   2.9963   1.8167   6.2756  -0.7513  -0.7783   2.8417   0.00    0.0
2017/09/09 01:26:30.000   45.709755777   13.763524207   320.0213   5   8   2.9940   1.8183   6.2629  -0.7603  -0.7702   2.8324   0.00    0.0
2017/09/09 01:27:00.000   45.709757654   13.763520954   320.1250   5   8   2.9914   1.8200   6.2494  -0.7692  -0.7618   2.8221   0.00    0.0
2017/09/09 01:27:30.000   45.709755708   13.763525672   320.7009   5   8   2.9886   1.8218   6.2349  -0.7779  -0.7531   2.8109   0.00    0.0
2017/09/09 01:28:00.000   45.709756818   13.763525701   319.3383   5   8   2.9855   1.8236   6.2196  -0.7864  -0.7440   2.7988   0.00    0.0
2017/09/09 01:28:30.000   45.709755182   13.763518782   318.8351   5   8   2.9821   1.8255   6.2035  -0.7948  -0.7346   2.7859   0.00    0.0
2017/09/09 01:29:00.000   45.709754220   13.763521114   319.3487   5   8   2.9786   1.8274   6.1867  -0.8030  -0.7249   2.7721   0.00    0.0
2017/09/09 01:29:30.000   45.709753772   13.763522573   319.3482   5   8   2.9748   1.8294   6.1690  -0.8112  -0.7149   2.7575   0.00    0.0
2017/09/09 01:30:00.000   45.709753601   13.763526687   319.8978   5   8   2.9708   1.8314   6.1507  -0.8192  -0.7045   2.7421   0.00    0.0
2017/09/09 01:30:30.000   45.709752362   13.763519507   320.9818   5   7   3.2087   2.0740   7.4022   0.7081  -2.1216   1.5361   0.00    0.0
2017/09/09 01:31:00.000   45.709752531   13.763519791   320.9375   5   7   3.2005   2.0739   7.3990   0.6875  -2.1191   1.5115   0.00    0.0
2017/09/09 01:31:30.000   45.709754236   13.763523117   320.5564   5   7   3.1922   2.0739   7.3946   0.6666  -2.1162   1.4855   0.00    0.0
2017/09/09 01:32:00.000   45.709755477   13.763517494   320.8738   5   7   3.1840   2.0739   7.3891   0.6455  -2.1128   1.4581   0.00    0.0
2017/09/09 01:32:30.000   45.709752805   13.763518618   320.4043   5   7   3.1758   2.0739   7.3824   0.6239  -2.1088   1.4291   0.00    0.0
2017/09/09 01:33:00.000   45.709760278   13.763520343   319.4904   5   7   3.1677   2.0739   7.3746   0.6019  -2.1044   1.3986   0.00    0.0
2017/09/09 01:33:30.000   45.709755963   13.763520877   319.2591   5   7   3.1595   2.0740   7.3658   0.5795  -2.0996   1.3666   0.00    0.0
2017/09/09 01:34:00.000   45.709752228   13.763519083   320.7212   5   7   3.1514   2.0741   7.3559   0.5565  -2.0942   1.3329   0.00    0.0
2017/09/09 01:34:30.000   45.709747934   13.763517207   320.6824   5   7   3.1434   2.0742   7.3449   0.5328  -2.0883   1.2975   0.00    0.0
2017/09/09 01:35:00.000   45.709749240   13.763518484   321.3613   5   7   3.1354   2.0744   7.3330   0.5084  -2.0820   1.2604   0.00    0.0
2017/09/09 01:35:30.000   45.709751098   13.763522931   319.5397   5   7   3.1274   2.0746   7.3200   0.4831  -2.0752   1.2213   0.00    0.0
2017/09/09 01:36:00.000   45.709749664   13.763521283   321.1669   5   7   3.1196   2.0749   7.3061   0.4567  -2.0680   1.1803   0.00    0.0
2017/09/09 01:36:30.000   45.709753558   13.763526672   320.0914   5   7   3.1118   2.0752   7.2913   0.4291  -2.0603   1.1371   0.00    0.0
2017/09/09 01:37:00.000   45.709753524   13.763519720   319.7893   5   7   3.1040   2.0755   7.2755   0.3999  -2.0521   1.0917   0.00    0.0
2017/09/09 01:37:30.000   45.709753120   13.763521796   319.8372   5   7   3.0964   2.0759   7.2589   0.3687  -2.0434   1.0436   0.00    0.0
2017/09/09 01:38:00.000   45.709754997   13.763521254   320.1267   5   7   3.0888   2.0763   7.2415   0.3350  -2.0343   0.9927   0.00    0.0
2017/09/09 01:38:30.000   45.709754120   13.763516188   319.3089   5   7   3.0813   2.0767   7.2232   0.2979  -2.0248   0.9385   0.00    0.0
2017/09/09 01:39:00.000   45.709752008   13.763523436   319.4357   5   7   3.0739   2.0772   7.2042   0.2557  -2.0148   0.8806   0.00    0.0
2017/09/09 01:39:30.000   45.709749251   13.763522233   320.5476   5   7   3.0666   2.0777   7.1845   0.2056  -2.0044   0.8183   0.00    0.0
2017/09/09 01:40:00.000   45.709757899   13.763518228   320.6931   5   7   3.0594   2.0783   7.1640   0.1389  -1.9936   0.7504   0.00    0.0
2017/09/09 01:40:30.000   45.709751706   13.763516090   318.4850   5   7   3.0523   2.0789   7.1428  -0.0597  -1.9824   0.6755   0.00    0.0
2017/09/09 01:41:00.000   45.709756608   13.763518354   320.4316   5   7   3.0453   2.0796   7.1211  -0.1621  -1.9707   0.5909   0.00    0.0
2017/09/09 01:41:30.000   45.709757042   13.763519069   320.2602   5   7   3.0384   2.0803   7.0987  -0.2212  -1.9586   0.4920   0.00    0.0
2017/09/09 01:42:00.000   45.709755890   13.763523096   319.7993   5   7   3.0317   2.0811   7.0757  -0.2673  -1.9462   0.3673   0.00    0.0
2017/09/09 01:42:30.000   45.709759027   13.763519101   319.4314   5   7   3.0250   2.0819   7.0522  -0.3065  -1.9333   0.1669   0.00    0.0
2017/09/09 01:43:00.000   45.709762367   13.763517304   320.9873   5   7   3.0185   2.0828   7.0282  -0.3411  -1.9201  -0.2810   0.00    0.0
2017/09/09 01:43:30.000   45.709755727   13.763520973   320.0540   5   7   3.0121   2.0837   7.0036  -0.3725  -1.9065  -0.4306   0.00    0.0
2017/09/09 01:44:00.000   45.709755806   13.763523308   318.7297   5   7   3.0058   2.0847   6.9787  -0.4014  -1.8925  -0.5399   0.00    0.0
2017/09/09 01:44:30.000   45.709753137   13.763517272   320.6372   5   6   3.7605   2.7570  14.1601  -2.0670   4.3257  -5.3266   0.00    0.0
2017/09/09 01:45:00.000   45.709759839   13.763514970   318.0156   5   6   3.7701   2.7789  14.1815  -2.1003   4.3857  -5.3722   0.00    0.0
2017/09/09 01:45:30.000   45.709755071   13.763520483   321.1997   5   6   3.7800   2.8013  14.1993  -2.1336   4.4448  -5.4167   0.00    0.0
2017/09/09 01:46:00.000   45.709757751   13.763516129   318.2371   5   6   3.7902   2.8241  14.2136  -2.1670   4.5029  -5.4602   0.00    0.0
2017/09/09 01:46:30.000   45.709758197   13.763523216   319.8064   5   6   3.8006   2.8473  14.2245  -2.2003   4.5601  -5.5025   0.00    0.0
2017/09/09 01:47:00.000   45.709756391   13.763517985   319.1715   5   6   3.8112   2.8708  14.2319  -2.2336   4.6164  -5.5437   0.00    0.0
2017/09/09 01:47:30.000   45.709755047   13.763517376   318.7825   5   6   3.8220   2.8948  14.2359  -2.2669   4.6716  -5.5837   0.00    0.0
2017/09/09 01:48:00.000   45.709757291   13.763522302   319.9080   5   6   3.8330   2.9191  14.2365  -2.3001   4.7258  -5.6226   0.00    0.0
2017/09/09 01:48:30.000   45.709760976   13.763512565   316.7341   5   6   3.8441   2.9437  14.2338  -2.3332   4.7790  -5.6602   0.00    0.0
2017/09/09 01:49:00.000   45.709756995   13.763514814   319.4742   5   6   3.8554   2.9687  14.2279  -2.3663   4.8310  -5.6966   0.00    0.0
2017/09/09 01:49:30.000   45.709755012   13.763513247   317.2044   5   6   3.8669   2.9940  14.2188  -2.3992   4.8821  -5.7317   0.00    0.0
2017/09/09 01:50:00.000   45.709761337   13.763514121   316.8867   5   6   3.8784   3.0195  14.2067  -2.4320   4.9320  -5.7656   0.00    0.0
2017/09/09 01:50:30.000   45.709762770   13.763512497   316.8777   5   6   3.8900   3.0454  14.1915  -2.4647   4.9808  -5.7982   0.00    0.0
2017/09/09 01:51:00.000   45.709753537   13.763520001   320.1440   5   6   3.9016   3.0715  14.1734  -2.4972   5.0285  -5.8295   0.00    0.0
2017/09/09 01:51:30.000   45.709764329   13.763506036   317.3876   5   6   3.9133   3.0979  14.1525  -2.5296   5.0751  -5.8596   0.00    0.0
2017/09/09 01:52:00.000   45.709758459   13.763516955   319.0443   5   6   3.9250   3.1245  14.1288  -2.5618   5.1206  -5.8884   0.00    0.0
2017/09/09 01:52:30.000   45.709759000   13.763514520   319.0073   5   6   3.9368   3.1514  14.1025  -2.5938   5.1650  -5.9160   0.00    0.0
2017/09/09 01:53:00.000   45.709762259   13.763512351   316.9457   5   6   3.9485   3.1784  14.0736  -2.6257   5.2083  -5.9422   0.00    0.0
2017/09/09 01:53:30.000   45.709754173   13.763524733   320.9504   5   6   3.9602   3.2057  14.0423  -2.6573   5.2505  -5.9673   0.00    0.0
2017/09/09 01:54:00.000   45.709758885   13.763516515   318.8532   5   6   3.9718   3.2331  14.0085  -2.6887   5.2915  -5.9911   0.00    0.0
2017/09/09 01:54:30.000   45.709760170   13.763521040   320.1290   5   6   3.9835   3.2607  13.9726  -2.7198   5.3315  -6.0137   0.00    0.0
2017/09/09 01:55:00.000   45.709761463   13.763513966   318.1578   5   6   3.9950   3.2885  13.9344  -2.7508   5.3705  -6.0351   0.00    0.0
2017/09/09 01:55:30.000   45.709758220   13.763517978   318.8477   5   6   4.0065   3.3164  13.8942  -2.7815   5.4083  -6.0552   0.00    0.0
2017/09/09 01:56:00.000   45.709757998   13.763512793   318.1356   5   6   4.0178   3.3445  13.8519  -2.8119   5.4451  -6.0743   0.00    0.0
2017/09/09 01:56:30.000   45.709760915   13.763508120   316.5845   5   6   4.0291   3.3726  13.8078  -2.8421   5.4809  -6.0921   0.00    0.0
2017/09/09 01:57:00.000   45.709757415   13.763518845   319.7412   5   6   4.0402   3.4009  13.7620  -2.8721   5.5156  -6.1089   0.00    0.0
2017/09/09 01:57:30.000   45.709760905   13.763508007   318.0078   5   6   4.0513   3.4293  13.7144  -2.9018   5.5493  -6.1245   0.00    0.0
2017/09/09 01:58:00.000   45.709754964   13.763517029   319.4653   5   6   4.0622   3.4578  13.6652  -2.9312   5.5820  -6.1390   0.00    0.0
2017/09/09 01:58:30.000   45.709754918   13.763514023   318.6289   5   6   4.0729   3.4864  13.6146  -2.9603   5.6138  -6.1525   0.00    0.0
2017/09/09 01:59:00.000   45.709766342   13.763503021   315.7042   5   6   4.0836   3.5150  13.5625  -2.9892   5.6445  -6.1649   0.00    0.0
2017/09/09 01:59:30.000   45.709759771   13.763513579   318.4673   5   6   4.0940   3.5437  13.5090  -3.0177   5.6744  -6.1764   0.00    0.0
2017/09/09 02:00:00.000   45.709757413   13.763516817   318.8059   5   6   4.1043   3.5725  13.4543  -3.0460   5.7033  -6.1868   0.00    0.0
2017/09/09 02:00:30.000   45.709762339   13.763508732   318.7731   5   6   4.1145   3.6013  13.3985  -3.0740   5.7312  -6.1962   0.00    0.0
2017/09/09 02:01:00.000   45.709758105   13.763520048   319.2993   5   6   4.1244   3.6302  13.3415  -3.1018   5.7583  -6.2047   0.00    0.0
2017/09/09 02:01:30.000   45.709760990   13.763513796   319.2436   5   6   4.1342   3.6590  13.2835  -3.1292   5.7845  -6.2123   0.00    0.0
2017/09/09 02:02:00.000   45.709765501   13.763514025   318.2004   5   6   4.1438   3.6880  13.2246  -3.1563   5.8099  -6.2189   0.00    0.0
2017/09/09 02:02:30.000   45.709763721   13.763514569   318.1438   5   6   4.1532   3.7169  13.1648  -3.1832   5.8344  -6.2247   0.00    0.0
2017/09/09 02:03:00.000   45.709762251   13.763509251   317.8397   5   6   4.1625   3.7459  13.1042  -3.2097   5.8581  -6.2296   0.00    0.0
2017/09/09 02:03:30.000   45.709766578   13.763510633   318.4386   5   6   4.1715   3.7748  13.0428  -3.2360   5.8810  -6.2337   0.00    0.0
2017/09/09 02:04:00.000   45.709765184   13.763511286   318.5614   5   6   4.1803   3.8038  12.9808  -3.2619   5.9031  -6.2370   0.00    0.0
2017/09/09 02:04:30.000   45.709768049   13.763502321   315.7635   5   6   4.1890   3.8327  12.9181  -3.2876   5.9244  -6.2395   0.00    0.0
2017/09/09 02:05:00.000   45.709764423   13.763509099   316.2887   5   6   4.1974   3.8617  12.8548  -3.3129   5.9449  -6.2412   0.00    0.0
2017/09/09 02:05:30.000   45.709758503   13.763516118   319.3511   5   6   4.2056   3.8906  12.7910  -3.3380   5.9647  -6.2422   0.00    0.0
2017/09/09 02:06:00.000   45.709762998   13.763510131   318.9023   5   6   4.2136   3.9195  12.7268  -3.3628   5.9838  -6.2424   0.00    0.0
2017/09/09 02:06:30.000   45.709760462   13.763512523   317.5430   5   6   4.2214   3.9484  12.6621  -3.3872   6.0022  -6.2419   0.00    0.0
2017/09/09 02:07:00.000   45.709763886   13.763513332   318.4458   5   6   4.2290   3.9772  12.5970  -3.4114   6.0198  -6.2407   0.00    0.0
2017/09/09 02:07:30.000   45.709766501   13.763503287   317.7778   5   6   4.2363   4.0060  12.5315  -3.4352   6.0368  -6.2389   0.00    0.0
2017/09/09 02:08:00.000   45.709760658   13.763510738   317.4902   5   6   4.2435   4.0348  12.4658  -3.4588   6.0531  -6.2364   0.00    0.0
2017/09/09 02:08:30.000   45.709761391   13.763520198   318.8643   5   6   4.2504   4.0635  12.3998  -3.4821   6.0687  -6.2332   0.00    0.0
2017/09/09 02:09:00.000   45.709767060   13.763506353   317.9937   5   6   4.2571   4.0922  12.3336  -3.5050   6.0837  -6.2294   0.00    0.0
2017/09/09 02:09:30.000   45.709765673   13.763509147   317.3334   5   6   4.2636   4.1208  12.2671  -3.5276   6.0980  -6.2250   0.00    0.0
2017/09/09 02:10:00.000   45.709758823   13.763515028   320.1854   5   6   4.2699   4.1493  12.2005  -3.5500   6.1117  -6.2200   0.00    0.0
2017/09/09 02:10:30.000   45.709762241   13.763513988   319.2591   5   6   4.2759   4.1778  12.1337  -3.5720   6.1248  -6.2145   0.00    0.0
2017/09/09 02:11:00.000   45.709756229   13.763514107   319.7495   5   6   4.2817   4.2061  12.0669  -3.5938   6.1373  -6.2083   0.00    0.0
2017/09/09 02:11:30.000   45.709764822   13.763504307   317.6940   5   6   4.2873   4.2345  11.9999  -3.6152   6.1492  -6.2016   0.00    0.0
2017/09/09 02:12:00.000   45.709759560   13.763512370   319.3110   5   6   4.2926   4.2627  11.9329  -3.6363   6.1605  -6.1944   0.00    0.0
2017/09/09 02:12:30.000   45.709765586   13.763510435   318.0099   5   6   4.2977   4.2908  11.8658  -3.6571   6.1713  -6.1866   0.00    0.0
2017/09/09 02:13:00.000   45.709767017   13.763501979   317.9432   5   6   4.3026   4.3189  11.7987  -3.6776   6.1814  -6.1783   0.00    0.0
2017/09/09 02:13:30.000   45.709756844   13.763520787   322.4146   5   7   3.2031   2.4527   6.1599  -1.8273   1.5805  -3.0513   0.00    0.0
2017/09/09 02:14:00.000   45.709754629   13.763518304   320.6732   5   7   3.2008   2.4578   6.1459  -1.8348   1.6008  -3.0509   0.00    0.0
2017/09/09 02:14:30.000   45.709754520   13.763523883   321.7526   5   7   3.1986   2.4630   6.1318  -1.8423   1.6207  -3.0503   0.00    0.0
2017/09/09 02:15:00.000   45.709758560   13.763520204   321.4262   5   7   3.1963   2.4682   6.1177  -1.8497   1.6403  -3.0495   0.00    0.0
2017/09/09 02:15:30.000   45.709749077   13.763527012   322.4173   5   7   3.1941   2.4734   6.1034  -1.8570   1.6595  -3.0486   0.00    0.0
2017/09/09 02:16:00.000   45.709744493   13.763533086   322.0604   5   7   3.1918   2.4787   6.0891  -1.8642   1.6783  -3.0476   0.00    0.0
2017/09/09 02:16:30.000   45.709753794   13.763522238   321.9026   5   7   3.1896   2.4841   6.0747  -1.8714   1.6968  -3.0464   0.00    0.0
2017/09/09 02:17:00.000   45.709752376   13.763527555   321.9009   5   7   3.1874   2.4895   6.0602  -1.8786   1.7149  -3.0451   0.00    0.0
2017/09/09 02:17:30.000   45.709754273   13.763523714   321.6289   5   7   3.1851   2.4949   6.0456  -1.8856   1.7327  -3.0436   0.00    0.0
2017/09/09 02:18:00.000   45.709758159   13.763523378   321.5932   5   7   3.1828   2.5004   6.0310  -1.8926   1.7502  -3.0419   0.00    0.0
2017/09/09 02:18:30.000   45.709751191   13.763524455   322.6222   5   7   3.1806   2.5060   6.0163  -1.8996   1.7673  -3.0401   0.00    0.0
2017/09/09 02:19:00.000   45.709752656   13.763524192   322.4517   5   7   3.1783   2.5116   6.0015  -1.9064   1.7841  -3.0381   0.00    0.0
2017/09/09 02:19:30.000   45.709751123   13.763528844   322.7390   5   7   3.1760   2.5172   5.9866  -1.9132   1.8005  -3.0359   0.00    0.0
2017/09/09 02:20:00.000   45.709750317   13.763526774   320.7827   5   7   3.1737   2.5228   5.9716  -1.9199   1.8167  -3.0336   0.00    0.0
2017/09/09 02:20:30.000   45.709754154   13.763526851   322.7186   5   7   3.1714   2.5285   5.9566  -1.9266   1.8325  -3.0311   0.00    0.0
2017/09/09 02:21:00.000   45.709757496   13.763514144   320.2149   5   7   3.1691   2.5343   5.9415  -1.9331   1.8479  -3.0285   0.00    0.0
2017/09/09 02:21:30.000   45.709762077   13.763520256   320.4649   5   7   3.1668   2.5400   5.9263  -1.9396   1.8631  -3.0257   0.00    0.0
2017/09/09 02:22:00.000   45.709756667   13.763524296   321.4324   5   7   3.1645   2.5458   5.9111  -1.9460   1.8779  -3.0227   0.00    0.0
2017/09/09 02:22:30.000   45.709755500   13.763523403   322.2626   5   7   3.1621   2.5517   5.8957  -1.9524   1.8925  -3.0196   0.00    0.0
2017/09/09 02:23:00.000   45.709751206   13.763524218   320.8262   5   7   3.1597   2.5575   5.8803  -1.9586   1.9067  -3.0163   0.00    0.0
2017/09/09 02:23:30.000   45.709750402   13.763529895   322.2677   5   7   3.1573   2.5634   5.8649  -1.9648   1.9206  -3.0128   0.00    0.0
2017/09/09 02:24:00.000   45.709756926   13.763521062   321.3914   5   7   3.1549   2.5693   5.8493  -1.9709   1.9341  -3.0092   0.00    0.0
2017/09/09 02:24:30.000   45.709753145   13.763524638   321.8748   5   7   3.1525   2.5753   5.8337  -1.9769   1.9474  -3.0053   0.00    0.0
2017/09/09 02:25:00.000   45.709755954   13.763521814   320.4990   5   7   3.1501   2.5813   5.8181  -1.9828   1.9604  -3.0014   0.00    0.0
2017/09/09 02:25:30.000   45.709757195   13.763516846   319.9598   5   7   3.1476   2.5872   5.8024  -1.9886   1.9731  -2.9972   0.00    0.0
2017/09/09 02:26:00.000   45.709752273   13.763528431   321.5051   5   7   3.1451   2.5932   5.7866  -1.9943   1.9854  -2.9929   0.00    0.0
2017/09/09 02:26:30.000   45.709746556   13.763530936   320.3737   5   7   3.1427   2.5993   5.7708  -2.0000   1.9975  -2.9884   0.00    0.0
2017/09/09 02:27:00.000   45.709755071   13.763523529   320.8114   5   7   3.1401   2.6053   5.7549  -2.0056   2.0093  -2.9837   0.00    0.0
2017/09/09 02:27:30.000   45.709762178   13.763514637   321.2036   5   7   3.1376   2.6114   5.7389  -2.0110   2.0208  -2.9789   0.00    0.0
2017/09/09 02:28:00.000   45.709760756   13.763519229   321.1484   5   7   3.1351   2.6174   5.7230  -2.0164   2.0320  -2.9739   0.00    0.0
2017/09/09 02:28:30.000   45.709752829   13.763529003   322.2879   5   6   3.9779   3.0678   6.0423  -2.8260   1.0083  -1.9865   0.00    0.0
2017/09/09 02:29:00.000   45.709758007   13.763521923   321.5347   5   6   3.9682   3.0698   6.0280  -2.8235   1.0338  -1.9832   0.00    0.0
2017/09/09 02:29:30.000   45.709762684   13.763514521   320.6832   5   6   3.9584   3.0717   6.0135  -2.8208   1.0586  -1.9799   0.00    0.0
2017/09/09 02:30:00.000   45.709767392   13.763514392   320.1399   5   6   3.9485   3.0735   5.9989  -2.8180   1.0828  -1.9765   0.00    0.0
2017/09/09 02:30:30.000   45.709758557   13.763522479   321.7682   5   6   3.9386   3.0752   5.9843  -2.8151   1.1063  -1.9731   0.00    0.0
2017/09/09 02:31:00.000   45.709753698   13.763522199   321.5568   5   6   3.9286   3.0769   5.9695  -2.8120   1.1293  -1.9697   0.00    0.0
2017/09/09 02:31:30.000   45.709760608   13.763516438   320.8928   5   6   3.9186   3.0785   5.9547  -2.8088   1.1516  -1.9662   0.00    0.0
2017/09/09 02:32:00.000   45.709759343   13.763523093   321.3865   5   6   3.9085   3.0800   5.9398  -2.8054   1.1734  -1.9626   0.00    0.0
2017/09/09 02:32:30.000   45.709757633   13.763524516   322.0382   5   6   3.8984   3.0815   5.9248  -2.8019   1.1947  -1.9590   0.00    0.0
2017/09/09 02:33:00.000   45.709757042   13.763516001   320.7151   5   6   3.8882   3.0829   5.9097  -2.7983   1.2155  -1.9553   0.00    0.0
2017/09/09 02:33:30.000   45.709760088   13.763521812   321.1317   5   6   3.8780   3.0843   5.8946  -2.7945   1.2357  -1.9515   0.00    0.0
2017/09/09 02:34:00.000   45.709764044   13.763513983   320.8646   5   6   3.8677   3.0856   5.8794  -2.7906   1.2555  -1.9477   0.00    0.0
2017/09/09 02:34:30.000   45.709761354   13.763515467   322.0408   5   6   3.8574   3.0868   5.8641  -2.7866   1.2749  -1.9437   0.00    0.0
2017/09/09 02:35:00.000   45.709758409   13.763522188   321.1369   5   6   3.8470   3.0880   5.8488  -2.7825   1.2938  -1.9397   0.00    0.0
2017/09/09 02:35:30.000   45.709763247   13.763511860   320.1392   5   6   3.8366   3.0891   5.8334  -2.7782   1.3122  -1.9356   0.00    0.0
2017/09/09 02:36:00.000   45.709761777   13.763515933   322.2699   5   6   3.8262   3.0902   5.8179  -2.7738   1.3303  -1.9315   0.00    0.0
2017/09/09 02:36:30.000   45.709759758   13.763519232   322.2229   5   6   3.8158   3.0913   5.8025  -2.7694   1.3479  -1.9272   0.00    0.0
2017/09/09 02:37:00.000   45.709766875   13.763519460   321.4574   5   6   3.8053   3.0923   5.7869  -2.7648   1.3652  -1.9229   0.00    0.0
2017/09/09 02:37:30.000   45.709756804   13.763520635   321.7757   5   6   3.7948   3.0932   5.7714  -2.7601   1.3820  -1.9184   0.00    0.0
2017/09/09 02:38:00.000   45.709756405   13.763516245   321.3625   5   6   3.7843   3.0941   5.7558  -2.7553   1.3985  -1.9139   0.00    0.0
2017/09/09 02:38:30.000   45.709758153   13.763525043   321.9444   5   6   3.7737   3.0950   5.7401  -2.7504   1.4146  -1.9093   0.00    0.0
2017/09/09 02:39:00.000   45.709757409   13.763525021   321.6047   5   6   3.7632   3.0958   5.7245  -2.7454   1.4303  -1.9046   0.00    0.0
2017/09/09 02:39:30.000   45.709762657   13.763521039   320.9613   5   6   3.7526   3.0966   5.7088  -2.7402   1.4458  -1.8997   0.00    0.0
2017/09/09 02:40:00.000   45.709765183   13.763516429   321.6072   5   6   3.7420   3.0974   5.6931  -2.7350   1.4608  -1.8948   0.00    0.0
2017/09/09 02:40:30.000   45.709758448   13.763523021   322.2035   5   6   3.7314   3.0981   5.6773  -2.7297   1.4756  -1.8898   0.00    0.0
2017/09/09 02:41:00.000   45.709758922   13.763518515   320.9968   5   6   3.7208   3.0988   5.6616  -2.7244   1.4900  -1.8847   0.00    0.0
2017/09/09 02:41:30.000   45.709763259   13.763513512   320.9325   5   6   3.7102   3.0995   5.6458  -2.7189   1.5041  -1.8795   0.00    0.0
2017/09/09 02:42:00.000   45.709761526   13.763523502   322.1240   5   6   3.6996   3.1001   5.6301  -2.7133   1.5178  -1.8742   0.00    0.0
2017/09/09 02:42:30.000   45.709764588   13.763521827   321.8341   5   6   3.6891   3.1007   5.6143  -2.7077   1.5313  -1.8688   0.00    0.0
2017/09/09 02:43:00.000   45.709763981   13.763514085   320.7021   5   7   2.7327   2.4707   4.9171  -1.6385  -1.6225   1.7663   0.00    0.0
2017/09/09 02:43:30.000   45.709763414   13.763515811   320.7049   5   7   2.7270   2.4680   4.9080  -1.6310  -1.6042   1.7537   0.00    0.0
2017/09/09 02:44:00.000   45.709758679   13.763520500   321.0196   5   7   2.7213   2.4654   4.8990  -1.6235  -1.5858   1.7411   0.00    0.0
2017/09/09 02:44:30.000   45.709760185   13.763519122   321.1348   5   7   2.7158   2.4628   4.8899  -1.6161  -1.5673   1.7285   0.00    0.0
2017/09/09 02:45:00.000   45.709763440   13.763517426   320.4388   5   7   2.7103   2.4603   4.8808  -1.6087  -1.5485   1.7159   0.00    0.0
2017/09/09 02:45:30.000   45.709758518   13.763512931   320.2367   5   8   2.5073   1.9899   4.3236  -1.0486   0.9481   0.7890   0.00    0.0
2017/09/09 02:46:00.000   45.709761005   13.763521640   320.2160   5   8   2.5053   1.9898   4.3250  -1.0455   0.9569   0.7893   0.00    0.0
2017/09/09 02:46:30.000   45.709759100   13.763522450   320.9380   5   8   2.5033   1.9897   4.3263  -1.0424   0.9657   0.7896   0.00    0.0
2017/09/09 02:47:00.000   45.709759385   13.763518427   320.3106   5   8   2.5015   1.9897   4.3276  -1.0393   0.9743   0.7899   0.00    0.0
2017/09/09 02:47:30.000   45.709761366   13.763518422   320.1092   5   8   2.4997   1.9896   4.3288  -1.0362   0.9828   0.7903   0.00    0.0
2017/09/09 02:48:00.000   45.709758639   13.763523196   320.5497   5   8   2.4979   1.9897   4.3299  -1.0332   0.9913   0.7907   0.00    0.0
2017/09/09 02:48:30.000   45.709759759   13.763518964   320.7203   5   8   2.4963   1.9897   4.3310  -1.0301   0.9997   0.7911   0.00    0.0
2017/09/09 02:49:00.000   45.709768595   13.763512126   320.2036   5   8   2.4947   1.9898   4.3320  -1.0271   1.0079   0.7916   0.00    0.0
2017/09/09 02:49:30.000   45.709761803   13.763517274   320.5067   5   8   2.4932   1.9899   4.3329  -1.0241   1.0161   0.7921   0.00    0.0
2017/09/09 02:50:00.000   45.709760471   13.763520173   321.1764   5   8   2.4917   1.9901   4.3337  -1.0211   1.0243   0.7927   0.00    0.0
2017/09/09 02:50:30.000   45.709760902   13.763517588   320.5291   5   8   2.4903   1.9903   4.3344  -1.0181   1.0323   0.7933   0.00    0.0
2017/09/09 02:51:00.000   45.709764466   13.763513221   320.2637   5   8   2.4890   1.9905   4.3351  -1.0152   1.0403   0.7939   0.00    0.0
2017/09/09 02:51:30.000   45.709760427   13.763517892   320.1133   5   8   2.4878   1.9907   4.3357  -1.0122   1.0481   0.7946   0.00    0.0
2017/09/09 02:52:00.000   45.709756002   13.763520597   321.2822   5   8   2.4866   1.9910   4.3362  -1.0093   1.0559   0.7954   0.00    0.0
2017/09/09 02:52:30.000   45.709756804   13.763520558   321.1832   5   8   2.4855   1.9914   4.3366  -1.0064   1.0637   0.7961   0.00    0.0
2017/09/09 02:53:00.000   45.709758280   13.763526037   320.6484   5   8   2.4844   1.9917   4.3369  -1.0035   1.0713   0.7970   0.00    0.0
2017/09/09 02:53:30.000   45.709755923   13.763520798   320.5392   5   8   2.4834   1.9921   4.3372  -1.0006   1.0789   0.7979   0.00    0.0
2017/09/09 02:54:00.000   45.709755341   13.763522086   321.0132   5   8   2.4825   1.9925   4.3373  -0.9977   1.0863   0.7988   0.00    0.0
2017/09/09 02:54:30.000   45.709757400   13.763516685   320.4358   5   8   2.4817   1.9930   4.3374  -0.9948   1.0937   0.7998   0.00    0.0
2017/09/09 02:55:00.000   45.709753793   13.763523015   320.5786   5   8   2.4809   1.9935   4.3374  -0.9919   1.1011   0.8009   0.00    0.0
2017/09/09 02:55:30.000   45.709756864   13.763516745   320.3713   5   8   2.4802   1.9940   4.3373  -0.9891   1.1083   0.8020   0.00    0.0
2017/09/09 02:56:00.000   45.709759657   13.763509563   319.6813   5   8   2.4795   1.9945   4.3371  -0.9862   1.1155   0.8032   0.00    0.0
2017/09/09 02:56:30.000   45.709753668   13.763522113   320.4928   5   8   2.4789   1.9951   4.3368  -0.9834   1.1226   0.8045   0.00    0.0
2017/09/09 02:57:00.000   45.709756201   13.763513631   320.2070   5   8   2.4784   1.9957   4.3365  -0.9806   1.1296   0.8058   0.00    0.0
2017/09/09 02:57:30.000   45.709760397   13.763512234   320.2067   5   8   2.4779   1.9963   4.3360  -0.9777   1.1365   0.8071   0.00    0.0
2017/09/09 02:58:00.000   45.709760094   13.763517017   320.2359   5   8   2.4775   1.9970   4.3355  -0.9749   1.1434   0.8086   0.00    0.0
2017/09/09 02:58:30.000   45.709753712   13.763515963   320.4957   5   8   2.4772   1.9977   4.3349  -0.9721   1.1502   0.8100   0.00    0.0
2017/09/09 02:59:00.000   45.709755814   13.763523561   320.2365   5   8   2.4769   1.9984   4.3342  -0.9693   1.1570   0.8116   0.00    0.0
2017/09/09 02:59:30.000   45.709760820   13.763513383   320.5174   5   8   2.4767   1.9992   4.3334  -0.9665   1.1636   0.8132   0.00    0.0
2017/09/09 03:00:00.000   45.709755599   13.763520163   320.4805   5   8   2.4765   2.0000   4.3325  -0.9636   1.1702   0.8149   0.00    0.0
2017/09/09 03:00:30.000   45.709758295   13.763513914   320.2133   5   8   2.4764   2.0008   4.3316  -0.9608   1.1767   0.8167   0.00    0.0
2017/09/09 03:01:00.000   45.709756894   13.763515390   319.7867   5   8   2.4764   2.0017   4.3306  -0.9580   1.1831   0.8185   0.00    0.0
2017/09/09 03:01:30.000   45.709760032   13.763515856   320.1569   5   8   2.4765   2.0026   4.3295  -0.9552   1.1895   0.8204   0.00    0.0
2017/09/09 03:02:00.000   45.709754132   13.763515794   319.8880   5   8   2.4766   2.0035   4.3283  -0.9524   1.1958   0.8223   0.00    0.0
2017/09/09 03:02:30.000   45.709757606   13.763519626   320.4781   5   8   2.4767   2.0044   4.3271  -0.9496   1.2021   0.8244   0.00    0.0
2017/09/09 03:03:00.000   45.709760432   13.763513324   320.7790   5   8   2.4769   2.0054   4.3258  -0.9468   1.2082   0.8265   0.00    0.0
2017/09/09 03:03:30.000   45.709756350   13.763514796   318.9162   5   8   2.4772   2.0064   4.3244  -0.9441   1.2143   0.8286   0.00    0.0
2017/09/09 03:04:00.000   45.709759504   13.763518296   320.0044   5   8   2.4776   2.0074   4.3229  -0.9413   1.2204   0.8309   0.00    0.0
2017/09/09 03:04:30.000   45.709754754   13.763519234   319.6546   5   8   2.4780   2.0085   4.3214  -0.9385   1.2263   0.8332   0.00    0.0
2017/09/09 03:05:00.000   45.709761180   13.763509726   320.0602   5   8   2.4785   2.0095   4.3198  -0.9357   1.2322   0.8355   0.00    0.0
2017/09/09 03:05:30.000   45.709760445   13.763517530   320.1613   5   8   2.4790   2.0107   4.3181  -0.9329   1.2381   0.8380   0.00    0.0
2017/09/09 03:06:00.000   45.709763193   13.763514752   320.4268   5   8   2.4796   2.0118   4.3164  -0.9300   1.2438   0.8405   0.00    0.0
2017/09/09 03:06:30.000   45.709761448   13.763517220   320.3421   5   8   2.4803   2.0130   4.3146  -0.9272   1.2496   0.8431   0.00    0.0
2017/09/09 03:07:00.000   45.709761347   13.763515722   320.5977   5   8   2.4810   2.0142   4.3128  -0.9244   1.2552   0.8458   0.00    0.0
2017/09/09 03:07:30.000   45.709761836   13.763521394   320.7651   5   8   2.4818   2.0154   4.3109  -0.9216   1.2608   0.8485   0.00    0.0
2017/09/09 03:08:00.000   45.709758631   13.763519335   320.6266   5   8   2.4827   2.0167   4.3090  -0.9188   1.2663   0.8513   0.00    0.0
2017/09/09 03:08:30.000   45.709759994   13.763520165   320.9716   5   8   2.4836   2.0179   4.3070  -0.9160   1.2718   0.8542   0.00    0.0
2017/09/09 03:09:00.000   45.709760190   13.763516239   319.9015   5   8   2.4846   2.0192   4.3050  -0.9131   1.2772   0.8571   0.00    0.0
2017/09/09 03:09:30.000   45.709758294   13.763517179   320.0855   5   8   2.4857   2.0206   4.3029  -0.9103   1.2825   0.8601   0.00    0.0
2017/09/09 03:10:00.000   45.709760842   13.763517900   320.4985   5   9   2.2253   1.9267   4.1355  -0.3780   1.5436  -0.7520   0.00    0.0
2017/09/09 03:10:30.000   45.709760335   13.763517352   320.2798   5   9   2.2261   1.9276   4.1364  -0.3674   1.5465  -0.7411   0.00    0.0
2017/09/09 03:11:00.000   45.709757589   13.763520052   320.8487   5   8   2.5456   1.9702   4.4192   0.6084   1.3319  -1.5646   0.00    0.0
2017/09/09 03:11:30.000   45.709756039   13.763515773   319.9762   5   8   2.5456   1.9704   4.4236   0.6110   1.3356  -1.5626   0.00    0.0
2017/09/09 03:12:00.000   45.709756559   13.763510945   320.3527   5   8   2.5457   1.9707   4.4280   0.6135   1.3392  -1.5604   0.00    0.0
2017/09/09 03:12:30.000   45.709758141   13.763520250   320.7669   5   8   2.5458   1.9710   4.4323   0.6161   1.3428  -1.5580   0.00    0.0
2017/09/09 03:13:00.000   45.709757327   13.763517566   320.0987   5   8   2.5460   1.9713   4.4365   0.6187   1.3464  -1.5555   0.00    0.0
2017/09/09 03:13:30.000   45.709756920   13.763512648   319.7127   5   8   2.5462   1.9716   4.4406   0.6213   1.3500  -1.5527   0.00    0.0
2017/09/09 03:14:00.000   45.709757063   13.763517468   320.1738   5   8   2.5464   1.9719   4.4447   0.6239   1.3536  -1.5497   0.00    0.0
2017/09/09 03:14:30.000   45.709753966   13.763519883   320.3806   5   8   2.5467   1.9723   4.4486   0.6265   1.3571  -1.5466   0.00    0.0
2017/09/09 03:15:00.000   45.709757214   13.763521640   320.3305   5   8   2.5470   1.9728   4.4525   0.6291   1.3607  -1.5432   0.00    0.0
2017/09/09 03:15:30.000   45.709759586   13.763508410   319.7681   5   8   2.5473   1.9732   4.4563   0.6318   1.3643  -1.5397   0.00    0.0
2017/09/09 03:16:00.000   45.709758409   13.763515320   319.9189   5   8   2.5477   1.9737   4.4600   0.6344   1.3678  -1.5359   0.00    0.0
2017/09/09 03:16:30.000   45.709758834   13.763517542   319.6708   5   8   2.5481   1.9742   4.4637   0.6371   1.3714  -1.5319   0.00    0.0
2017/09/09 03:17:00.000   45.709759729   13.763513055   319.7706   5   8   2.5486   1.9747   4.4672   0.6397   1.3750  -1.5277   0.00    0.0
2017/09/09 03:17:30.000   45.709763066   13.763514486   320.5792   5   7   3.4704   2.1133   4.9793   1.4772   1.8834   1.6858   0.00    0.0
2017/09/09 03:18:00.000   45.709756657   13.763513729   319.9406   5   7   3.4734   2.1162   4.9999   1.4845   1.8978   1.7199   0.00    0.0
2017/09/09 03:18:30.000   45.709757896   13.763518488   320.3732   5   7   3.4765   2.1191   5.0208   1.4919   1.9122   1.7538   0.00    0.0
2017/09/09 03:19:00.000   45.709762990   13.763519799   321.2601   5   7   3.4798   2.1221   5.0419   1.4993   1.9267   1.7875   0.00    0.0
2017/09/09 03:19:30.000   45.709767717   13.763520379   320.8640   5   7   3.4831   2.1251   5.0633   1.5068   1.9413   1.8210   0.00    0.0
2017/09/09 03:20:00.000   45.709761662   13.763518467   321.2984   5   7   3.4866   2.1282   5.0849   1.5143   1.9560   1.8544   0.00    0.0
2017/09/09 03:20:30.000   45.709759781   13.763520483   320.5616   5   7   3.4901   2.1313   5.1068   1.5218   1.9707   1.8875   0.00    0.0
2017/09/09 03:21:00.000   45.709754194   13.763520143   320.7719   5   7   3.4938   2.1345   5.1289   1.5294   1.9856   1.9206   0.00    0.0
2017/09/09 03:21:30.000   45.709761535   13.763518437   319.8044   5   7   3.4976   2.1377   5.1512   1.5370   2.0004   1.9534   0.00    0.0
2017/09/09 03:22:00.000   45.709763792   13.763516940   321.1511   5   7   3.5015   2.1410   5.1738   1.5446   2.0154   1.9862   0.00    0.0
2017/09/09 03:22:30.000   45.709762441   13.763520806   320.8105   5   7   3.5055   2.1443   5.1965   1.5523   2.0304   2.0188   0.00    0.0
2017/09/09 03:23:00.000   45.709760532   13.763513170   320.8866   5   7   3.5096   2.1476   5.2195   1.5600   2.0454   2.0512   0.00    0.0
2017/09/09 03:23:30.000   45.709763833   13.763512006   320.5387   5   7   3.5139   2.1510   5.2428   1.5677   2.0606   2.0835   0.00    0.0
2017/09/09 03:24:00.000   45.709756504   13.763513706   319.9249   5   7   3.5182   2.1544   5.2662   1.5754   2.0757   2.1157   0.00    0.0
2017/09/09 03:24:30.000   45.709761616   13.763512893   320.3134   5   7   3.5226   2.1579   5.2898   1.5831   2.0909   2.1477   0.00    0.0
2017/09/09 03:25:00.000   45.709754410   13.763513546   320.7300   5   8   3.4025   2.0574   4.8468   1.7738   1.7302   2.6029   0.00    0.0
2017/09/09 03:25:30.000   45.709759018   13.763521571   321.8505   5   8   3.4106   2.0590   4.8701   1.7802   1.7433   2.6257   0.00    0.0
2017/09/09 03:26:00.000   45.709763569   13.763518312   321.0657   5   8   3.4188   2.0606   4.8935   1.7866   1.7565   2.6485   0.00    0.0
2017/09/09 03:26:30.000   45.709755665   13.763522515   319.8925   5   8   3.4270   2.0622   4.9171   1.7929   1.7697   2.6714   0.00    0.0
2017/09/09 03:27:00.000   45.709768458   13.763519044   321.6807   5   8   3.4352   2.0638   4.9409   1.7992   1.7829   2.6942   0.00    0.0
2017/09/09 03:27:30.000   45.709763613   13.763520990   321.5784   5   8   3.4435   2.0654   4.9648   1.8055   1.7960   2.7171   0.00    0.0
2017/09/09 03:28:00.000   45.709762189   13.763521093   321.6290   5   8   3.4519   2.0670   4.9888   1.8117   1.8091   2.7399   0.00    0.0
2017/09/09 03:28:30.000   45.709757380   13.763519645   321.0691   5   8   3.4603   2.0686   5.0130   1.8178   1.8222   2.7627   0.00    0.0
2017/09/09 03:29:00.000   45.709756492   13.763519678   320.9568   5   8   3.4687   2.0701   5.0372   1.8240   1.8352   2.7855   0.00    0.0
