% program   : RTKPOST-EX 2.5.0
% inp file  : D:\Academic\0 Research\000 In preparation\00 GPS positioning performance circular analysis during short-term fast-developing geomagnetic storms\Storm 1\trie0770.15d
% inp file  : D:\Academic\0 Research\000 In preparation\00 GPS positioning performance circular analysis during short-term fast-developing geomagnetic storms\Storm 1\brdc0770.15n
% obs start : 2015/03/18 00:00:00.0 GPST (week1836 259200.0s)
% obs end   : 2015/03/18 23:59:30.0 GPST (week1836 345570.0s)
% pos mode  : Single
% elev mask : 15.0 deg
% tidecorr  :
% ionos opt : Broadcast
% tropo opt : Saastamoinen
% ephemeris : Broadcast
% navi sys  : GPS
%
% (lat/lon/height=WGS84/ellipsoidal,Q=1:fix,2:float,3:sbas,4:dgps,5:single,6:ppp,ns=# of satellites)
%  GPST                  latitude(deg) longitude(deg)  height(m)   Q  ns   sdn(m)   sde(m)   sdu(m)  sdne(m)  sdeu(m)  sdun(m) age(s)  ratio
2015/03/18 00:00:00.000   45.709773653   13.763518720   322.9607   5   6   3.5792   3.0252   8.2176   2.2578  -2.9488  -1.6383   0.00    0.0
2015/03/18 00:00:30.000   45.709770341   13.763516497   323.8415   5   6   3.5726   3.0127   8.2512   2.2362  -2.9256  -1.5400   0.00    0.0
2015/03/18 00:01:00.000   45.709765254   13.763517006   323.9686   5   6   3.5666   3.0005   8.2860   2.2148  -2.9026  -1.4347   0.00    0.0
2015/03/18 00:01:30.000   45.709770680   13.763516628   321.7789   5   6   3.5610   2.9885   8.3219   2.1936  -2.8797  -1.3206   0.00    0.0
2015/03/18 00:02:00.000   45.709771504   13.763519606   323.9371   5   6   3.5558   2.9768   8.3589   2.1726  -2.8569  -1.1953   0.00    0.0
2015/03/18 00:02:30.000   45.709773217   13.763516818   323.2268   5   6   3.5511   2.9653   8.3970   2.1518  -2.8342  -1.0546   0.00    0.0
2015/03/18 00:03:00.000   45.709767601   13.763520045   324.1481   5   6   3.5468   2.9540   8.4363   2.1312  -2.8117  -0.8912   0.00    0.0
2015/03/18 00:03:30.000   45.709768553   13.763514869   324.0882   5   6   3.5430   2.9430   8.4767   2.1109  -2.7892  -0.6891   0.00    0.0
2015/03/18 00:04:00.000   45.709772627   13.763520968   322.3028   5   6   3.5396   2.9322   8.5182   2.0907  -2.7668  -0.3921   0.00    0.0
2015/03/18 00:04:30.000   45.709774288   13.763516891   320.7248   5   6   3.5366   2.9216   8.5608   2.0707  -2.7445   0.4112   0.00    0.0
2015/03/18 00:05:00.000   45.709770308   13.763519359   323.8931   5   6   3.5341   2.9112   8.6046   2.0508  -2.7222   0.7027   0.00    0.0
2015/03/18 00:05:30.000   45.709769307   13.763517450   323.3598   5   6   3.5319   2.9010   8.6494   2.0312  -2.6999   0.9058   0.00    0.0
2015/03/18 00:06:00.000   45.709768534   13.763513989   323.9303   5   6   3.5302   2.8910   8.6953   2.0117  -2.6776   1.0720   0.00    0.0
2015/03/18 00:06:30.000   45.709764465   13.763515474   322.6982   5   6   3.5289   2.8813   8.7423   1.9925  -2.6554   1.2166   0.00    0.0
2015/03/18 00:07:00.000   45.709769970   13.763516216   324.4181   5   6   3.5280   2.8717   8.7903   1.9734  -2.6331   1.3465   0.00    0.0
2015/03/18 00:07:30.000   45.709769741   13.763514789   324.3726   5   6   3.5276   2.8623   8.8394   1.9544  -2.6107   1.4658   0.00    0.0
2015/03/18 00:08:00.000   45.709768412   13.763517915   323.1335   5   6   3.5275   2.8532   8.8895   1.9357  -2.5883   1.5769   0.00    0.0
2015/03/18 00:08:30.000   45.709768761   13.763517430   323.2593   5   6   3.5278   2.8442   8.9406   1.9171  -2.5659   1.6813   0.00    0.0
2015/03/18 00:09:00.000   45.709766346   13.763519592   323.8163   5   6   3.5285   2.8354   8.9928   1.8987  -2.5433   1.7803   0.00    0.0
2015/03/18 00:09:30.000   45.709768753   13.763522133   325.6050   5   6   3.5296   2.8268   9.0459   1.8804  -2.5206   1.8748   0.00    0.0
2015/03/18 00:10:00.000   45.709766820   13.763516174   325.2931   5   6   3.5311   2.8184   9.0999   1.8623  -2.4978   1.9654   0.00    0.0
2015/03/18 00:10:30.000   45.709771625   13.763517397   324.1034   5   6   3.5329   2.8102   9.1549   1.8444  -2.4748   2.0526   0.00    0.0
2015/03/18 00:11:00.000   45.709765617   13.763518537   324.0124   5   6   3.5351   2.8022   9.2108   1.8267  -2.4516   2.1369   0.00    0.0
2015/03/18 00:11:30.000   45.709766361   13.763514953   323.9926   5   6   3.5377   2.7943   9.2676   1.8091  -2.4282   2.2185   0.00    0.0
2015/03/18 00:12:00.000   45.709772646   13.763511205   322.6902   5   6   3.5406   2.7867   9.3252   1.7917  -2.4046   2.2978   0.00    0.0
2015/03/18 00:12:30.000   45.709769684   13.763516298   323.9101   5   6   3.5438   2.7791   9.3836   1.7744  -2.3808   2.3749   0.00    0.0
2015/03/18 00:13:00.000   45.709768137   13.763514940   323.7364   5   6   3.5474   2.7718   9.4427   1.7573  -2.3566   2.4501   0.00    0.0
2015/03/18 00:13:30.000   45.709764412   13.763513015   323.0439   5   6   3.5513   2.7647   9.5026   1.7404  -2.3322   2.5235   0.00    0.0
2015/03/18 00:14:00.000   45.709767725   13.763518161   323.0828   5   6   3.5556   2.7577   9.5631   1.7237  -2.3074   2.5952   0.00    0.0
2015/03/18 00:14:30.000   45.709764768   13.763516594   323.8944   5   6   3.5601   2.7509   9.6243   1.7071  -2.2822   2.6654   0.00    0.0
2015/03/18 00:15:00.000   45.709765530   13.763518126   323.6131   5   6   3.5649   2.7442   9.6860   1.6907  -2.2567   2.7341   0.00    0.0
2015/03/18 00:15:30.000   45.709768423   13.763514503   324.9433   5   6   3.5700   2.7378   9.7482   1.6744  -2.2307   2.8014   0.00    0.0
2015/03/18 00:16:00.000   45.709769841   13.763514112   322.8658   5   6   3.5754   2.7314   9.8109   1.6584  -2.2042   2.8674   0.00    0.0
2015/03/18 00:16:30.000   45.709769780   13.763518229   324.8752   5   6   3.5810   2.7253   9.8739   1.6425  -2.1773   2.9321   0.00    0.0
2015/03/18 00:17:00.000   45.709765182   13.763515384   323.1841   5   6   3.5869   2.7193   9.9373   1.6267  -2.1498   2.9955   0.00    0.0
2015/03/18 00:17:30.000   45.709771194   13.763523136   324.3822   5   5   3.8422   3.2433  11.7050   2.2393  -3.9123   1.0348   0.00    0.0
2015/03/18 00:18:00.000   45.709767488   13.763522901   323.0653   5   6   3.5992   2.7079  10.0646   1.5958  -2.0930   3.1188   0.00    0.0
2015/03/18 00:18:30.000   45.709770240   13.763519080   324.1779   5   6   3.6057   2.7024  10.1284   1.5807  -2.0636   3.1786   0.00    0.0
2015/03/18 00:19:00.000   45.709767352   13.763518926   325.5189   5   6   3.6123   2.6970  10.1922   1.5657  -2.0336   3.2372   0.00    0.0
2015/03/18 00:19:30.000   45.709771068   13.763518156   325.9299   5   6   3.6191   2.6919  10.2559   1.5508  -2.0028   3.2946   0.00    0.0
2015/03/18 00:20:00.000   45.709768431   13.763518945   324.7791   5   6   3.6261   2.6869  10.3194   1.5362  -1.9712   3.3508   0.00    0.0
2015/03/18 00:20:30.000   45.709770805   13.763517765   323.6982   5   6   3.6331   2.6820  10.3826   1.5218  -1.9387   3.4058   0.00    0.0
2015/03/18 00:21:00.000   45.709770481   13.763516028   321.5594   5   6   3.6402   2.6773  10.4453   1.5075  -1.9053   3.4596   0.00    0.0
2015/03/18 00:21:30.000   45.709762598   13.763518906   324.4388   5   6   3.6474   2.6728  10.5075   1.4934  -1.8710   3.5121   0.00    0.0
2015/03/18 00:22:00.000   45.709768340   13.763520149   324.5492   5   6   3.6546   2.6684  10.5691   1.4795  -1.8356   3.5632   0.00    0.0
2015/03/18 00:22:30.000   45.709772661   13.763514673   323.3443   5   6   3.6619   2.6642  10.6299   1.4658  -1.7991   3.6131   0.00    0.0
2015/03/18 00:23:00.000   45.709767390   13.763518142   324.6021   5   6   3.6691   2.6602  10.6899   1.4522  -1.7614   3.6615   0.00    0.0
2015/03/18 00:23:30.000   45.709770488   13.763515030   323.3124   5   6   3.6763   2.6563  10.7488   1.4389  -1.7225   3.7086   0.00    0.0
2015/03/18 00:24:00.000   45.709769364   13.763516401   325.0276   5   6   3.6834   2.6526  10.8066   1.4257  -1.6822   3.7542   0.00    0.0
2015/03/18 00:24:30.000   45.709763589   13.763519918   324.1032   5   6   3.6905   2.6490  10.8631   1.4126  -1.6405   3.7983   0.00    0.0
2015/03/18 00:25:00.000   45.709765881   13.763518599   325.7579   5   6   3.6974   2.6456  10.9182   1.3998  -1.5972   3.8408   0.00    0.0
2015/03/18 00:25:30.000   45.709769009   13.763517498   324.5864   5   6   3.7042   2.6423  10.9717   1.3871  -1.5522   3.8817   0.00    0.0
2015/03/18 00:26:00.000   45.709767507   13.763520759   326.2413   5   6   3.7109   2.6393  11.0236   1.3745  -1.5054   3.9209   0.00    0.0
2015/03/18 00:26:30.000   45.709764999   13.763517764   325.0816   5   6   3.7173   2.6363  11.0737   1.3621  -1.4566   3.9585   0.00    0.0
2015/03/18 00:27:00.000   45.709766129   13.763519265   325.2421   5   6   3.7235   2.6336  11.1218   1.3499  -1.4057   3.9942   0.00    0.0
2015/03/18 00:27:30.000   45.709762254   13.763514987   324.8553   5   6   3.7295   2.6310  11.1678   1.3377  -1.3524   4.0281   0.00    0.0
2015/03/18 00:28:00.000   45.709766583   13.763517802   324.4669   5   6   3.7351   2.6285  11.2116   1.3257  -1.2964   4.0601   0.00    0.0
2015/03/18 00:28:30.000   45.709768593   13.763518866   324.1425   5   6   3.7405   2.6263  11.2531   1.3137  -1.2375   4.0902   0.00    0.0
2015/03/18 00:29:00.000   45.709771467   13.763520405   326.0818   5   6   3.7456   2.6241  11.2921   1.3019  -1.1752   4.1182   0.00    0.0
2015/03/18 00:29:30.000   45.709771371   13.763521319   324.2041   5   6   3.7503   2.6222  11.3285   1.2901  -1.1090   4.1443   0.00    0.0
2015/03/18 00:30:00.000   45.709766020   13.763516658   324.0026   5   6   3.7546   2.6204  11.3622   1.2784  -1.0382   4.1682   0.00    0.0
2015/03/18 00:30:30.000   45.709767534   13.763515309   324.2464   5   6   3.7585   2.6188  11.3931   1.2667  -0.9619   4.1899   0.00    0.0
2015/03/18 00:31:00.000   45.709766385   13.763517350   322.4658   5   6   3.7621   2.6173  11.4210   1.2550  -0.8787   4.2095   0.00    0.0
2015/03/18 00:31:30.000   45.709771005   13.763518799   326.4357   5   6   3.7651   2.6160  11.4459   1.2432  -0.7865   4.2268   0.00    0.0
2015/03/18 00:32:00.000   45.709766131   13.763520528   324.5954   5   6   3.7678   2.6149  11.4677   1.2315  -0.6818   4.2419   0.00    0.0
2015/03/18 00:32:30.000   45.709770107   13.763519900   324.9005   5   6   3.7699   2.6139  11.4863   1.2197  -0.5577   4.2546   0.00    0.0
2015/03/18 00:33:00.000   45.709766525   13.763516939   323.3019   5   6   3.7716   2.6131  11.5017   1.2078  -0.3967   4.2650   0.00    0.0
2015/03/18 00:33:30.000   45.709766853   13.763517027   324.3551   5   6   3.7728   2.6124  11.5137   1.1958  -0.0629   4.2731   0.00    0.0
2015/03/18 00:34:00.000   45.709766517   13.763520942   324.6714   5   6   3.7735   2.6120  11.5223   1.1837   0.3860   4.2787   0.00    0.0
2015/03/18 00:34:30.000   45.709768818   13.763520965   324.4358   5   6   3.7737   2.6116  11.5276   1.1714   0.5490   4.2820   0.00    0.0
2015/03/18 00:35:00.000   45.709770200   13.763520188   323.9050   5   6   3.7734   2.6115  11.5294   1.1589   0.6730   4.2829   0.00    0.0
2015/03/18 00:35:30.000   45.709772524   13.763519403   323.2536   5   6   3.7726   2.6115  11.5278   1.1461   0.7769   4.2813   0.00    0.0
2015/03/18 00:36:00.000   45.709772247   13.763525725   325.2097   5   6   3.7713   2.6116  11.5227   1.1331   0.8678   4.2774   0.00    0.0
2015/03/18 00:36:30.000   45.709765508   13.763519132   323.9429   5   6   3.7694   2.6119  11.5142   1.1198   0.9494   4.2710   0.00    0.0
2015/03/18 00:37:00.000   45.709769113   13.763517957   323.7718   5   6   3.7671   2.6124  11.5023   1.1062   1.0239   4.2623   0.00    0.0
2015/03/18 00:37:30.000   45.709765924   13.763519213   323.3492   5   6   3.7644   2.6130  11.4870   1.0921   1.0925   4.2512   0.00    0.0
2015/03/18 00:38:00.000   45.709763625   13.763516593   325.4565   5   6   3.7611   2.6138  11.4683   1.0777   1.1564   4.2378   0.00    0.0
2015/03/18 00:38:30.000   45.709768301   13.763518311   325.0100   5   6   3.7574   2.6147  11.4464   1.0628   1.2162   4.2221   0.00    0.0
2015/03/18 00:39:00.000   45.709761095   13.763515989   323.2304   5   6   3.7532   2.6158  11.4212   1.0475   1.2724   4.2041   0.00    0.0
2015/03/18 00:39:30.000   45.709762679   13.763512793   320.9196   5   6   3.7487   2.6171  11.3929   1.0316   1.3254   4.1839   0.00    0.0
2015/03/18 00:40:00.000   45.709767772   13.763511235   324.0249   5   6   3.7437   2.6185  11.3616   1.0151   1.3756   4.1615   0.00    0.0
2015/03/18 00:40:30.000   45.709762004   13.763515797   323.7782   5   6   3.7383   2.6200  11.3273   0.9980   1.4232   4.1369   0.00    0.0
2015/03/18 00:41:00.000   45.709769162   13.763517790   323.9570   5   6   3.7326   2.6217  11.2901   0.9802   1.4686   4.1103   0.00    0.0
2015/03/18 00:41:30.000   45.709765559   13.763519873   325.2852   5   6   3.7266   2.6236  11.2502   0.9617   1.5117   4.0816   0.00    0.0
2015/03/18 00:42:00.000   45.709765232   13.763515465   323.1093   5   6   3.7203   2.6256  11.2076   0.9424   1.5529   4.0510   0.00    0.0
2015/03/18 00:42:30.000   45.709766378   13.763522121   323.6325   5   6   3.7136   2.6277  11.1626   0.9222   1.5922   4.0184   0.00    0.0
2015/03/18 00:43:00.000   45.709765345   13.763529138   324.8815   5   6   3.7067   2.6300  11.1151   0.9011   1.6299   3.9840   0.00    0.0
2015/03/18 00:43:30.000   45.709762743   13.763522748   324.1386   5   6   3.6996   2.6325  11.0653   0.8790   1.6659   3.9478   0.00    0.0
2015/03/18 00:44:00.000   45.709764551   13.763523125   325.1800   5   6   3.6923   2.6350  11.0135   0.8558   1.7004   3.9098   0.00    0.0
2015/03/18 00:44:30.000   45.709759218   13.763524695   324.1671   5   6   3.6849   2.6378  10.9596   0.8314   1.7335   3.8702   0.00    0.0
2015/03/18 00:45:00.000   45.709765099   13.763526817   324.6557   5   6   3.6773   2.6406  10.9038   0.8058   1.7652   3.8289   0.00    0.0
2015/03/18 00:45:30.000   45.709763589   13.763519601   324.2450   5   6   3.6695   2.6437  10.8463   0.7786   1.7957   3.7862   0.00    0.0
2015/03/18 00:46:00.000   45.709766895   13.763519279   323.1148   5   6   3.6617   2.6468  10.7872   0.7499   1.8251   3.7419   0.00    0.0
2015/03/18 00:46:30.000   45.709767947   13.763512301   322.6753   5   6   3.6538   2.6501  10.7266   0.7194   1.8533   3.6961   0.00    0.0
2015/03/18 00:47:00.000   45.709768734   13.763516570   322.9122   5   6   3.6459   2.6536  10.6646   0.6868   1.8805   3.6490   0.00    0.0
2015/03/18 00:47:30.000   45.709768569   13.763514431   322.1175   5   6   3.6380   2.6572  10.6015   0.6519   1.9066   3.6006   0.00    0.0
2015/03/18 00:48:00.000   45.709767085   13.763520017   322.0796   5   6   3.6302   2.6609  10.5372   0.6142   1.9319   3.5509   0.00    0.0
2015/03/18 00:48:30.000   45.709763581   13.763518300   323.9729   5   6   3.6223   2.6648  10.4720   0.5732   1.9563   3.5000   0.00    0.0
2015/03/18 00:49:00.000   45.709769281   13.763522893   323.2489   5   6   3.6146   2.6688  10.4059   0.5281   1.9798   3.4479   0.00    0.0
2015/03/18 00:49:30.000   45.709766168   13.763522598   322.6898   5   6   3.6069   2.6730  10.3391   0.4778   2.0026   3.3947   0.00    0.0
2015/03/18 00:50:00.000   45.709766036   13.763517120   322.7706   5   6   3.5993   2.6773  10.2717   0.4204   2.0246   3.3404   0.00    0.0
2015/03/18 00:50:30.000   45.709763342   13.763521073   321.7858   5   6   3.5919   2.6818  10.2038   0.3525   2.0460   3.2850   0.00    0.0
2015/03/18 00:51:00.000   45.709762379   13.763517209   322.9749   5   6   3.5846   2.6864  10.1355   0.2661   2.0667   3.2286   0.00    0.0
2015/03/18 00:51:30.000   45.709763897   13.763516301   322.8257   5   7   3.4216   2.3993   6.2186  -1.1211  -2.3008   1.3365   0.00    0.0
2015/03/18 00:52:00.000   45.709770496   13.763514611   322.8858   5   7   3.4247   2.3968   6.2101  -1.1342  -2.2883   1.3314   0.00    0.0
2015/03/18 00:52:30.000   45.709765433   13.763514959   322.4394   5   7   3.4277   2.3943   6.2013  -1.1468  -2.2755   1.3255   0.00    0.0
2015/03/18 00:53:00.000   45.709767636   13.763513902   321.7242   5   7   3.4308   2.3918   6.1923  -1.1592  -2.2624   1.3189   0.00    0.0
2015/03/18 00:53:30.000   45.709762896   13.763518000   322.0371   5   7   3.4338   2.3894   6.1831  -1.1712  -2.2492   1.3114   0.00    0.0
2015/03/18 00:54:00.000   45.709756365   13.763517638   321.4719   5   7   3.4367   2.3870   6.1737  -1.1830  -2.2357   1.3031   0.00    0.0
2015/03/18 00:54:30.000   45.709765639   13.763517574   322.3124   5   7   3.4397   2.3846   6.1641  -1.1944  -2.2219   1.2941   0.00    0.0
2015/03/18 00:55:00.000   45.709762571   13.763519536   321.1726   5   7   3.4426   2.3823   6.1543  -1.2056  -2.2079   1.2842   0.00    0.0
2015/03/18 00:55:30.000   45.709760427   13.763515739   321.7554   5   7   3.4454   2.3800   6.1443  -1.2165  -2.1936   1.2735   0.00    0.0
2015/03/18 00:56:00.000   45.709767307   13.763516744   322.8500   5   7   3.4483   2.3778   6.1340  -1.2272  -2.1791   1.2619   0.00    0.0
2015/03/18 00:56:30.000   45.709760636   13.763519402   321.7155   5   7   3.4511   2.3756   6.1236  -1.2376  -2.1644   1.2495   0.00    0.0
2015/03/18 00:57:00.000   45.709758154   13.763523875   320.8098   5   7   3.4538   2.3734   6.1130  -1.2477  -2.1494   1.2362   0.00    0.0
2015/03/18 00:57:30.000   45.709760297   13.763514048   320.7610   5   7   3.4565   2.3713   6.1022  -1.2577  -2.1341   1.2221   0.00    0.0
2015/03/18 00:58:00.000   45.709756412   13.763520159   320.3500   5   7   3.4592   2.3692   6.0913  -1.2674  -2.1186   1.2071   0.00    0.0
2015/03/18 00:58:30.000   45.709763873   13.763521695   320.5224   5   7   3.4619   2.3671   6.0801  -1.2769  -2.1029   1.1911   0.00    0.0
2015/03/18 00:59:00.000   45.709766764   13.763519839   319.8973   5   7   3.4645   2.3651   6.0688  -1.2862  -2.0869   1.1742   0.00    0.0
2015/03/18 00:59:30.000   45.709758870   13.763514942   320.4711   5   7   3.4670   2.3632   6.0573  -1.2953  -2.0706   1.1564   0.00    0.0
2015/03/18 01:00:00.000   45.709761011   13.763514054   321.5012   5   7   3.6498   2.6210   6.6505  -1.3004  -2.5657  -0.8952   0.00    0.0
2015/03/18 01:00:30.000   45.709766125   13.763515317   319.4657   5   7   3.6499   2.6177   6.6427  -1.3112  -2.5488  -0.9194   0.00    0.0
2015/03/18 01:01:00.000   45.709762483   13.763516134   319.9467   5   7   3.6500   2.6144   6.6346  -1.3219  -2.5317  -0.9437   0.00    0.0
2015/03/18 01:01:30.000   45.709762342   13.763516596   320.8267   5   7   3.6500   2.6111   6.6262  -1.3323  -2.5142  -0.9680   0.00    0.0
2015/03/18 01:02:00.000   45.709762624   13.763517555   320.7664   5   7   3.6501   2.6079   6.6176  -1.3424  -2.4964  -0.9923   0.00    0.0
2015/03/18 01:02:30.000   45.709762377   13.763518048   320.0023   5   7   3.6502   2.6047   6.6088  -1.3523  -2.4782  -1.0166   0.00    0.0
2015/03/18 01:03:00.000   45.709760843   13.763514411   321.7891   5   7   3.6502   2.6015   6.5997  -1.3621  -2.4598  -1.0409   0.00    0.0
2015/03/18 01:03:30.000   45.709761222   13.763517617   320.6351   5   7   3.6502   2.5984   6.5904  -1.3716  -2.4411  -1.0652   0.00    0.0
2015/03/18 01:04:00.000   45.709766310   13.763518835   320.4583   5   7   3.6503   2.5953   6.5809  -1.3809  -2.4220  -1.0894   0.00    0.0
2015/03/18 01:04:30.000   45.709761223   13.763520421   320.1821   5   7   3.6503   2.5923   6.5711  -1.3900  -2.4026  -1.1135   0.00    0.0
2015/03/18 01:05:00.000   45.709758579   13.763518698   320.2857   5   7   3.6503   2.5893   6.5612  -1.3990  -2.3829  -1.1375   0.00    0.0
2015/03/18 01:05:30.000   45.709754981   13.763518308   320.6999   5   7   3.6503   2.5863   6.5510  -1.4078  -2.3630  -1.1614   0.00    0.0
2015/03/18 01:06:00.000   45.709758846   13.763514960   319.4495   5   7   3.6503   2.5834   6.5406  -1.4164  -2.3426  -1.1852   0.00    0.0
2015/03/18 01:06:30.000   45.709762387   13.763516835   320.8903   5   7   3.6503   2.5805   6.5300  -1.4249  -2.3220  -1.2088   0.00    0.0
2015/03/18 01:07:00.000   45.709762770   13.763508426   320.5279   5   7   3.6503   2.5777   6.5192  -1.4332  -2.3011  -1.2323   0.00    0.0
2015/03/18 01:07:30.000   45.709759969   13.763518197   319.5403   5   7   3.6502   2.5749   6.5082  -1.4413  -2.2798  -1.2556   0.00    0.0
2015/03/18 01:08:00.000   45.709762558   13.763512148   320.5946   5   7   3.6502   2.5722   6.4970  -1.4494  -2.2583  -1.2787   0.00    0.0
2015/03/18 01:08:30.000   45.709757834   13.763519647   320.1082   5   7   3.6501   2.5695   6.4856  -1.4573  -2.2364  -1.3017   0.00    0.0
2015/03/18 01:09:00.000   45.709762229   13.763513730   319.4429   5   7   3.6500   2.5669   6.4741  -1.4651  -2.2142  -1.3244   0.00    0.0
2015/03/18 01:09:30.000   45.709762571   13.763515106   319.5036   5   7   3.6500   2.5644   6.4624  -1.4727  -2.1917  -1.3470   0.00    0.0
2015/03/18 01:10:00.000   45.709761513   13.763516204   319.0510   5   7   3.6498   2.5619   6.4505  -1.4803  -2.1689  -1.3693   0.00    0.0
2015/03/18 01:10:30.000   45.709762919   13.763511503   319.4768   5   7   3.6497   2.5595   6.4384  -1.4877  -2.1458  -1.3914   0.00    0.0
2015/03/18 01:11:00.000   45.709760248   13.763522153   319.4787   5   7   3.6496   2.5571   6.4262  -1.4950  -2.1224  -1.4133   0.00    0.0
2015/03/18 01:11:30.000   45.709760152   13.763514993   319.4378   5   7   3.6494   2.5549   6.4139  -1.5023  -2.0986  -1.4349   0.00    0.0
2015/03/18 01:12:00.000   45.709760417   13.763509347   319.9114   5   7   3.6493   2.5526   6.4014  -1.5094  -2.0745  -1.4563   0.00    0.0
2015/03/18 01:12:30.000   45.709760421   13.763512655   319.2481   5   7   3.6491   2.5505   6.3887  -1.5164  -2.0501  -1.4774   0.00    0.0
2015/03/18 01:13:00.000   45.709763461   13.763511491   320.0179   5   7   3.6489   2.5484   6.3760  -1.5234  -2.0253  -1.4983   0.00    0.0
2015/03/18 01:13:30.000   45.709759331   13.763512091   318.8345   5   7   3.6486   2.5464   6.3631  -1.5302  -2.0003  -1.5189   0.00    0.0
2015/03/18 01:14:00.000   45.709761856   13.763510635   319.1620   5   7   3.6484   2.5445   6.3500  -1.5370  -1.9749  -1.5392   0.00    0.0
2015/03/18 01:14:30.000   45.709761864   13.763514305   319.4625   5   7   3.6481   2.5427   6.3369  -1.5437  -1.9491  -1.5593   0.00    0.0
2015/03/18 01:15:00.000   45.709769697   13.763505902   319.6440   5   7   3.6478   2.5409   6.3236  -1.5503  -1.9231  -1.5790   0.00    0.0
2015/03/18 01:15:30.000   45.709762658   13.763511653   320.0111   5   7   3.6475   2.5392   6.3103  -1.5569  -1.8966  -1.5985   0.00    0.0
2015/03/18 01:16:00.000   45.709762738   13.763510752   319.9276   5   7   3.6472   2.5376   6.2968  -1.5633  -1.8699  -1.6178   0.00    0.0
2015/03/18 01:16:30.000   45.709765968   13.763509218   320.7408   5   7   3.6468   2.5361   6.2832  -1.5697  -1.8427  -1.6367   0.00    0.0
2015/03/18 01:17:00.000   45.709758596   13.763516728   319.6974   5   7   3.6464   2.5346   6.2696  -1.5761  -1.8152  -1.6553   0.00    0.0
2015/03/18 01:17:30.000   45.709764912   13.763509645   318.7130   5   7   3.6460   2.5333   6.2558  -1.5824  -1.7873  -1.6736   0.00    0.0
2015/03/18 01:18:00.000   45.709763048   13.763509233   320.3493   5   7   3.6456   2.5320   6.2420  -1.5886  -1.7591  -1.6917   0.00    0.0
2015/03/18 01:18:30.000   45.709766985   13.763513127   319.5952   5   7   3.6451   2.5308   6.2281  -1.5947  -1.7304  -1.7094   0.00    0.0
2015/03/18 01:19:00.000   45.709761253   13.763516315   320.8336   5   7   3.6446   2.5297   6.2141  -1.6008  -1.7013  -1.7268   0.00    0.0
2015/03/18 01:19:30.000   45.709767618   13.763510763   319.5506   5   7   3.6441   2.5287   6.2000  -1.6068  -1.6718  -1.7439   0.00    0.0
2015/03/18 01:20:00.000   45.709767269   13.763509158   319.5743   5   7   3.6435   2.5277   6.1859  -1.6128  -1.6419  -1.7607   0.00    0.0
2015/03/18 01:20:30.000   45.709765433   13.763514244   320.4197   5   7   3.6429   2.5269   6.1717  -1.6187  -1.6116  -1.7772   0.00    0.0
2015/03/18 01:21:00.000   45.709764434   13.763514932   319.9304   5   7   3.6423   2.5262   6.1575  -1.6245  -1.5807  -1.7934   0.00    0.0
2015/03/18 01:21:30.000   45.709765228   13.763511253   320.0757   5   7   3.6416   2.5255   6.1431  -1.6303  -1.5494  -1.8093   0.00    0.0
2015/03/18 01:22:00.000   45.709768325   13.763511373   320.4504   5   7   3.6409   2.5249   6.1288  -1.6360  -1.5176  -1.8248   0.00    0.0
2015/03/18 01:22:30.000   45.709767329   13.763503543   319.7477   5   7   3.6401   2.5244   6.1144  -1.6417  -1.4852  -1.8400   0.00    0.0
2015/03/18 01:23:00.000   45.709765609   13.763512358   320.7075   5   7   3.6393   2.5241   6.1000  -1.6473  -1.4523  -1.8549   0.00    0.0
2015/03/18 01:23:30.000   45.709763822   13.763512404   319.4511   5   7   3.6385   2.5238   6.0855  -1.6529  -1.4188  -1.8695   0.00    0.0
2015/03/18 01:24:00.000   45.709768491   13.763510441   319.3199   5   7   3.6376   2.5236   6.0710  -1.6584  -1.3846  -1.8838   0.00    0.0
2015/03/18 01:24:30.000   45.709768952   13.763509201   318.9936   5   7   3.6367   2.5234   6.0564  -1.6638  -1.3498  -1.8978   0.00    0.0
2015/03/18 01:25:00.000   45.709765492   13.763513832   319.5494   5   7   3.6358   2.5234   6.0419  -1.6692  -1.3143  -1.9114   0.00    0.0
2015/03/18 01:25:30.000   45.709768020   13.763511186   319.7027   5   7   3.6348   2.5235   6.0273  -1.6746  -1.2780  -1.9247   0.00    0.0
2015/03/18 01:26:00.000   45.709764603   13.763506875   320.3772   5   7   3.6337   2.5236   6.0126  -1.6798  -1.2409  -1.9377   0.00    0.0
2015/03/18 01:26:30.000   45.709765382   13.763510913   319.2317   5   7   3.6326   2.5239   5.9980  -1.6851  -1.2030  -1.9504   0.00    0.0
2015/03/18 01:27:00.000   45.709770111   13.763505487   319.6570   5   7   3.6314   2.5242   5.9834  -1.6902  -1.1640  -1.9627   0.00    0.0
2015/03/18 01:27:30.000   45.709766235   13.763510625   319.9788   5   7   3.6302   2.5246   5.9687  -1.6953  -1.1240  -1.9748   0.00    0.0
2015/03/18 01:28:00.000   45.709763298   13.763513108   319.6765   5   8   3.4151   2.3025   5.1154  -1.2722  -2.0811  -0.4539   0.00    0.0
2015/03/18 01:28:30.000   45.709760750   13.763508906   320.1493   5   8   3.4098   2.2975   5.1065  -1.2684  -2.0651  -0.4852   0.00    0.0
2015/03/18 01:29:00.000   45.709765378   13.763508947   320.1762   5   8   3.4045   2.2925   5.0975  -1.2646  -2.0490  -0.5145   0.00    0.0
2015/03/18 01:29:30.000   45.709762789   13.763514239   319.7115   5   8   3.3991   2.2877   5.0885  -1.2606  -2.0327  -0.5421   0.00    0.0
2015/03/18 01:30:00.000   45.709769465   13.763503777   320.5087   5   8   3.3937   2.2828   5.0795  -1.2567  -2.0164  -0.5683   0.00    0.0
2015/03/18 01:30:30.000   45.709768646   13.763514005   320.7229   5   8   3.3883   2.2781   5.0705  -1.2527  -1.9999  -0.5932   0.00    0.0
2015/03/18 01:31:00.000   45.709762221   13.763511404   321.2917   5   8   3.3829   2.2734   5.0615  -1.2486  -1.9834  -0.6169   0.00    0.0
2015/03/18 01:31:30.000   45.709765052   13.763505447   320.8234   5   8   3.3775   2.2687   5.0526  -1.2445  -1.9667  -0.6395   0.00    0.0
2015/03/18 01:32:00.000   45.709767447   13.763511130   320.6365   5   8   3.3720   2.2641   5.0436  -1.2403  -1.9500  -0.6613   0.00    0.0
2015/03/18 01:32:30.000   45.709768068   13.763512763   320.2861   5   8   3.3666   2.2596   5.0346  -1.2362  -1.9331  -0.6821   0.00    0.0
2015/03/18 01:33:00.000   45.709763280   13.763516236   320.9554   5   8   3.3611   2.2552   5.0257  -1.2319  -1.9161  -0.7022   0.00    0.0
2015/03/18 01:33:30.000   45.709764963   13.763515761   320.8487   5   8   3.3556   2.2509   5.0168  -1.2277  -1.8991  -0.7215   0.00    0.0
2015/03/18 01:34:00.000   45.709776203   13.763508210   321.4553   5   9   2.8524   2.2305   4.6778  -1.0129  -1.7500  -1.9207   0.00    0.0
2015/03/18 01:34:30.000   45.709776881   13.763509530   321.7340   5   9   2.8475   2.2273   4.6759  -1.0157  -1.7374  -1.9174   0.00    0.0
2015/03/18 01:35:00.000   45.709772944   13.763512759   322.7500   5   8   2.9071   2.6986   5.5991  -0.3267  -2.7724  -2.3538   0.00    0.0
2015/03/18 01:35:30.000   45.709775307   13.763498886   323.5305   5   8   2.9010   2.6916   5.5941  -0.3562  -2.7584  -2.3459   0.00    0.0
2015/03/18 01:36:00.000   45.709778090   13.763506375   322.4376   5   8   2.8949   2.6846   5.5890  -0.3833  -2.7442  -2.3379   0.00    0.0
2015/03/18 01:36:30.000   45.709772827   13.763506147   322.5900   5   8   2.8888   2.6776   5.5837  -0.4085  -2.7298  -2.3297   0.00    0.0
2015/03/18 01:37:00.000   45.709773545   13.763505006   321.5199   5   8   2.8828   2.6706   5.5782  -0.4320  -2.7153  -2.3215   0.00    0.0
2015/03/18 01:37:30.000   45.709770939   13.763502843   322.7055   5   8   2.8769   2.6637   5.5726  -0.4542  -2.7007  -2.3131   0.00    0.0
2015/03/18 01:38:00.000   45.709768674   13.763502566   322.7321   5   8   2.8709   2.6568   5.5669  -0.4752  -2.6858  -2.3047   0.00    0.0
2015/03/18 01:38:30.000   45.709768917   13.763511441   323.1141   5   8   2.8651   2.6499   5.5610  -0.4952  -2.6708  -2.2961   0.00    0.0
2015/03/18 01:39:00.000   45.709773944   13.763506007   322.3020   5   8   2.8592   2.6431   5.5549  -0.5142  -2.6556  -2.2874   0.00    0.0
2015/03/18 01:39:30.000   45.709771884   13.763500212   322.4294   5   8   2.8534   2.6363   5.5487  -0.5325  -2.6403  -2.2786   0.00    0.0
2015/03/18 01:40:00.000   45.709770011   13.763503759   323.2086   5   8   2.8476   2.6295   5.5424  -0.5500  -2.6247  -2.2697   0.00    0.0
2015/03/18 01:40:30.000   45.709764673   13.763507829   322.7854   5   8   2.8419   2.6227   5.5359  -0.5668  -2.6090  -2.2607   0.00    0.0
2015/03/18 01:41:00.000   45.709768625   13.763507354   321.8086   5   8   2.8361   2.6160   5.5293  -0.5831  -2.5932  -2.2516   0.00    0.0
2015/03/18 01:41:30.000   45.709768330   13.763513123   320.4066   5   9   2.7858   2.0376   4.7676   0.6768  -1.4486  -2.5347   0.00    0.0
2015/03/18 01:42:00.000   45.709777971   13.763510944   320.3834   5   9   2.7794   2.0344   4.7697   0.6656  -1.4360  -2.5270   0.00    0.0
2015/03/18 01:42:30.000   45.709773689   13.763515692   321.2222   5   9   2.7729   2.0313   4.7718   0.6543  -1.4232  -2.5192   0.00    0.0
2015/03/18 01:43:00.000   45.709767409   13.763511584   321.7094   5   9   2.7665   2.0283   4.7738   0.6430  -1.4103  -2.5113   0.00    0.0
2015/03/18 01:43:30.000   45.709767289   13.763518042   320.8166   5   9   2.7602   2.0253   4.7757   0.6315  -1.3972  -2.5032   0.00    0.0
2015/03/18 01:44:00.000   45.709774483   13.763518561   320.4291   5   9   2.7538   2.0224   4.7776   0.6198  -1.3839  -2.4951   0.00    0.0
2015/03/18 01:44:30.000   45.709775500   13.763513770   320.2462   5   9   2.7475   2.0196   4.7794   0.6081  -1.3705  -2.4868   0.00    0.0
2015/03/18 01:45:00.000   45.709766722   13.763511742   321.4185   5   9   2.7413   2.0168   4.7812   0.5962  -1.3570  -2.4784   0.00    0.0
2015/03/18 01:45:30.000   45.709764621   13.763516324   321.4306   5   9   2.7351   2.0141   4.7829   0.5842  -1.3432  -2.4698   0.00    0.0
2015/03/18 01:46:00.000   45.709768415   13.763514513   321.6621   5   9   2.7289   2.0115   4.7845   0.5720  -1.3293  -2.4612   0.00    0.0
2015/03/18 01:46:30.000   45.709771356   13.763518471   321.1755   5   9   2.7227   2.0089   4.7861   0.5597  -1.3152  -2.4524   0.00    0.0
2015/03/18 01:47:00.000   45.709766251   13.763512782   321.8723   5   9   2.7166   2.0064   4.7876   0.5472  -1.3008  -2.4435   0.00    0.0
2015/03/18 01:47:30.000   45.709766418   13.763518075   320.9510   5   9   2.7105   2.0039   4.7890   0.5346  -1.2863  -2.4345   0.00    0.0
2015/03/18 01:48:00.000   45.709767025   13.763518275   321.0081   5   9   2.7045   2.0015   4.7904   0.5217  -1.2716  -2.4254   0.00    0.0
2015/03/18 01:48:30.000   45.709770561   13.763520736   320.9724   5   9   2.6985   1.9992   4.7917   0.5087  -1.2566  -2.4161   0.00    0.0
2015/03/18 01:49:00.000   45.709769554   13.763520307   320.9282   5   9   2.6926   1.9970   4.7929   0.4954  -1.2414  -2.4068   0.00    0.0
2015/03/18 01:49:30.000   45.709765812   13.763517676   321.9442   5   9   2.6867   1.9948   4.7941   0.4820  -1.2260  -2.3973   0.00    0.0
2015/03/18 01:50:00.000   45.709771931   13.763516852   321.4846   5   9   2.6809   1.9927   4.7952   0.4682  -1.2103  -2.3877   0.00    0.0
2015/03/18 01:50:30.000   45.709771260   13.763519732   320.5554   5   9   2.6751   1.9906   4.7962   0.4542  -1.1944  -2.3780   0.00    0.0
2015/03/18 01:51:00.000   45.709766725   13.763517073   321.9153   5   9   2.6693   1.9886   4.7972   0.4399  -1.1782  -2.3682   0.00    0.0
2015/03/18 01:51:30.000   45.709766060   13.763518030   321.1174   5   9   2.6636   1.9867   4.7981   0.4253  -1.1617  -2.3582   0.00    0.0
2015/03/18 01:52:00.000   45.709775188   13.763515543   320.6100   5   9   2.6580   1.9848   4.7990   0.4103  -1.1449  -2.3482   0.00    0.0
2015/03/18 01:52:30.000   45.709766821   13.763515736   321.0609   5   9   2.6524   1.9830   4.7998   0.3950  -1.1279  -2.3381   0.00    0.0
2015/03/18 01:53:00.000   45.709770901   13.763511284   320.7617   5   9   2.6469   1.9813   4.8005   0.3792  -1.1104  -2.3278   0.00    0.0
2015/03/18 01:53:30.000   45.709768805   13.763515095   321.1659   5   9   2.6414   1.9797   4.8012   0.3629  -1.0927  -2.3174   0.00    0.0
2015/03/18 01:54:00.000   45.709767453   13.763512093   320.7444   5   9   2.6360   1.9781   4.8018   0.3460  -1.0746  -2.3070   0.00    0.0
2015/03/18 01:54:30.000   45.709767653   13.763514037   320.7272   5   9   2.6306   1.9765   4.8023   0.3285  -1.0562  -2.2964   0.00    0.0
2015/03/18 01:55:00.000   45.709765278   13.763513065   321.4259   5   9   2.6253   1.9751   4.8028   0.3102  -1.0373  -2.2857   0.00    0.0
2015/03/18 01:55:30.000   45.709763491   13.763515731   321.2678   5   9   2.6201   1.9737   4.8033   0.2910  -1.0180  -2.2749   0.00    0.0
2015/03/18 01:56:00.000   45.709769244   13.763515604   320.0602   5   9   2.6149   1.9724   4.8037   0.2708  -0.9983  -2.2640   0.00    0.0
2015/03/18 01:56:30.000   45.709763762   13.763512598   321.1095   5   9   2.6098   1.9711   4.8040   0.2491  -0.9781  -2.2530   0.00    0.0
2015/03/18 01:57:00.000   45.709767991   13.763517224   321.3077   5   9   2.6048   1.9700   4.8043   0.2258  -0.9574  -2.2419   0.00    0.0
2015/03/18 01:57:30.000   45.709764904   13.763514234   320.8777   5   9   2.5998   1.9689   4.8045   0.2001  -0.9362  -2.2307   0.00    0.0
2015/03/18 01:58:00.000   45.709770161   13.763510870   322.3663   5   9   2.5949   1.9678   4.8047   0.1710  -0.9144  -2.2194   0.00    0.0
2015/03/18 01:58:30.000   45.709763824   13.763509018   321.9296   5   9   2.5900   1.9669   4.8049   0.1363  -0.8921  -2.2080   0.00    0.0
2015/03/18 01:59:00.000   45.709766265   13.763512862   321.4723   5   9   2.5853   1.9660   4.8050   0.0899  -0.8690  -2.1965   0.00    0.0
2015/03/18 01:59:30.000   45.709765843   13.763518252   321.8227   5   9   2.5805   1.9651   4.8050  -0.0476  -0.8452  -2.1849   0.00    0.0
2015/03/18 02:00:00.000   45.709767481   13.763512015   322.0617   5   9   2.5759   1.9644   4.8051  -0.1116  -0.8207  -2.1732   0.00    0.0
2015/03/18 02:00:30.000   45.709772035   13.763509535   320.8230   5   9   2.5714   1.9637   4.8051  -0.1500  -0.7953  -2.1615   0.00    0.0
2015/03/18 02:01:00.000   45.709766805   13.763512086   321.0784   5   9   2.5669   1.9631   4.8050  -0.1800  -0.7690  -2.1496   0.00    0.0
2015/03/18 02:01:30.000   45.709765353   13.763510375   321.4117   5   9   2.5625   1.9626   4.8049  -0.2053  -0.7416  -2.1376   0.00    0.0
2015/03/18 02:02:00.000   45.709764239   13.763510969   321.7214   5   9   2.5581   1.9621   4.8048  -0.2274  -0.7131  -2.1256   0.00    0.0
2015/03/18 02:02:30.000   45.709764597   13.763511879   321.7840   5   9   2.5539   1.9617   4.8047  -0.2473  -0.6833  -2.1134   0.00    0.0
2015/03/18 02:03:00.000   45.709760725   13.763514795   322.1429   5   9   2.5497   1.9614   4.8046  -0.2654  -0.6520  -2.1012   0.00    0.0
2015/03/18 02:03:30.000   45.709761763   13.763507298   321.5149   5  10   2.4691   1.8324   4.3681   0.5943  -1.3347  -1.7677   0.00    0.0
2015/03/18 02:04:00.000   45.709770463   13.763506943   320.7706   5  10   2.4654   1.8301   4.3681   0.5887  -1.3228  -1.7539   0.00    0.0
2015/03/18 02:04:30.000   45.709772884   13.763505837   320.3437   5  10   2.4617   1.8279   4.3681   0.5831  -1.3107  -1.7400   0.00    0.0
2015/03/18 02:05:00.000   45.709767970   13.763510311   322.3085   5  10   2.4581   1.8258   4.3682   0.5776  -1.2984  -1.7260   0.00    0.0
2015/03/18 02:05:30.000   45.709764042   13.763514504   322.3040   5  10   2.4546   1.8237   4.3682   0.5722  -1.2860  -1.7119   0.00    0.0
2015/03/18 02:06:00.000   45.709765510   13.763513733   321.7360   5  10   2.4511   1.8217   4.3683   0.5669  -1.2733  -1.6977   0.00    0.0
2015/03/18 02:06:30.000   45.709763872   13.763514971   322.3557   5  10   2.4478   1.8198   4.3684   0.5616  -1.2605  -1.6834   0.00    0.0
2015/03/18 02:07:00.000   45.709770611   13.763512188   321.1144   5  10   2.4446   1.8179   4.3685   0.5565  -1.2474  -1.6689   0.00    0.0
2015/03/18 02:07:30.000   45.709770370   13.763518787   320.8000   5  10   2.4414   1.8160   4.3687   0.5514  -1.2342  -1.6544   0.00    0.0
2015/03/18 02:08:00.000   45.709772819   13.763509736   320.4955   5  10   2.4383   1.8143   4.3689   0.5464  -1.2207  -1.6397   0.00    0.0
2015/03/18 02:08:30.000   45.709772225   13.763503449   321.3022   5  10   2.4354   1.8125   4.3691   0.5416  -1.2070  -1.6248   0.00    0.0
2015/03/18 02:09:00.000   45.709767939   13.763511062   321.6140   5  10   2.4325   1.8109   4.3693   0.5368  -1.1931  -1.6099   0.00    0.0
2015/03/18 02:09:30.000   45.709766894   13.763507678   321.3478   5  10   2.4297   1.8093   4.3695   0.5321  -1.1789  -1.5948   0.00    0.0
2015/03/18 02:10:00.000   45.709771879   13.763506734   321.8802   5  10   2.4270   1.8078   4.3698   0.5276  -1.1645  -1.5795   0.00    0.0
2015/03/18 02:10:30.000   45.709763085   13.763511391   320.4687   5   9   2.7914   1.8076   4.7051   0.6061  -1.0972  -0.1852   0.00    0.0
2015/03/18 02:11:00.000   45.709763088   13.763512299   321.0261   5   9   2.7901   1.8062   4.7210   0.6039  -1.0792   0.2731   0.00    0.0
2015/03/18 02:11:30.000   45.709765132   13.763511520   320.5006   5   9   2.7889   1.8049   4.7373   0.6020  -1.0606   0.4292   0.00    0.0
2015/03/18 02:12:00.000   45.709764331   13.763511548   320.1891   5   9   2.7880   1.8037   4.7540   0.6005  -1.0413   0.5427   0.00    0.0
2015/03/18 02:12:30.000   45.709762804   13.763508500   320.0287   5   9   2.7873   1.8026   4.7711   0.5993  -1.0214   0.6369   0.00    0.0
2015/03/18 02:13:00.000   45.709762636   13.763511392   320.4763   5   9   2.7867   1.8015   4.7886   0.5985  -1.0007   0.7194   0.00    0.0
2015/03/18 02:13:30.000   45.709760763   13.763515157   320.8079   5   9   2.7864   1.8005   4.8065   0.5981  -0.9792   0.7938   0.00    0.0
2015/03/18 02:14:00.000   45.709759959   13.763506680   320.2607   5   9   2.7863   1.7996   4.8248   0.5980  -0.9568   0.8623   0.00    0.0
2015/03/18 02:14:30.000   45.709760546   13.763505430   320.3953   5   9   2.7863   1.7988   4.8435   0.5983  -0.9335   0.9263   0.00    0.0
2015/03/18 02:15:00.000   45.709761896   13.763512827   320.9062   5   9   2.7866   1.7980   4.8626   0.5990  -0.9091   0.9865   0.00    0.0
2015/03/18 02:15:30.000   45.709757413   13.763506051   319.8091   5   9   2.7871   1.7973   4.8821   0.6002  -0.8836   1.0437   0.00    0.0
2015/03/18 02:16:00.000   45.709763345   13.763511073   320.8962   5   9   2.7877   1.7968   4.9020   0.6017  -0.8568   1.0983   0.00    0.0
2015/03/18 02:16:30.000   45.709763430   13.763507729   321.3766   5   9   2.7886   1.7963   4.9223   0.6036  -0.8286   1.1508   0.00    0.0
2015/03/18 02:17:00.000   45.709760189   13.763513390   322.0134   5   9   2.7897   1.7959   4.9430   0.6059  -0.7988   1.2013   0.00    0.0
2015/03/18 02:17:30.000   45.709760140   13.763510845   320.5836   5   9   2.7909   1.7955   4.9640   0.6086  -0.7672   1.2502   0.00    0.0
2015/03/18 02:18:00.000   45.709761486   13.763506330   320.1397   5   9   2.7924   1.7953   4.9855   0.6117  -0.7336   1.2977   0.00    0.0
2015/03/18 02:18:30.000   45.709756676   13.763510591   319.7076   5   9   2.7940   1.7952   5.0074   0.6152  -0.6976   1.3438   0.00    0.0
2015/03/18 02:19:00.000   45.709764356   13.763510179   321.2798   5   9   2.7958   1.7951   5.0296   0.6192  -0.6588   1.3888   0.00    0.0
2015/03/18 02:19:30.000   45.709765748   13.763509453   320.3145   5   9   2.7978   1.7952   5.0523   0.6235  -0.6168   1.4327   0.00    0.0
2015/03/18 02:20:00.000   45.709762468   13.763507039   320.1712   5   9   2.8000   1.7954   5.0753   0.6283  -0.5706   1.4756   0.00    0.0
2015/03/18 02:20:30.000   45.709759112   13.763508697   320.3315   5   9   2.8024   1.7956   5.0987   0.6334  -0.5192   1.5177   0.00    0.0
2015/03/18 02:21:00.000   45.709763761   13.763512712   320.8654   5   9   2.8050   1.7960   5.1225   0.6390  -0.4609   1.5590   0.00    0.0
2015/03/18 02:21:30.000   45.709760802   13.763513247   320.0897   5   9   2.8078   1.7965   5.1467   0.6449  -0.3924   1.5995   0.00    0.0
2015/03/18 02:22:00.000   45.709761766   13.763514163   321.0937   5   9   2.8107   1.7971   5.1712   0.6512  -0.3070   1.6394   0.00    0.0
2015/03/18 02:22:30.000   45.709761104   13.763510568   321.0021   5   9   2.8138   1.7978   5.1961   0.6579  -0.1822   1.6786   0.00    0.0
2015/03/18 02:23:00.000   45.709764236   13.763505017   321.2160   5   9   2.8171   1.7986   5.2214   0.6650   0.1709   1.7173   0.00    0.0
2015/03/18 02:23:30.000   45.709763525   13.763510636   321.3767   5   9   2.8205   1.7995   5.2470   0.6725   0.3050   1.7553   0.00    0.0
2015/03/18 02:24:00.000   45.709758289   13.763511517   320.8670   5   9   2.8242   1.8006   5.2730   0.6803   0.3977   1.7929   0.00    0.0
2015/03/18 02:24:30.000   45.709764883   13.763508735   320.8738   5   9   2.8279   1.8017   5.2994   0.6885   0.4742   1.8299   0.00    0.0
2015/03/18 02:25:00.000   45.709758528   13.763508546   319.2737   5   9   2.8319   1.8031   5.3260   0.6971   0.5413   1.8665   0.00    0.0
2015/03/18 02:25:30.000   45.709760767   13.763510721   320.8614   5   9   2.8360   1.8045   5.3530   0.7060   0.6022   1.9027   0.00    0.0
2015/03/18 02:26:00.000   45.709763707   13.763507512   321.1421   5   9   2.8402   1.8061   5.3803   0.7153   0.6587   1.9384   0.00    0.0
2015/03/18 02:26:30.000   45.709761271   13.763508601   319.7193   5   9   2.8446   1.8078   5.4079   0.7248   0.7119   1.9737   0.00    0.0
2015/03/18 02:27:00.000   45.709756863   13.763508100   321.1435   5   9   2.8492   1.8096   5.4359   0.7347   0.7624   2.0086   0.00    0.0
2015/03/18 02:27:30.000   45.709760675   13.763508990   319.8000   5   9   2.8538   1.8116   5.4641   0.7450   0.8108   2.0431   0.00    0.0
2015/03/18 02:28:00.000   45.709761426   13.763514596   320.2311   5   9   2.8586   1.8138   5.4926   0.7555   0.8574   2.0772   0.00    0.0
2015/03/18 02:28:30.000   45.709761434   13.763510390   320.2076   5   9   2.8636   1.8161   5.5214   0.7663   0.9026   2.1110   0.00    0.0
2015/03/18 02:29:00.000   45.709762351   13.763504501   320.4760   5   9   2.8686   1.8185   5.5504   0.7774   0.9466   2.1444   0.00    0.0
2015/03/18 02:29:30.000   45.709760414   13.763510480   320.0425   5   9   2.8738   1.8211   5.5796   0.7888   0.9895   2.1775   0.00    0.0
2015/03/18 02:30:00.000   45.709757110   13.763506266   319.9882   5   9   2.8790   1.8239   5.6091   0.8004   1.0315   2.2102   0.00    0.0
2015/03/18 02:30:30.000   45.709754851   13.763507517   319.3709   5   9   2.8844   1.8268   5.6388   0.8124   1.0727   2.2425   0.00    0.0
2015/03/18 02:31:00.000   45.709754796   13.763507658   319.8573   5   9   2.8899   1.8299   5.6687   0.8245   1.1132   2.2745   0.00    0.0
2015/03/18 02:31:30.000   45.709757708   13.763508648   320.0787   5   9   2.8954   1.8332   5.6988   0.8369   1.1531   2.3061   0.00    0.0
2015/03/18 02:32:00.000   45.709761395   13.763511711   320.9914   5   9   2.9010   1.8366   5.7290   0.8495   1.1925   2.3373   0.00    0.0
2015/03/18 02:32:30.000   45.709759455   13.763508711   320.1693   5   9   2.9067   1.8403   5.7593   0.8624   1.2314   2.3682   0.00    0.0
2015/03/18 02:33:00.000   45.709759326   13.763510595   320.0442   5   9   2.9125   1.8441   5.7898   0.8754   1.2698   2.3987   0.00    0.0
2015/03/18 02:33:30.000   45.709760816   13.763508205   320.2529   5   9   2.9183   1.8481   5.8204   0.8887   1.3078   2.4288   0.00    0.0
2015/03/18 02:34:00.000   45.709760617   13.763510155   320.7598   5   9   2.9241   1.8522   5.8511   0.9021   1.3455   2.4586   0.00    0.0
2015/03/18 02:34:30.000   45.709758439   13.763510478   320.0290   5   9   2.9300   1.8566   5.8818   0.9157   1.3829   2.4879   0.00    0.0
2015/03/18 02:35:00.000   45.709762432   13.763509925   320.8901   5   9   2.9359   1.8612   5.9125   0.9294   1.4199   2.5168   0.00    0.0
2015/03/18 02:35:30.000   45.709762227   13.763508123   321.0983   5   9   2.9418   1.8659   5.9432   0.9433   1.4567   2.5454   0.00    0.0
2015/03/18 02:36:00.000   45.709763884   13.763513052   320.9556   5   9   2.9477   1.8709   5.9740   0.9573   1.4932   2.5734   0.00    0.0
2015/03/18 02:36:30.000   45.709761133   13.763509699   319.6999   5   9   2.9536   1.8760   6.0046   0.9715   1.5295   2.6011   0.00    0.0
2015/03/18 02:37:00.000   45.709762293   13.763513042   320.8702   5   9   2.9595   1.8814   6.0352   0.9857   1.5655   2.6282   0.00    0.0
2015/03/18 02:37:30.000   45.709761563   13.763510314   320.0996   5   9   2.9653   1.8869   6.0657   1.0001   1.6013   2.6549   0.00    0.0
2015/03/18 02:38:00.000   45.709766021   13.763512643   320.7443   5   9   2.9711   1.8927   6.0961   1.0145   1.6368   2.6811   0.00    0.0
2015/03/18 02:38:30.000   45.709762098   13.763509819   319.4217   5   9   2.9769   1.8987   6.1263   1.0290   1.6722   2.7068   0.00    0.0
2015/03/18 02:39:00.000   45.709763466   13.763506691   319.6705   5   9   2.9826   1.9048   6.1563   1.0435   1.7073   2.7319   0.00    0.0
2015/03/18 02:39:30.000   45.709762246   13.763508520   320.0966   5   9   2.9882   1.9112   6.1861   1.0581   1.7423   2.7565   0.00    0.0
2015/03/18 02:40:00.000   45.709762177   13.763512971   320.6904   5   9   2.9937   1.9178   6.2157   1.0727   1.7770   2.7806   0.00    0.0
2015/03/18 02:40:30.000   45.709761669   13.763508994   319.9833   5   9   2.9991   1.9246   6.2449   1.0872   1.8115   2.8040   0.00    0.0
2015/03/18 02:41:00.000   45.709761736   13.763504911   319.8075   5   9   3.0043   1.9316   6.2738   1.1018   1.8457   2.8269   0.00    0.0
2015/03/18 02:41:30.000   45.709760185   13.763507713   320.6110   5   9   3.0095   1.9389   6.3024   1.1164   1.8798   2.8491   0.00    0.0
2015/03/18 02:42:00.000   45.709759440   13.763501726   319.4212   5   9   3.0145   1.9463   6.3306   1.1309   1.9136   2.8707   0.00    0.0
2015/03/18 02:42:30.000   45.709760765   13.763508305   319.4967   5   9   3.0193   1.9539   6.3584   1.1453   1.9471   2.8916   0.00    0.0
2015/03/18 02:43:00.000   45.709761120   13.763511994   320.5024   5   9   3.0240   1.9618   6.3857   1.1597   1.9804   2.9118   0.00    0.0
2015/03/18 02:43:30.000   45.709758387   13.763512440   319.5819   5   9   3.0285   1.9698   6.4125   1.1740   2.0135   2.9313   0.00    0.0
2015/03/18 02:44:00.000   45.709759367   13.763511651   320.3364   5   9   3.0328   1.9780   6.4388   1.1882   2.0463   2.9500   0.00    0.0
2015/03/18 02:44:30.000   45.709757937   13.763511128   319.7438   5   9   3.0368   1.9865   6.4646   1.2022   2.0788   2.9680   0.00    0.0
2015/03/18 02:45:00.000   45.709764362   13.763509471   321.8364   5   9   3.0407   1.9951   6.4898   1.2161   2.1110   2.9853   0.00    0.0
2015/03/18 02:45:30.000   45.709754702   13.763508362   320.4610   5   8   3.3371   2.2540   7.8915   1.7097  -0.0635   1.7094   0.00    0.0
2015/03/18 02:46:00.000   45.709756945   13.763510046   321.1923   5   8   3.3316   2.2547   7.9375   1.7068   0.3959   1.7457   0.00    0.0
2015/03/18 02:46:30.000   45.709757639   13.763507723   321.5907   5   8   3.3261   2.2556   7.9831   1.7041   0.5660   1.7802   0.00    0.0
2015/03/18 02:47:00.000   45.709758519   13.763512811   321.3389   5   9   3.1279   2.2567   6.3696   1.7072   0.6336   2.9550   0.00    0.0
2015/03/18 02:47:30.000   45.709752673   13.763508314   321.3038   5   9   3.1291   2.2578   6.3891   1.7109   0.6871   2.9663   0.00    0.0
2015/03/18 02:48:00.000   45.709756166   13.763505575   321.1991   5   9   3.1301   2.2590   6.4077   1.7146   0.7366   2.9767   0.00    0.0
2015/03/18 02:48:30.000   45.709756116   13.763505145   323.0687   5   9   3.1308   2.2602   6.4253   1.7181   0.7828   2.9863   0.00    0.0
2015/03/18 02:49:00.000   45.709755212   13.763504924   322.9996   5   9   3.1311   2.2615   6.4418   1.7216   0.8262   2.9949   0.00    0.0
2015/03/18 02:49:30.000   45.709752570   13.763504783   321.4881   5   9   3.1312   2.2628   6.4574   1.7251   0.8671   3.0027   0.00    0.0
2015/03/18 02:50:00.000   45.709756138   13.763508268   321.4060   5   9   3.1310   2.2641   6.4718   1.7284   0.9059   3.0095   0.00    0.0
2015/03/18 02:50:30.000   45.709759100   13.763505168   321.6566   5   9   3.1306   2.2655   6.4851   1.7315   0.9428   3.0153   0.00    0.0
2015/03/18 02:51:00.000   45.709758990   13.763505260   321.3544   5   9   3.1298   2.2669   6.4973   1.7346   0.9779   3.0202   0.00    0.0
2015/03/18 02:51:30.000   45.709756649   13.763505563   322.8503   5   9   3.1287   2.2684   6.5083   1.7375   1.0113   3.0241   0.00    0.0
2015/03/18 02:52:00.000   45.709757131   13.763507123   321.6205   5   9   3.1272   2.2698   6.5182   1.7403   1.0433   3.0271   0.00    0.0
2015/03/18 02:52:30.000   45.709754533   13.763505935   323.1052   5   9   3.1255   2.2713   6.5269   1.7429   1.0738   3.0291   0.00    0.0
2015/03/18 02:53:00.000   45.709761977   13.763506529   322.0331   5   9   3.1235   2.2728   6.5344   1.7454   1.1030   3.0301   0.00    0.0
2015/03/18 02:53:30.000   45.709758354   13.763505083   323.5976   5   9   3.1211   2.2743   6.5406   1.7477   1.1309   3.0300   0.00    0.0
2015/03/18 02:54:00.000   45.709757214   13.763505370   322.2758   5   9   3.1184   2.2759   6.5456   1.7498   1.1576   3.0290   0.00    0.0
2015/03/18 02:54:30.000   45.709755100   13.763505524   322.3905   5   9   3.1154   2.2774   6.5494   1.7518   1.1831   3.0270   0.00    0.0
2015/03/18 02:55:00.000   45.709755613   13.763503679   321.4183   5   9   3.1121   2.2790   6.5520   1.7536   1.2075   3.0240   0.00    0.0
2015/03/18 02:55:30.000   45.709755028   13.763507779   320.3377   5   9   3.1085   2.2806   6.5533   1.7551   1.2308   3.0199   0.00    0.0
2015/03/18 02:56:00.000   45.709759566   13.763506616   322.3372   5   9   3.1046   2.2821   6.5534   1.7565   1.2531   3.0149   0.00    0.0
2015/03/18 02:56:30.000   45.709757565   13.763509674   322.8395   5   9   3.1003   2.2837   6.5523   1.7577   1.2744   3.0089   0.00    0.0
2015/03/18 02:57:00.000   45.709756097   13.763506654   321.6225   5   9   3.0958   2.2853   6.5499   1.7586   1.2946   3.0019   0.00    0.0
2015/03/18 02:57:30.000   45.709756338   13.763507608   323.0977   5   9   3.0910   2.2868   6.5463   1.7594   1.3139   2.9939   0.00    0.0
2015/03/18 02:58:00.000   45.709755974   13.763508487   322.3232   5   9   3.0859   2.2884   6.5415   1.7599   1.3323   2.9849   0.00    0.0
2015/03/18 02:58:30.000   45.709761359   13.763510540   324.2443   5   9   3.0805   2.2900   6.5355   1.7602   1.3497   2.9750   0.00    0.0
2015/03/18 02:59:00.000   45.709760734   13.763508746   321.0568   5   9   3.0748   2.2915   6.5283   1.7603   1.3663   2.9642   0.00    0.0
2015/03/18 02:59:30.000   45.709760192   13.763512427   322.1281   5   9   3.0689   2.2930   6.5199   1.7602   1.3819   2.9524   0.00    0.0
2015/03/18 03:00:00.000   45.709752230   13.763503846   319.0519   5   9   3.0627   2.2945   6.5105   1.7598   1.3967   2.9397   0.00    0.0
2015/03/18 03:00:30.000   45.709754494   13.763509307   320.1245   5   9   3.0563   2.2960   6.4999   1.7592   1.4107   2.9261   0.00    0.0
2015/03/18 03:01:00.000   45.709757791   13.763510069   320.7413   5   9   3.0496   2.2974   6.4882   1.7584   1.4239   2.9116   0.00    0.0
2015/03/18 03:01:30.000   45.709753017   13.763507930   320.4572   5   9   3.0428   2.2989   6.4754   1.7574   1.4363   2.8962   0.00    0.0
2015/03/18 03:02:00.000   45.709754346   13.763506725   320.3992   5   9   3.0357   2.3003   6.4616   1.7561   1.4478   2.8800   0.00    0.0
2015/03/18 03:02:30.000   45.709755171   13.763510643   321.5144   5   9   3.0284   2.3017   6.4468   1.7546   1.4587   2.8630   0.00    0.0
2015/03/18 03:03:00.000   45.709751241   13.763508126   320.7251   5   9   3.0209   2.3030   6.4310   1.7529   1.4688   2.8452   0.00    0.0
2015/03/18 03:03:30.000   45.709754375   13.763510561   321.6262   5   9   3.0133   2.3043   6.4143   1.7509   1.4782   2.8265   0.00    0.0
2015/03/18 03:04:00.000   45.709759456   13.763511131   321.0552   5   9   3.0055   2.3056   6.3967   1.7488   1.4868   2.8072   0.00    0.0
2015/03/18 03:04:30.000   45.709754073   13.763506051   321.1757   5   9   2.9975   2.3069   6.3782   1.7464   1.4948   2.7871   0.00    0.0
2015/03/18 03:05:00.000   45.709757151   13.763506766   320.9486   5   9   2.9894   2.3081   6.3588   1.7438   1.5022   2.7662   0.00    0.0
2015/03/18 03:05:30.000   45.709757108   13.763505348   321.0222   5   9   2.9812   2.3093   6.3387   1.7410   1.5088   2.7447   0.00    0.0
2015/03/18 03:06:00.000   45.709757609   13.763507738   321.7333   5   9   2.9729   2.3104   6.3178   1.7379   1.5149   2.7225   0.00    0.0
2015/03/18 03:06:30.000   45.709755008   13.763511841   322.4853   5   9   2.9644   2.3115   6.2961   1.7347   1.5204   2.6997   0.00    0.0
2015/03/18 03:07:00.000   45.709754369   13.763506633   321.3131   5   9   2.9559   2.3126   6.2738   1.7313   1.5253   2.6763   0.00    0.0
2015/03/18 03:07:30.000   45.709759680   13.763510603   321.9150   5   9   2.9473   2.3136   6.2508   1.7276   1.5296   2.6523   0.00    0.0
2015/03/18 03:08:00.000   45.709756126   13.763508719   322.1908   5   9   2.9386   2.3146   6.2272   1.7238   1.5333   2.6276   0.00    0.0
2015/03/18 03:08:30.000   45.709752355   13.763508889   321.5715   5   9   2.9299   2.3156   6.2030   1.7197   1.5365   2.6025   0.00    0.0
2015/03/18 03:09:00.000   45.709761383   13.763512458   322.6870   5  10   2.4047   2.0635   4.7740   1.0941  -1.3264   0.3682   0.00    0.0
2015/03/18 03:09:30.000   45.709760989   13.763514013   322.5640   5  10   2.4030   2.0620   4.7698   1.0899  -1.3170   0.3313   0.00    0.0
2015/03/18 03:10:00.000   45.709758077   13.763511357   322.7881   5  10   2.4014   2.0606   4.7655   1.0857  -1.3074   0.2893   0.00    0.0
2015/03/18 03:10:30.000   45.709763451   13.763510855   322.1555   5  10   2.3998   2.0592   4.7609   1.0814  -1.2977   0.2396   0.00    0.0
2015/03/18 03:11:00.000   45.709759519   13.763511003   321.5548   5  10   2.3983   2.0578   4.7562   1.0772  -1.2879   0.1756   0.00    0.0
2015/03/18 03:11:30.000   45.709756518   13.763507840   322.5516   5  10   2.3968   2.0565   4.7512   1.0728  -1.2780   0.0636   0.00    0.0
2015/03/18 03:12:00.000   45.709759711   13.763509140   321.5482   5  10   2.3953   2.0552   4.7461   1.0685  -1.2679  -0.1516   0.00    0.0
2015/03/18 03:12:30.000   45.709764146   13.763511482   321.6369   5  10   2.3940   2.0539   4.7408   1.0641  -1.2577  -0.2241   0.00    0.0
2015/03/18 03:13:00.000   45.709758307   13.763507357   321.9465   5  10   2.3926   2.0526   4.7354   1.0596  -1.2474  -0.2787   0.00    0.0
2015/03/18 03:13:30.000   45.709763065   13.763513040   323.1737   5  10   2.3913   2.0513   4.7297   1.0551  -1.2370  -0.3245   0.00    0.0
2015/03/18 03:14:00.000   45.709759269   13.763507698   323.2136   5  10   2.3901   2.0501   4.7239   1.0506  -1.2265  -0.3649   0.00    0.0
2015/03/18 03:14:30.000   45.709754333   13.763508781   321.9492   5  10   2.3889   2.0489   4.7179   1.0460  -1.2159  -0.4014   0.00    0.0
2015/03/18 03:15:00.000   45.709761080   13.763507818   320.8572   5  10   2.3878   2.0477   4.7117   1.0414  -1.2051  -0.4351   0.00    0.0
2015/03/18 03:15:30.000   45.709759630   13.763506216   322.2599   5  10   2.3867   2.0465   4.7054   1.0367  -1.1943  -0.4666   0.00    0.0
2015/03/18 03:16:00.000   45.709760296   13.763512167   321.8452   5  10   2.3857   2.0454   4.6989   1.0320  -1.1833  -0.4962   0.00    0.0
2015/03/18 03:16:30.000   45.709760049   13.763514933   322.0971   5  10   2.3847   2.0443   4.6922   1.0272  -1.1722  -0.5242   0.00    0.0
2015/03/18 03:17:00.000   45.709758632   13.763509261   322.3780   5  10   2.3838   2.0432   4.6854   1.0224  -1.1610  -0.5510   0.00    0.0
2015/03/18 03:17:30.000   45.709761056   13.763512253   321.9036   5  10   2.3829   2.0421   4.6785   1.0175  -1.1497  -0.5766   0.00    0.0
2015/03/18 03:18:00.000   45.709761569   13.763509271   321.7299   5  10   2.3821   2.0411   4.6714   1.0125  -1.1383  -0.6012   0.00    0.0
2015/03/18 03:18:30.000   45.709765192   13.763510230   321.7132   5  10   2.3813   2.0401   4.6641   1.0075  -1.1268  -0.6249   0.00    0.0
2015/03/18 03:19:00.000   45.709759515   13.763508320   322.9011   5  10   2.3806   2.0391   4.6567   1.0024  -1.1152  -0.6478   0.00    0.0
2015/03/18 03:19:30.000   45.709753776   13.763503460   322.1502   5  10   2.3799   2.0381   4.6492   0.9973  -1.1034  -0.6699   0.00    0.0
2015/03/18 03:20:00.000   45.709765266   13.763507345   321.4152   5  10   2.3793   2.0372   4.6415   0.9921  -1.0916  -0.6915   0.00    0.0
2015/03/18 03:20:30.000   45.709758016   13.763507824   323.3512   5  10   2.3787   2.0363   4.6337   0.9868  -1.0796  -0.7124   0.00    0.0
2015/03/18 03:21:00.000   45.709757494   13.763511702   322.7211   5  10   2.3782   2.0354   4.6258   0.9815  -1.0676  -0.7327   0.00    0.0
2015/03/18 03:21:30.000   45.709763527   13.763510906   322.1751   5  10   2.3778   2.0346   4.6177   0.9761  -1.0554  -0.7525   0.00    0.0
2015/03/18 03:22:00.000   45.709760740   13.763514410   323.2837   5  10   2.3774   2.0337   4.6095   0.9706  -1.0431  -0.7718   0.00    0.0
2015/03/18 03:22:30.000   45.709754675   13.763510697   322.8369   5  10   2.3770   2.0329   4.6012   0.9650  -1.0307  -0.7906   0.00    0.0
2015/03/18 03:23:00.000   45.709760784   13.763512786   323.3499   5  10   2.3768   2.0322   4.5928   0.9594  -1.0182  -0.8090   0.00    0.0
2015/03/18 03:23:30.000   45.709761116   13.763515006   321.8838   5  10   2.3765   2.0314   4.5843   0.9537  -1.0056  -0.8270   0.00    0.0
2015/03/18 03:24:00.000   45.709761113   13.763511592   322.0040   5  10   2.3763   2.0307   4.5757   0.9479  -0.9929  -0.8446   0.00    0.0
2015/03/18 03:24:30.000   45.709757332   13.763510066   322.6420   5  10   2.3762   2.0300   4.5670   0.9421  -0.9801  -0.8618   0.00    0.0
2015/03/18 03:25:00.000   45.709754429   13.763507516   323.0812   5  10   2.3761   2.0294   4.5582   0.9362  -0.9671  -0.8786   0.00    0.0
2015/03/18 03:25:30.000   45.709763346   13.763508578   322.5644   5  10   2.3761   2.0287   4.5493   0.9301  -0.9540  -0.8951   0.00    0.0
2015/03/18 03:26:00.000   45.709763530   13.763513946   322.3390   5  10   2.3762   2.0281   4.5403   0.9240  -0.9409  -0.9113   0.00    0.0
2015/03/18 03:26:30.000   45.709762677   13.763504432   321.9989   5  10   2.3762   2.0276   4.5312   0.9178  -0.9275  -0.9271   0.00    0.0
2015/03/18 03:27:00.000   45.709760803   13.763511888   322.4932   5  10   2.3764   2.0270   4.5221   0.9116  -0.9141  -0.9427   0.00    0.0
2015/03/18 03:27:30.000   45.709756747   13.763512140   322.6750   5  10   2.3766   2.0265   4.5128   0.9052  -0.9005  -0.9579   0.00    0.0
2015/03/18 03:28:00.000   45.709760315   13.763508855   321.9922   5  10   2.3768   2.0260   4.5035   0.8987  -0.8868  -0.9729   0.00    0.0
2015/03/18 03:28:30.000   45.709764013   13.763504813   321.9758   5  10   2.3771   2.0256   4.4941   0.8922  -0.8730  -0.9875   0.00    0.0
2015/03/18 03:29:00.000   45.709761501   13.763511554   323.0467   5  10   2.3775   2.0251   4.4847   0.8855  -0.8591  -1.0019   0.00    0.0
