% program   : RTKPOST-EX 2.5.0
% inp file  : D:\Academic\0 Research\000 In preparation\00 GPS positioning performance circular analysis during short-term fast-developing geomagnetic storms\Storm 1\trie0780.15d
% inp file  : D:\Academic\0 Research\000 In preparation\00 GPS positioning performance circular analysis during short-term fast-developing geomagnetic storms\Storm 1\brdc0780.15n
% obs start : 2015/03/19 00:00:00.0 GPST (week1836 345600.0s)
% obs end   : 2015/03/19 23:59:30.0 GPST (week1836 431970.0s)
% pos mode  : Single
% elev mask : 15.0 deg
% tidecorr  :
% ionos opt : Broadcast
% tropo opt : Saastamoinen
% ephemeris : Broadcast
% navi sys  : GPS
%
% (lat/lon/height=WGS84/ellipsoidal,Q=1:fix,2:float,3:sbas,4:dgps,5:single,6:ppp,ns=# of satellites)
%  GPST                  latitude(deg) longitude(deg)  height(m)   Q  ns   sdn(m)   sde(m)   sdu(m)  sdne(m)  sdeu(m)  sdun(m) age(s)  ratio
2015/03/19 00:00:00.000   45.709772912   13.763523608   324.4086   5   6   4.3707   3.3124   8.8167   2.6708  -2.9525   1.5992   0.00    0.0
2015/03/19 00:00:30.000   45.709777897   13.763520284   322.0333   5   6   4.3646   3.2987   8.8660   2.6460  -2.9344   1.7165   0.00    0.0
2015/03/19 00:01:00.000   45.709773225   13.763524627   324.4506   5   6   4.3589   3.2852   8.9165   2.6212  -2.9166   1.8264   0.00    0.0
2015/03/19 00:01:30.000   45.709772474   13.763522348   324.9624   5   6   4.3535   3.2721   8.9682   2.5966  -2.8992   1.9302   0.00    0.0
2015/03/19 00:02:00.000   45.709772221   13.763520773   325.5718   5   6   4.3485   3.2591   9.0210   2.5721  -2.8822   2.0289   0.00    0.0
2015/03/19 00:02:30.000   45.709767890   13.763522055   324.4825   5   6   4.3438   3.2464   9.0749   2.5477  -2.8655   2.1232   0.00    0.0
2015/03/19 00:03:00.000   45.709772890   13.763521435   325.7232   5   6   4.3394   3.2340   9.1300   2.5234  -2.8493   2.2137   0.00    0.0
2015/03/19 00:03:30.000   45.709773926   13.763518967   325.7666   5   6   4.3354   3.2218   9.1861   2.4992  -2.8333   2.3007   0.00    0.0
2015/03/19 00:04:00.000   45.709770192   13.763523383   324.0423   5   6   4.3316   3.2098   9.2433   2.4751  -2.8177   2.3847   0.00    0.0
2015/03/19 00:04:30.000   45.709771442   13.763520126   324.9004   5   6   4.3282   3.1981   9.3015   2.4511  -2.8025   2.4660   0.00    0.0
2015/03/19 00:05:00.000   45.709769299   13.763523441   324.7925   5   6   4.3250   3.1866   9.3607   2.4272  -2.7876   2.5448   0.00    0.0
2015/03/19 00:05:30.000   45.709772739   13.763523266   326.1506   5   6   4.3221   3.1753   9.4209   2.4034  -2.7730   2.6213   0.00    0.0
2015/03/19 00:06:00.000   45.709771396   13.763520774   326.0844   5   6   4.3194   3.1642   9.4821   2.3796  -2.7587   2.6958   0.00    0.0
2015/03/19 00:06:30.000   45.709774937   13.763520463   324.8572   5   6   4.3170   3.1534   9.5441   2.3559  -2.7448   2.7683   0.00    0.0
2015/03/19 00:07:00.000   45.709769826   13.763521140   325.5677   5   6   4.3149   3.1428   9.6071   2.3322  -2.7311   2.8390   0.00    0.0
2015/03/19 00:07:30.000   45.709769712   13.763515387   324.3391   5   6   4.3129   3.1324   9.6709   2.3087  -2.7177   2.9079   0.00    0.0
2015/03/19 00:08:00.000   45.709775073   13.763521030   323.5474   5   6   4.3112   3.1222   9.7355   2.2852  -2.7045   2.9752   0.00    0.0
2015/03/19 00:08:30.000   45.709772772   13.763521047   324.4971   5   6   4.3097   3.1123   9.8009   2.2617  -2.6917   3.0410   0.00    0.0
2015/03/19 00:09:00.000   45.709769291   13.763518047   324.8315   5   6   4.3084   3.1025   9.8670   2.2383  -2.6790   3.1053   0.00    0.0
2015/03/19 00:09:30.000   45.709768211   13.763520224   323.8616   5   6   4.3072   3.0930   9.9337   2.2149  -2.6666   3.1682   0.00    0.0
2015/03/19 00:10:00.000   45.709770709   13.763522646   324.6391   5   6   4.3061   3.0836  10.0010   2.1916  -2.6544   3.2297   0.00    0.0
2015/03/19 00:10:30.000   45.709767585   13.763519673   324.3669   5   6   4.3053   3.0745  10.0689   2.1683  -2.6424   3.2898   0.00    0.0
2015/03/19 00:11:00.000   45.709770015   13.763522537   324.9087   5   6   4.3045   3.0655  10.1373   2.1450  -2.6306   3.3486   0.00    0.0
2015/03/19 00:11:30.000   45.709772540   13.763521059   327.4541   5   6   4.3038   3.0568  10.2061   2.1218  -2.6189   3.4060   0.00    0.0
2015/03/19 00:12:00.000   45.709773388   13.763521324   323.8710   5   6   4.3032   3.0482  10.2752   2.0987  -2.6074   3.4622   0.00    0.0
2015/03/19 00:12:30.000   45.709774051   13.763523347   325.6445   5   6   4.3027   3.0398  10.3447   2.0755  -2.5960   3.5170   0.00    0.0
2015/03/19 00:13:00.000   45.709771140   13.763522655   324.8519   5   6   4.3022   3.0317  10.4143   2.0524  -2.5847   3.5705   0.00    0.0
2015/03/19 00:13:30.000   45.709774708   13.763525842   325.9151   5   6   4.3018   3.0237  10.4841   2.0293  -2.5735   3.6228   0.00    0.0
2015/03/19 00:14:00.000   45.709768801   13.763525164   324.0089   5   6   4.3013   3.0158  10.5539   2.0062  -2.5623   3.6737   0.00    0.0
2015/03/19 00:14:30.000   45.709773297   13.763522186   325.6674   5   6   4.3009   3.0082  10.6236   1.9832  -2.5511   3.7233   0.00    0.0
2015/03/19 00:15:00.000   45.709772024   13.763524040   327.0752   5   6   4.3004   3.0008  10.6932   1.9602  -2.5400   3.7715   0.00    0.0
2015/03/19 00:15:30.000   45.709771289   13.763524666   327.5709   5   6   4.2999   2.9935  10.7626   1.9372  -2.5288   3.8183   0.00    0.0
2015/03/19 00:16:00.000   45.709772783   13.763528401   326.0709   5   6   4.2993   2.9864  10.8316   1.9143  -2.5176   3.8638   0.00    0.0
2015/03/19 00:16:30.000   45.709775530   13.763525463   325.1211   5   6   4.2986   2.9795  10.9003   1.8914  -2.5063   3.9078   0.00    0.0
2015/03/19 00:17:00.000   45.709772161   13.763524397   323.6845   5   6   4.2978   2.9727  10.9683   1.8685  -2.4949   3.9503   0.00    0.0
2015/03/19 00:17:30.000   45.709766369   13.763522656   325.6014   5   6   4.2969   2.9661  11.0357   1.8456  -2.4834   3.9913   0.00    0.0
2015/03/19 00:18:00.000   45.709773499   13.763523305   325.5250   5   6   4.2958   2.9597  11.1024   1.8228  -2.4716   4.0308   0.00    0.0
2015/03/19 00:18:30.000   45.709777932   13.763521230   325.2156   5   6   4.2945   2.9534  11.1682   1.8000  -2.4597   4.0687   0.00    0.0
2015/03/19 00:19:00.000   45.709773306   13.763524096   325.7788   5   6   4.2930   2.9474  11.2329   1.7773  -2.4475   4.1049   0.00    0.0
2015/03/19 00:19:30.000   45.709770955   13.763522815   324.6132   5   6   4.2913   2.9414  11.2966   1.7545  -2.4351   4.1395   0.00    0.0
2015/03/19 00:20:00.000   45.709771531   13.763522591   326.0745   5   6   4.2893   2.9357  11.3591   1.7319  -2.4223   4.1724   0.00    0.0
2015/03/19 00:20:30.000   45.709765701   13.763524574   326.0473   5   6   4.2871   2.9301  11.4202   1.7092  -2.4092   4.2035   0.00    0.0
2015/03/19 00:21:00.000   45.709767938   13.763524142   325.0146   5   6   4.2847   2.9246  11.4798   1.6866  -2.3957   4.2328   0.00    0.0
2015/03/19 00:21:30.000   45.709771965   13.763522367   325.8511   5   6   4.2819   2.9193  11.5378   1.6641  -2.3818   4.2602   0.00    0.0
2015/03/19 00:22:00.000   45.709770249   13.763524111   327.6263   5   6   4.2788   2.9142  11.5941   1.6416  -2.3675   4.2857   0.00    0.0
2015/03/19 00:22:30.000   45.709769984   13.763523045   326.4055   5   6   4.2753   2.9092  11.6486   1.6191  -2.3526   4.3092   0.00    0.0
2015/03/19 00:23:00.000   45.709769475   13.763522374   326.1724   5   6   4.2715   2.9044  11.7011   1.5967  -2.3372   4.3308   0.00    0.0
2015/03/19 00:23:30.000   45.709767157   13.763522975   325.6025   5   6   4.2674   2.8997  11.7515   1.5743  -2.3212   4.3503   0.00    0.0
2015/03/19 00:24:00.000   45.709769339   13.763524700   325.6046   5   6   4.2628   2.8951  11.7998   1.5520  -2.3046   4.3677   0.00    0.0
2015/03/19 00:24:30.000   45.709773441   13.763527783   326.1348   5   6   4.2579   2.8908  11.8457   1.5297  -2.2874   4.3830   0.00    0.0
2015/03/19 00:25:00.000   45.709774425   13.763523533   327.1277   5   6   4.2526   2.8865  11.8893   1.5074  -2.2694   4.3961   0.00    0.0
2015/03/19 00:25:30.000   45.709775363   13.763527142   326.2849   5   6   4.2468   2.8825  11.9303   1.4852  -2.2507   4.4070   0.00    0.0
2015/03/19 00:26:00.000   45.709770366   13.763521465   326.0402   5   6   4.2407   2.8785  11.9688   1.4630  -2.2313   4.4157   0.00    0.0
2015/03/19 00:26:30.000   45.709769583   13.763520103   326.5748   5   6   4.2341   2.8748  12.0045   1.4409  -2.2110   4.4221   0.00    0.0
2015/03/19 00:27:00.000   45.709768084   13.763522462   325.2934   5   6   4.2271   2.8711  12.0375   1.4188  -2.1899   4.4261   0.00    0.0
2015/03/19 00:27:30.000   45.709776243   13.763528445   327.5745   5   6   4.2196   2.8676  12.0676   1.3966  -2.1679   4.4279   0.00    0.0
2015/03/19 00:28:00.000   45.709771444   13.763524545   326.8564   5   6   4.2118   2.8643  12.0949   1.3745  -2.1450   4.4273   0.00    0.0
2015/03/19 00:28:30.000   45.709771161   13.763521939   326.1652   5   6   4.2035   2.8611  12.1191   1.3524  -2.1211   4.4243   0.00    0.0
2015/03/19 00:29:00.000   45.709769303   13.763525027   324.5640   5   6   4.1948   2.8581  12.1403   1.3303  -2.0962   4.4190   0.00    0.0
2015/03/19 00:29:30.000   45.709770688   13.763523794   325.6104   5   6   4.1857   2.8552  12.1584   1.3081  -2.0702   4.4113   0.00    0.0
2015/03/19 00:30:00.000   45.709768143   13.763528985   325.7722   5   6   4.1761   2.8525  12.1734   1.2858  -2.0432   4.4012   0.00    0.0
2015/03/19 00:30:30.000   45.709771685   13.763525902   326.6164   5   6   4.1662   2.8499  12.1852   1.2635  -2.0150   4.3887   0.00    0.0
2015/03/19 00:31:00.000   45.709772607   13.763527883   325.5366   5   6   4.1559   2.8475  12.1939   1.2411  -1.9857   4.3738   0.00    0.0
2015/03/19 00:31:30.000   45.709772641   13.763522685   325.6666   5   6   4.1453   2.8452  12.1995   1.2186  -1.9551   4.3565   0.00    0.0
2015/03/19 00:32:00.000   45.709772618   13.763531249   325.9033   5   6   4.1343   2.8431  12.2019   1.1959  -1.9233   4.3369   0.00    0.0
2015/03/19 00:32:30.000   45.709766604   13.763522808   326.0531   5   6   4.1229   2.8411  12.2011   1.1731  -1.8902   4.3150   0.00    0.0
2015/03/19 00:33:00.000   45.709770548   13.763526980   324.8425   5   6   4.1113   2.8394  12.1972   1.1500  -1.8557   4.2907   0.00    0.0
2015/03/19 00:33:30.000   45.709770780   13.763527289   325.4027   5   6   4.0994   2.8377  12.1902   1.1267  -1.8198   4.2641   0.00    0.0
2015/03/19 00:34:00.000   45.709766309   13.763524039   326.6473   5   6   4.0872   2.8363  12.1801   1.1031  -1.7824   4.2352   0.00    0.0
2015/03/19 00:34:30.000   45.709771616   13.763525996   326.3094   5   6   4.0748   2.8349  12.1670   1.0792  -1.7435   4.2041   0.00    0.0
2015/03/19 00:35:00.000   45.709763572   13.763522204   323.0814   5   6   4.0621   2.8338  12.1510   1.0548  -1.7029   4.1708   0.00    0.0
2015/03/19 00:35:30.000   45.709763569   13.763521021   323.9771   5   6   4.0493   2.8328  12.1321   1.0301  -1.6607   4.1354   0.00    0.0
2015/03/19 00:36:00.000   45.709768899   13.763517317   325.3739   5   6   4.0363   2.8320  12.1103   1.0048  -1.6166   4.0978   0.00    0.0
2015/03/19 00:36:30.000   45.709766157   13.763523049   325.9137   5   6   4.0232   2.8314  12.0858   0.9790  -1.5706   4.0581   0.00    0.0
2015/03/19 00:37:00.000   45.709771260   13.763526114   325.8401   5   6   4.0100   2.8310  12.0587   0.9525  -1.5226   4.0163   0.00    0.0
2015/03/19 00:37:30.000   45.709765935   13.763522476   325.8938   5   6   3.9967   2.8307  12.0289   0.9253  -1.4724   3.9726   0.00    0.0
2015/03/19 00:38:00.000   45.709766137   13.763526392   324.6108   5   6   3.9833   2.8306  11.9967   0.8973  -1.4198   3.9269   0.00    0.0
2015/03/19 00:38:30.000   45.709764974   13.763527355   325.3352   5   6   3.9699   2.8307  11.9620   0.8683  -1.3645   3.8792   0.00    0.0
2015/03/19 00:39:00.000   45.709763174   13.763534422   326.5141   5   6   3.9566   2.8309  11.9251   0.8382  -1.3063   3.8297   0.00    0.0
2015/03/19 00:39:30.000   45.709762475   13.763528982   325.7554   5   6   3.9433   2.8314  11.8860   0.8069  -1.2449   3.7784   0.00    0.0
2015/03/19 00:40:00.000   45.709766570   13.763532215   326.0664   5   6   3.9300   2.8320  11.8448   0.7741  -1.1798   3.7252   0.00    0.0
2015/03/19 00:40:30.000   45.709758924   13.763534088   325.8207   5   6   3.9169   2.8328  11.8017   0.7398  -1.1103   3.6703   0.00    0.0
2015/03/19 00:41:00.000   45.709768014   13.763534481   325.9105   5   6   3.9038   2.8338  11.7566   0.7035  -1.0357   3.6137   0.00    0.0
2015/03/19 00:41:30.000   45.709762967   13.763528587   323.7418   5   6   3.8909   2.8350  11.7098   0.6649  -0.9549   3.5553   0.00    0.0
2015/03/19 00:42:00.000   45.709765680   13.763526415   324.7598   5   6   3.8782   2.8365  11.6614   0.6236  -0.8661   3.4953   0.00    0.0
2015/03/19 00:42:30.000   45.709767707   13.763520955   323.2278   5   6   3.8656   2.8381  11.6114   0.5789  -0.7666   3.4337   0.00    0.0
2015/03/19 00:43:00.000   45.709768558   13.763521896   323.7145   5   6   3.8533   2.8398  11.5600   0.5300  -0.6518   3.3705   0.00    0.0
2015/03/19 00:43:30.000   45.709768342   13.763524052   323.4964   5   6   3.8412   2.8418  11.5073   0.4755  -0.5113   3.3056   0.00    0.0
2015/03/19 00:44:00.000   45.709764836   13.763525692   322.8765   5   6   3.8294   2.8440  11.4533   0.4131  -0.3127   3.2392   0.00    0.0
2015/03/19 00:44:30.000   45.709763272   13.763526526   324.3144   5   6   3.8179   2.8465  11.3982   0.3384   0.2573   3.1712   0.00    0.0
2015/03/19 00:45:00.000   45.709767648   13.763530398   324.3403   5   6   3.8066   2.8491  11.3421   0.2403   0.4799   3.1015   0.00    0.0
2015/03/19 00:45:30.000   45.709763771   13.763531759   324.4554   5   6   3.7957   2.8519  11.2851   0.0147   0.6281   3.0303   0.00    0.0
2015/03/19 00:46:00.000   45.709764322   13.763528532   324.2232   5   6   3.7851   2.8549  11.2273  -0.2410   0.7475   2.9575   0.00    0.0
2015/03/19 00:46:30.000   45.709764345   13.763529772   322.6550   5   6   3.7748   2.8582  11.1687  -0.3423   0.8502   2.8829   0.00    0.0
2015/03/19 00:47:00.000   45.709761907   13.763525989   324.3060   5   6   3.7649   2.8616  11.1095  -0.4208   0.9418   2.8067   0.00    0.0
2015/03/19 00:47:30.000   45.709760970   13.763519992   319.7885   5   7   3.6502   2.6789   6.7384  -1.0654  -2.8019  -0.5335   0.00    0.0
2015/03/19 00:48:00.000   45.709767258   13.763520816   320.2937   5   7   3.6502   2.6754   6.7351  -1.0829  -2.7902  -0.5486   0.00    0.0
2015/03/19 00:48:30.000   45.709765142   13.763520527   321.3145   5   7   3.6503   2.6719   6.7315  -1.0999  -2.7783  -0.5649   0.00    0.0
2015/03/19 00:49:00.000   45.709762650   13.763519738   320.4191   5   7   3.6504   2.6685   6.7276  -1.1164  -2.7661  -0.5824   0.00    0.0
2015/03/19 00:49:30.000   45.709758482   13.763521416   320.3210   5   7   3.6505   2.6650   6.7235  -1.1323  -2.7536  -0.6008   0.00    0.0
2015/03/19 00:50:00.000   45.709755419   13.763521221   319.3714   5   7   3.6506   2.6615   6.7191  -1.1477  -2.7408  -0.6200   0.00    0.0
2015/03/19 00:50:30.000   45.709762984   13.763520157   319.9347   5   7   3.6507   2.6580   6.7145  -1.1627  -2.7276  -0.6401   0.00    0.0
2015/03/19 00:51:00.000   45.709760263   13.763524492   320.2994   5   7   3.6508   2.6546   6.7095  -1.1773  -2.7142  -0.6609   0.00    0.0
2015/03/19 00:51:30.000   45.709755376   13.763521571   319.6731   5   7   3.6510   2.6511   6.7043  -1.1914  -2.7004  -0.6823   0.00    0.0
2015/03/19 00:52:00.000   45.709761907   13.763523865   320.8721   5   7   3.6511   2.6477   6.6989  -1.2051  -2.6864  -0.7042   0.00    0.0
2015/03/19 00:52:30.000   45.709754292   13.763525245   320.3095   5   7   3.6512   2.6442   6.6931  -1.2185  -2.6720  -0.7267   0.00    0.0
2015/03/19 00:53:00.000   45.709755381   13.763520770   319.4579   5   7   3.6513   2.6408   6.6871  -1.2314  -2.6574  -0.7495   0.00    0.0
2015/03/19 00:53:30.000   45.709758147   13.763518183   319.2633   5   7   3.6514   2.6374   6.6808  -1.2441  -2.6424  -0.7726   0.00    0.0
2015/03/19 00:54:00.000   45.709755489   13.763524869   318.9438   5   7   3.6515   2.6340   6.6743  -1.2564  -2.6271  -0.7961   0.00    0.0
2015/03/19 00:54:30.000   45.709760950   13.763528113   319.7249   5   7   3.6516   2.6306   6.6675  -1.2684  -2.6115  -0.8198   0.00    0.0
2015/03/19 00:55:00.000   45.709762124   13.763524731   319.1717   5   7   3.6517   2.6272   6.6604  -1.2801  -2.5956  -0.8438   0.00    0.0
2015/03/19 00:55:30.000   45.709757669   13.763518664   318.6423   5   7   3.6518   2.6239   6.6531  -1.2915  -2.5793  -0.8679   0.00    0.0
2015/03/19 00:56:00.000   45.709762524   13.763517839   320.3971   5   7   3.6519   2.6206   6.6455  -1.3026  -2.5628  -0.8921   0.00    0.0
2015/03/19 00:56:30.000   45.709761359   13.763522316   319.4358   5   7   3.6520   2.6173   6.6376  -1.3134  -2.5459  -0.9164   0.00    0.0
2015/03/19 00:57:00.000   45.709760911   13.763521546   319.4719   5   7   3.6520   2.6140   6.6296  -1.3240  -2.5288  -0.9408   0.00    0.0
2015/03/19 00:57:30.000   45.709762585   13.763518450   319.5366   5   7   3.6521   2.6108   6.6212  -1.3344  -2.5113  -0.9653   0.00    0.0
2015/03/19 00:58:00.000   45.709757975   13.763519765   319.4099   5   7   3.6522   2.6076   6.6126  -1.3445  -2.4935  -0.9898   0.00    0.0
2015/03/19 00:58:30.000   45.709760938   13.763520307   319.6356   5   7   3.6522   2.6044   6.6038  -1.3544  -2.4754  -1.0142   0.00    0.0
2015/03/19 00:59:00.000   45.709761044   13.763520062   320.2394   5   7   3.6523   2.6012   6.5947  -1.3641  -2.4569  -1.0386   0.00    0.0
2015/03/19 00:59:30.000   45.709759260   13.763519706   319.5570   5   7   3.6523   2.5981   6.5854  -1.3736  -2.4382  -1.0630   0.00    0.0
2015/03/19 01:00:00.000   45.709768697   13.763519689   318.9400   5   7   3.6523   2.5950   6.5759  -1.3829  -2.4192  -1.0873   0.00    0.0
2015/03/19 01:00:30.000   45.709762527   13.763521505   318.9081   5   7   3.6524   2.5920   6.5662  -1.3920  -2.3998  -1.1115   0.00    0.0
2015/03/19 01:01:00.000   45.709761989   13.763521852   320.1142   5   7   3.6524   2.5890   6.5562  -1.4010  -2.3801  -1.1356   0.00    0.0
2015/03/19 01:01:30.000   45.709756430   13.763518733   320.3491   5   7   3.6524   2.5860   6.5460  -1.4097  -2.3601  -1.1596   0.00    0.0
2015/03/19 01:02:00.000   45.709762241   13.763519912   319.1155   5   7   3.6523   2.5831   6.5357  -1.4183  -2.3398  -1.1835   0.00    0.0
2015/03/19 01:02:30.000   45.709765682   13.763522575   319.4765   5   7   3.6523   2.5803   6.5251  -1.4268  -2.3192  -1.2072   0.00    0.0
2015/03/19 01:03:00.000   45.709764804   13.763513481   319.6964   5   7   3.6523   2.5775   6.5143  -1.4351  -2.2983  -1.2307   0.00    0.0
2015/03/19 01:03:30.000   45.709762638   13.763519273   318.8832   5   7   3.6522   2.5747   6.5033  -1.4432  -2.2771  -1.2541   0.00    0.0
2015/03/19 01:04:00.000   45.709762786   13.763515577   320.0874   5   7   3.6522   2.5720   6.4922  -1.4512  -2.2556  -1.2773   0.00    0.0
2015/03/19 01:04:30.000   45.709761697   13.763523514   319.3920   5   7   3.6521   2.5694   6.4808  -1.4591  -2.2337  -1.3003   0.00    0.0
2015/03/19 01:05:00.000   45.709763053   13.763519725   319.3556   5   7   3.6520   2.5668   6.4693  -1.4669  -2.2115  -1.3231   0.00    0.0
2015/03/19 01:05:30.000   45.709760989   13.763518929   318.0488   5   7   3.6519   2.5642   6.4576  -1.4745  -2.1891  -1.3457   0.00    0.0
2015/03/19 01:06:00.000   45.709765178   13.763520704   318.6081   5   7   3.6518   2.5618   6.4458  -1.4820  -2.1663  -1.3681   0.00    0.0
2015/03/19 01:06:30.000   45.709764778   13.763518673   318.1578   5   7   3.6516   2.5594   6.4337  -1.4894  -2.1431  -1.3902   0.00    0.0
2015/03/19 01:07:00.000   45.709761784   13.763528347   319.0034   5   7   3.6515   2.5570   6.4216  -1.4967  -2.1197  -1.4122   0.00    0.0
2015/03/19 01:07:30.000   45.709764065   13.763520510   319.0766   5   7   3.6513   2.5547   6.4093  -1.5039  -2.0960  -1.4338   0.00    0.0
2015/03/19 01:08:00.000   45.709764139   13.763513585   319.8458   5   7   3.6511   2.5525   6.3968  -1.5110  -2.0719  -1.4552   0.00    0.0
2015/03/19 01:08:30.000   45.709764050   13.763518312   318.7223   5   7   3.6509   2.5504   6.3842  -1.5181  -2.0475  -1.4764   0.00    0.0
2015/03/19 01:09:00.000   45.709765603   13.763520080   319.8637   5   7   3.6507   2.5483   6.3714  -1.5250  -2.0228  -1.4973   0.00    0.0
2015/03/19 01:09:30.000   45.709762798   13.763515306   318.2913   5   7   3.6505   2.5464   6.3586  -1.5318  -1.9977  -1.5180   0.00    0.0
2015/03/19 01:10:00.000   45.709762986   13.763517536   319.0402   5   7   3.6502   2.5444   6.3456  -1.5386  -1.9724  -1.5383   0.00    0.0
2015/03/19 01:10:30.000   45.709763939   13.763523432   318.6385   5   7   3.6499   2.5426   6.3325  -1.5453  -1.9466  -1.5584   0.00    0.0
2015/03/19 01:11:00.000   45.709771581   13.763511582   320.0136   5   7   3.6496   2.5409   6.3193  -1.5519  -1.9206  -1.5782   0.00    0.0
2015/03/19 01:11:30.000   45.709763589   13.763519325   318.9399   5   7   3.6493   2.5392   6.3059  -1.5584  -1.8942  -1.5978   0.00    0.0
2015/03/19 01:12:00.000   45.709765974   13.763515176   319.5077   5   7   3.6489   2.5376   6.2925  -1.5648  -1.8674  -1.6170   0.00    0.0
2015/03/19 01:12:30.000   45.709765581   13.763520858   320.5865   5   7   3.6486   2.5361   6.2790  -1.5712  -1.8403  -1.6359   0.00    0.0
2015/03/19 01:13:00.000   45.709759725   13.763521587   318.5799   5   7   3.6481   2.5346   6.2653  -1.5775  -1.8128  -1.6546   0.00    0.0
2015/03/19 01:13:30.000   45.709764281   13.763514753   318.4730   5   7   3.6477   2.5333   6.2516  -1.5838  -1.7849  -1.6729   0.00    0.0
2015/03/19 01:14:00.000   45.709762892   13.763516507   319.3839   5   7   3.6473   2.5320   6.2378  -1.5900  -1.7567  -1.6910   0.00    0.0
2015/03/19 01:14:30.000   45.709765007   13.763516540   318.4475   5   7   3.6468   2.5308   6.2240  -1.5961  -1.7280  -1.7087   0.00    0.0
2015/03/19 01:15:00.000   45.709763698   13.763523928   319.3452   5   7   3.6462   2.5297   6.2100  -1.6022  -1.6990  -1.7262   0.00    0.0
2015/03/19 01:15:30.000   45.709766238   13.763519509   320.0331   5   7   3.6457   2.5287   6.1960  -1.6082  -1.6695  -1.7433   0.00    0.0
2015/03/19 01:16:00.000   45.709768045   13.763514007   318.8419   5   7   3.6451   2.5278   6.1819  -1.6141  -1.6396  -1.7601   0.00    0.0
2015/03/19 01:16:30.000   45.709767573   13.763520990   320.0405   5   7   3.6445   2.5270   6.1678  -1.6200  -1.6093  -1.7766   0.00    0.0
2015/03/19 01:17:00.000   45.709765290   13.763521474   318.9707   5   7   3.6438   2.5262   6.1535  -1.6258  -1.5785  -1.7928   0.00    0.0
2015/03/19 01:17:30.000   45.709767317   13.763516732   319.5463   5   7   3.6431   2.5256   6.1393  -1.6316  -1.5472  -1.8087   0.00    0.0
2015/03/19 01:18:00.000   45.709768538   13.763519317   319.0823   5   7   3.6424   2.5250   6.1250  -1.6373  -1.5153  -1.8242   0.00    0.0
2015/03/19 01:18:30.000   45.709768745   13.763512596   319.4647   5   7   3.6416   2.5245   6.1106  -1.6429  -1.4830  -1.8395   0.00    0.0
2015/03/19 01:19:00.000   45.709765392   13.763516693   320.1915   5   7   3.6408   2.5242   6.0962  -1.6485  -1.4501  -1.8544   0.00    0.0
2015/03/19 01:19:30.000   45.709765706   13.763517210   318.4163   5   7   3.6400   2.5239   6.0818  -1.6541  -1.4166  -1.8690   0.00    0.0
2015/03/19 01:20:00.000   45.709768079   13.763516442   318.8220   5   7   3.6391   2.5237   6.0673  -1.6595  -1.3825  -1.8833   0.00    0.0
2015/03/19 01:20:30.000   45.709765922   13.763516933   318.7440   5   7   3.6381   2.5236   6.0528  -1.6650  -1.3477  -1.8972   0.00    0.0
2015/03/19 01:21:00.000   45.709764227   13.763521147   319.5417   5   7   3.6371   2.5235   6.0383  -1.6703  -1.3122  -1.9109   0.00    0.0
2015/03/19 01:21:30.000   45.709766484   13.763515320   319.1620   5   7   3.6361   2.5236   6.0238  -1.6757  -1.2759  -1.9242   0.00    0.0
2015/03/19 01:22:00.000   45.709764512   13.763514698   320.1961   5   7   3.6350   2.5238   6.0092  -1.6809  -1.2388  -1.9372   0.00    0.0
2015/03/19 01:22:30.000   45.709763200   13.763514098   318.1866   5   7   3.6339   2.5240   5.9946  -1.6861  -1.2009  -1.9499   0.00    0.0
2015/03/19 01:23:00.000   45.709767577   13.763511717   319.2593   5   7   3.6327   2.5244   5.9800  -1.6913  -1.1619  -1.9622   0.00    0.0
2015/03/19 01:23:30.000   45.709763064   13.763515040   319.7687   5   7   3.6315   2.5248   5.9654  -1.6963  -1.1219  -1.9743   0.00    0.0
2015/03/19 01:24:00.000   45.709761474   13.763518704   319.6947   5   8   3.4158   2.3022   5.1134  -1.2724  -2.0800  -0.4504   0.00    0.0
2015/03/19 01:24:30.000   45.709758361   13.763516155   319.7603   5   8   3.4105   2.2972   5.1045  -1.2686  -2.0640  -0.4820   0.00    0.0
2015/03/19 01:25:00.000   45.709761945   13.763516380   319.8061   5   8   3.4051   2.2923   5.0955  -1.2647  -2.0479  -0.5116   0.00    0.0
2015/03/19 01:25:30.000   45.709762543   13.763519463   319.5732   5   8   3.3998   2.2874   5.0866  -1.2608  -2.0316  -0.5394   0.00    0.0
2015/03/19 01:26:00.000   45.709771280   13.763508548   320.2889   5   8   3.3944   2.2826   5.0776  -1.2568  -2.0153  -0.5657   0.00    0.0
2015/03/19 01:26:30.000   45.709768209   13.763520045   320.5107   5   8   3.3889   2.2778   5.0687  -1.2527  -1.9989  -0.5907   0.00    0.0
2015/03/19 01:27:00.000   45.709761566   13.763517381   320.8630   5   8   3.3835   2.2731   5.0597  -1.2487  -1.9823  -0.6145   0.00    0.0
2015/03/19 01:27:30.000   45.709762264   13.763512153   319.8690   5   8   3.3780   2.2685   5.0508  -1.2445  -1.9657  -0.6373   0.00    0.0
2015/03/19 01:28:00.000   45.709765371   13.763516691   320.5264   5   8   3.3726   2.2639   5.0418  -1.2404  -1.9490  -0.6592   0.00    0.0
2015/03/19 01:28:30.000   45.709765799   13.763520404   320.4821   5   8   3.3671   2.2594   5.0329  -1.2362  -1.9321  -0.6801   0.00    0.0
2015/03/19 01:29:00.000   45.709762443   13.763521236   319.9879   5   8   3.3615   2.2550   5.0240  -1.2319  -1.9152  -0.7003   0.00    0.0
2015/03/19 01:29:30.000   45.709762242   13.763520433   321.0419   5   9   2.8563   2.2337   4.6800  -1.0104  -1.7622  -1.9219   0.00    0.0
2015/03/19 01:30:00.000   45.709768207   13.763517899   319.7235   5   9   2.8514   2.2304   4.6782  -1.0132  -1.7498  -1.9186   0.00    0.0
2015/03/19 01:30:30.000   45.709769605   13.763522150   320.3329   5   9   2.8465   2.2272   4.6762  -1.0159  -1.7372  -1.9153   0.00    0.0
2015/03/19 01:31:00.000   45.709761532   13.763524666   321.4204   5   8   2.9059   2.6992   5.6026  -0.3282  -2.7746  -2.3523   0.00    0.0
2015/03/19 01:31:30.000   45.709770418   13.763507743   321.8865   5   8   2.8998   2.6922   5.5976  -0.3576  -2.7605  -2.3443   0.00    0.0
2015/03/19 01:32:00.000   45.709769200   13.763518912   320.8781   5   8   2.8937   2.6852   5.5925  -0.3846  -2.7464  -2.3363   0.00    0.0
2015/03/19 01:32:30.000   45.709770583   13.763512955   321.0787   5   8   2.8877   2.6782   5.5872  -0.4097  -2.7320  -2.3281   0.00    0.0
2015/03/19 01:33:00.000   45.709764532   13.763515686   320.2572   5   8   2.8817   2.6713   5.5817  -0.4332  -2.7175  -2.3198   0.00    0.0
2015/03/19 01:33:30.000   45.709762343   13.763514424   321.4199   5   8   2.8757   2.6643   5.5761  -0.4554  -2.7028  -2.3114   0.00    0.0
2015/03/19 01:34:00.000   45.709764194   13.763515646   321.2081   5   8   2.8698   2.6574   5.5704  -0.4764  -2.6879  -2.3029   0.00    0.0
2015/03/19 01:34:30.000   45.709762427   13.763519052   321.5208   5   8   2.8639   2.6505   5.5645  -0.4963  -2.6729  -2.2943   0.00    0.0
2015/03/19 01:35:00.000   45.709765939   13.763515252   321.1024   5   8   2.8581   2.6436   5.5584  -0.5154  -2.6577  -2.2855   0.00    0.0
2015/03/19 01:35:30.000   45.709764406   13.763509601   321.0266   5   8   2.8522   2.6368   5.5522  -0.5336  -2.6423  -2.2767   0.00    0.0
2015/03/19 01:36:00.000   45.709762273   13.763516417   321.5284   5   8   2.8465   2.6300   5.5458  -0.5511  -2.6268  -2.2678   0.00    0.0
2015/03/19 01:36:30.000   45.709760368   13.763517747   321.3072   5   8   2.8407   2.6232   5.5393  -0.5679  -2.6110  -2.2587   0.00    0.0
2015/03/19 01:37:00.000   45.709761849   13.763512469   320.6447   5   9   2.7912   2.0401   4.7671   0.6870  -1.4609  -2.5405   0.00    0.0
2015/03/19 01:37:30.000   45.709762960   13.763514899   320.6406   5   9   2.7848   2.0369   4.7693   0.6759  -1.4484  -2.5329   0.00    0.0
2015/03/19 01:38:00.000   45.709771200   13.763513970   320.5366   5   9   2.7783   2.0337   4.7715   0.6647  -1.4358  -2.5252   0.00    0.0
2015/03/19 01:38:30.000   45.709764582   13.763514840   321.1315   5   9   2.7719   2.0306   4.7736   0.6534  -1.4230  -2.5174   0.00    0.0
2015/03/19 01:39:00.000   45.709762113   13.763517111   320.7335   5   9   2.7655   2.0276   4.7756   0.6420  -1.4101  -2.5094   0.00    0.0
2015/03/19 01:39:30.000   45.709760055   13.763516289   320.7605   5   9   2.7591   2.0247   4.7775   0.6304  -1.3970  -2.5013   0.00    0.0
2015/03/19 01:40:00.000   45.709768248   13.763516819   320.8985   5   9   2.7528   2.0218   4.7794   0.6188  -1.3838  -2.4931   0.00    0.0
2015/03/19 01:40:30.000   45.709766802   13.763514738   320.5144   5   9   2.7465   2.0189   4.7813   0.6070  -1.3704  -2.4848   0.00    0.0
2015/03/19 01:41:00.000   45.709761765   13.763511673   321.7780   5   9   2.7403   2.0162   4.7831   0.5951  -1.3568  -2.4763   0.00    0.0
2015/03/19 01:41:30.000   45.709763312   13.763515544   321.1391   5   9   2.7340   2.0135   4.7848   0.5831  -1.3430  -2.4678   0.00    0.0
2015/03/19 01:42:00.000   45.709761629   13.763516544   321.8998   5   9   2.7279   2.0108   4.7864   0.5709  -1.3291  -2.4591   0.00    0.0
2015/03/19 01:42:30.000   45.709768035   13.763515958   321.0526   5   9   2.7217   2.0083   4.7880   0.5586  -1.3150  -2.4503   0.00    0.0
2015/03/19 01:43:00.000   45.709764072   13.763514835   321.3334   5   9   2.7156   2.0058   4.7895   0.5461  -1.3006  -2.4414   0.00    0.0
2015/03/19 01:43:30.000   45.709761096   13.763520883   320.3236   5   9   2.7095   2.0033   4.7910   0.5334  -1.2861  -2.4323   0.00    0.0
2015/03/19 01:44:00.000   45.709767962   13.763513326   321.0967   5   9   2.7035   2.0009   4.7923   0.5205  -1.2714  -2.4232   0.00    0.0
2015/03/19 01:44:30.000   45.709764629   13.763522640   321.3639   5   9   2.6976   1.9986   4.7937   0.5074  -1.2564  -2.4139   0.00    0.0
2015/03/19 01:45:00.000   45.709765461   13.763520814   321.0360   5   9   2.6916   1.9964   4.7949   0.4942  -1.2412  -2.4045   0.00    0.0
2015/03/19 01:45:30.000   45.709765474   13.763516978   322.1275   5   9   2.6857   1.9942   4.7961   0.4806  -1.2258  -2.3950   0.00    0.0
2015/03/19 01:46:00.000   45.709763866   13.763519695   320.7412   5   9   2.6799   1.9921   4.7972   0.4669  -1.2101  -2.3854   0.00    0.0
2015/03/19 01:46:30.000   45.709767129   13.763514845   320.9574   5   9   2.6741   1.9900   4.7983   0.4528  -1.1942  -2.3756   0.00    0.0
2015/03/19 01:47:00.000   45.709763796   13.763519047   321.4002   5   9   2.6684   1.9881   4.7993   0.4385  -1.1780  -2.3658   0.00    0.0
2015/03/19 01:47:30.000   45.709762720   13.763518724   321.0564   5   9   2.6627   1.9861   4.8002   0.4238  -1.1615  -2.3558   0.00    0.0
2015/03/19 01:48:00.000   45.709768676   13.763517999   320.1335   5   9   2.6571   1.9843   4.8011   0.4088  -1.1447  -2.3458   0.00    0.0
2015/03/19 01:48:30.000   45.709761276   13.763517052   320.4109   5   9   2.6515   1.9825   4.8019   0.3934  -1.1276  -2.3356   0.00    0.0
2015/03/19 01:49:00.000   45.709767379   13.763515645   320.9519   5   9   2.6460   1.9808   4.8026   0.3775  -1.1102  -2.3253   0.00    0.0
2015/03/19 01:49:30.000   45.709765514   13.763511301   321.0101   5   9   2.6405   1.9791   4.8033   0.3612  -1.0924  -2.3149   0.00    0.0
2015/03/19 01:50:00.000   45.709762713   13.763519418   320.3439   5   9   2.6351   1.9776   4.8039   0.3442  -1.0743  -2.3044   0.00    0.0
2015/03/19 01:50:30.000   45.709766599   13.763515242   320.6427   5   9   2.6298   1.9760   4.8045   0.3266  -1.0558  -2.2938   0.00    0.0
2015/03/19 01:51:00.000   45.709762280   13.763512942   321.2742   5   9   2.6245   1.9746   4.8050   0.3083  -1.0370  -2.2831   0.00    0.0
2015/03/19 01:51:30.000   45.709763030   13.763514886   320.9593   5   9   2.6193   1.9732   4.8055   0.2890  -1.0177  -2.2723   0.00    0.0
2015/03/19 01:52:00.000   45.709767017   13.763519375   319.8936   5   9   2.6141   1.9719   4.8059   0.2686  -0.9979  -2.2613   0.00    0.0
2015/03/19 01:52:30.000   45.709758459   13.763515269   321.0039   5   9   2.6090   1.9707   4.8062   0.2468  -0.9777  -2.2503   0.00    0.0
2015/03/19 01:53:00.000   45.709762354   13.763517042   320.7687   5   9   2.6040   1.9695   4.8065   0.2232  -0.9570  -2.2392   0.00    0.0
2015/03/19 01:53:30.000   45.709764324   13.763515661   320.8617   5   9   2.5990   1.9684   4.8067   0.1971  -0.9358  -2.2280   0.00    0.0
2015/03/19 01:54:00.000   45.709766442   13.763514888   321.3415   5   9   2.5941   1.9674   4.8069   0.1676  -0.9140  -2.2166   0.00    0.0
2015/03/19 01:54:30.000   45.709762032   13.763512431   320.9559   5   9   2.5893   1.9664   4.8071   0.1320  -0.8915  -2.2052   0.00    0.0
2015/03/19 01:55:00.000   45.709763911   13.763516299   320.6265   5   9   2.5845   1.9655   4.8072   0.0833  -0.8685  -2.1937   0.00    0.0
2015/03/19 01:55:30.000   45.709762958   13.763515824   321.2313   5   9   2.5798   1.9647   4.8073  -0.0583  -0.8446  -2.1821   0.00    0.0
2015/03/19 01:56:00.000   45.709764918   13.763512198   321.4501   5   9   2.5752   1.9639   4.8073  -0.1166  -0.8201  -2.1704   0.00    0.0
2015/03/19 01:56:30.000   45.709772379   13.763515133   320.1473   5   9   2.5706   1.9633   4.8073  -0.1537  -0.7946  -2.1585   0.00    0.0
2015/03/19 01:57:00.000   45.709767643   13.763514037   320.6051   5   9   2.5662   1.9627   4.8073  -0.1830  -0.7683  -2.1466   0.00    0.0
2015/03/19 01:57:30.000   45.709764015   13.763513096   320.7668   5   9   2.5618   1.9621   4.8072  -0.2079  -0.7408  -2.1346   0.00    0.0
2015/03/19 01:58:00.000   45.709762342   13.763511907   320.5175   5   9   2.5574   1.9617   4.8071  -0.2298  -0.7123  -2.1226   0.00    0.0
2015/03/19 01:58:30.000   45.709766038   13.763516608   321.0105   5   9   2.5532   1.9613   4.8070  -0.2495  -0.6824  -2.1104   0.00    0.0
2015/03/19 01:59:00.000   45.709761506   13.763519506   321.5277   5   9   2.5490   1.9610   4.8069  -0.2674  -0.6510  -2.0981   0.00    0.0
2015/03/19 01:59:30.000   45.709762889   13.763513934   320.8900   5  10   2.4686   1.8319   4.3701   0.5932  -1.3346  -1.7641   0.00    0.0
2015/03/19 02:00:00.000   45.709766815   13.763510076   320.4583   5  10   2.4649   1.8297   4.3702   0.5875  -1.3227  -1.7503   0.00    0.0
2015/03/19 02:00:30.000   45.709773434   13.763509431   320.5334   5  10   2.4612   1.8275   4.3702   0.5820  -1.3106  -1.7364   0.00    0.0
2015/03/19 02:01:00.000   45.709766696   13.763516484   320.8832   5  10   2.4576   1.8253   4.3703   0.5765  -1.2983  -1.7224   0.00    0.0
2015/03/19 02:01:30.000   45.709764703   13.763515906   320.9610   5  10   2.4541   1.8233   4.3703   0.5711  -1.2858  -1.7083   0.00    0.0
2015/03/19 02:02:00.000   45.709765975   13.763516100   320.7900   5  10   2.4507   1.8213   4.3704   0.5657  -1.2731  -1.6940   0.00    0.0
2015/03/19 02:02:30.000   45.709761035   13.763519957   321.6627   5  10   2.4474   1.8193   4.3705   0.5605  -1.2603  -1.6796   0.00    0.0
2015/03/19 02:03:00.000   45.709767057   13.763512857   320.4463   5  10   2.4442   1.8174   4.3707   0.5553  -1.2472  -1.6651   0.00    0.0
2015/03/19 02:03:30.000   45.709766004   13.763517825   320.6093   5  10   2.4410   1.8156   4.3708   0.5502  -1.2339  -1.6505   0.00    0.0
2015/03/19 02:04:00.000   45.709769381   13.763510829   319.2084   5  10   2.4380   1.8138   4.3710   0.5453  -1.2204  -1.6358   0.00    0.0
2015/03/19 02:04:30.000   45.709767697   13.763509457   320.6693   5  10   2.4350   1.8121   4.3712   0.5404  -1.2067  -1.6209   0.00    0.0
2015/03/19 02:05:00.000   45.709763153   13.763515911   320.6082   5  10   2.4322   1.8105   4.3714   0.5356  -1.1927  -1.6059   0.00    0.0
2015/03/19 02:05:30.000   45.709767322   13.763509912   320.7128   5  10   2.4294   1.8089   4.3717   0.5309  -1.1785  -1.5908   0.00    0.0
2015/03/19 02:06:00.000   45.709768909   13.763513040   320.6684   5  10   2.4267   1.8073   4.3720   0.5264  -1.1640  -1.5755   0.00    0.0
2015/03/19 02:06:30.000   45.709762296   13.763514517   320.4168   5   9   2.7922   1.8072   4.7106   0.6054  -1.0963  -0.0732   0.00    0.0
2015/03/19 02:07:00.000   45.709766721   13.763516189   320.9511   5   9   2.7909   1.8058   4.7266   0.6033  -1.0782   0.3224   0.00    0.0
2015/03/19 02:07:30.000   45.709766935   13.763512740   320.4742   5   9   2.7898   1.8045   4.7430   0.6014  -1.0595   0.4625   0.00    0.0
2015/03/19 02:08:00.000   45.709772099   13.763510098   320.2693   5   9   2.7889   1.8033   4.7599   0.5999  -1.0402   0.5698   0.00    0.0
2015/03/19 02:08:30.000   45.709765453   13.763511317   319.8495   5   9   2.7882   1.8022   4.7771   0.5988  -1.0201   0.6605   0.00    0.0
2015/03/19 02:09:00.000   45.709767208   13.763516982   320.4081   5   9   2.7878   1.8011   4.7947   0.5980  -0.9993   0.7406   0.00    0.0
2015/03/19 02:09:30.000   45.709762967   13.763515769   320.7503   5   9   2.7875   1.8001   4.8127   0.5976  -0.9777   0.8134   0.00    0.0
2015/03/19 02:10:00.000   45.709763122   13.763511386   320.4259   5   9   2.7874   1.7992   4.8311   0.5976  -0.9552   0.8807   0.00    0.0
2015/03/19 02:10:30.000   45.709767113   13.763509841   321.0090   5   9   2.7875   1.7984   4.8500   0.5980  -0.9318   0.9436   0.00    0.0
2015/03/19 02:11:00.000   45.709763457   13.763516997   320.7460   5   9   2.7879   1.7977   4.8692   0.5988  -0.9072   1.0031   0.00    0.0
2015/03/19 02:11:30.000   45.709763856   13.763513429   320.5705   5   9   2.7884   1.7970   4.8888   0.6000  -0.8816   1.0596   0.00    0.0
2015/03/19 02:12:00.000   45.709768824   13.763509872   321.0205   5   9   2.7891   1.7964   4.9088   0.6015  -0.8546   1.1137   0.00    0.0
2015/03/19 02:12:30.000   45.709764419   13.763513265   321.4122   5   9   2.7900   1.7960   4.9292   0.6035  -0.8262   1.1656   0.00    0.0
2015/03/19 02:13:00.000   45.709763081   13.763514692   321.5005   5   9   2.7911   1.7956   4.9500   0.6059  -0.7962   1.2158   0.00    0.0
2015/03/19 02:13:30.000   45.709767445   13.763513864   320.6311   5   9   2.7925   1.7952   4.9712   0.6087  -0.7643   1.2643   0.00    0.0
2015/03/19 02:14:00.000   45.709764031   13.763508816   319.7244   5   9   2.7940   1.7950   4.9928   0.6118  -0.7304   1.3115   0.00    0.0
2015/03/19 02:14:30.000   45.709766685   13.763514566   320.3591   5   9   2.7957   1.7949   5.0148   0.6154  -0.6941   1.3573   0.00    0.0
2015/03/19 02:15:00.000   45.709766367   13.763513431   321.0141   5   9   2.7976   1.7949   5.0372   0.6195  -0.6550   1.4021   0.00    0.0
2015/03/19 02:15:30.000   45.709764955   13.763513851   320.2640   5   9   2.7996   1.7949   5.0600   0.6239  -0.6124   1.4458   0.00    0.0
2015/03/19 02:16:00.000   45.709770544   13.763510411   320.6509   5   9   2.8019   1.7951   5.0831   0.6287  -0.5657   1.4885   0.00    0.0
2015/03/19 02:16:30.000   45.709763363   13.763511300   321.1071   5   9   2.8044   1.7954   5.1067   0.6339  -0.5135   1.5304   0.00    0.0
2015/03/19 02:17:00.000   45.709768913   13.763515690   320.1250   5   9   2.8070   1.7958   5.1306   0.6395  -0.4541   1.5716   0.00    0.0
2015/03/19 02:17:30.000   45.709768251   13.763514804   320.7708   5   9   2.8098   1.7963   5.1549   0.6455  -0.3841   1.6120   0.00    0.0
2015/03/19 02:18:00.000   45.709766124   13.763515068   320.6809   5   9   2.8128   1.7969   5.1796   0.6519  -0.2958   1.6517   0.00    0.0
2015/03/19 02:18:30.000   45.709764102   13.763511445   320.4189   5   9   2.8160   1.7976   5.2046   0.6587  -0.1617   1.6908   0.00    0.0
2015/03/19 02:19:00.000   45.709767029   13.763511952   321.1083   5   9   2.8193   1.7984   5.2300   0.6659   0.1913   1.7294   0.00    0.0
2015/03/19 02:19:30.000   45.709767348   13.763513288   320.7225   5   9   2.8228   1.7994   5.2558   0.6735   0.3173   1.7673   0.00    0.0
2015/03/19 02:20:00.000   45.709764785   13.763513555   320.8407   5   9   2.8265   1.8004   5.2819   0.6814   0.4077   1.8048   0.00    0.0
2015/03/19 02:20:30.000   45.709766206   13.763512779   320.5887   5   9   2.8303   1.8016   5.3083   0.6897   0.4830   1.8418   0.00    0.0
2015/03/19 02:21:00.000   45.709767230   13.763511771   319.5687   5   9   2.8343   1.8030   5.3351   0.6983   0.5493   1.8783   0.00    0.0
2015/03/19 02:21:30.000   45.709765076   13.763514060   320.6121   5   9   2.8385   1.8044   5.3622   0.7073   0.6098   1.9144   0.00    0.0
2015/03/19 02:22:00.001   45.709769000   13.763510240   320.5702   5   9   2.8428   1.8060   5.3897   0.7166   0.6659   1.9501   0.00    0.0
2015/03/19 02:22:30.000   45.709763724   13.763512100   319.9153   5   9   2.8472   1.8077   5.4174   0.7263   0.7188   1.9853   0.00    0.0
2015/03/19 02:23:00.000   45.709764159   13.763511222   320.5584   5   9   2.8518   1.8096   5.4455   0.7362   0.7691   2.0202   0.00    0.0
2015/03/19 02:23:30.000   45.709765308   13.763511879   320.2129   5   9   2.8565   1.8116   5.4738   0.7465   0.8174   2.0547   0.00    0.0
2015/03/19 02:24:00.000   45.709765277   13.763515816   320.8337   5   9   2.8614   1.8138   5.5024   0.7571   0.8639   2.0888   0.00    0.0
2015/03/19 02:24:30.000   45.709766277   13.763513708   320.2241   5   9   2.8664   1.8161   5.5313   0.7680   0.9090   2.1225   0.00    0.0
2015/03/19 02:25:00.000   45.709767147   13.763510197   320.4758   5   9   2.8715   1.8186   5.5604   0.7792   0.9529   2.1559   0.00    0.0
2015/03/19 02:25:30.000   45.709765483   13.763512952   320.1318   5   9   2.8767   1.8212   5.5898   0.7907   0.9958   2.1889   0.00    0.0
2015/03/19 02:26:00.000   45.709758598   13.763511625   319.5708   5   9   2.8820   1.8240   5.6194   0.8024   1.0378   2.2215   0.00    0.0
2015/03/19 02:26:30.000   45.709767171   13.763511018   320.1462   5   9   2.8874   1.8270   5.6492   0.8144   1.0790   2.2538   0.00    0.0
2015/03/19 02:27:00.000   45.709759785   13.763510442   319.7419   5   9   2.8929   1.8301   5.6792   0.8266   1.1195   2.2857   0.00    0.0
2015/03/19 02:27:30.000   45.709763174   13.763512899   320.2225   5   9   2.8985   1.8334   5.7093   0.8391   1.1594   2.3173   0.00    0.0
2015/03/19 02:28:00.000   45.709764181   13.763513660   321.0825   5   9   2.9042   1.8369   5.7396   0.8518   1.1987   2.3485   0.00    0.0
2015/03/19 02:28:30.000   45.709760914   13.763511638   320.0863   5   9   2.9099   1.8405   5.7701   0.8647   1.2376   2.3794   0.00    0.0
2015/03/19 02:29:00.000   45.709765847   13.763510704   320.1056   5   9   2.9157   1.8444   5.8006   0.8778   1.2761   2.4099   0.00    0.0
2015/03/19 02:29:30.000   45.709763930   13.763509480   319.9567   5   9   2.9215   1.8484   5.8313   0.8911   1.3141   2.4399   0.00    0.0
2015/03/19 02:30:00.000   45.709768915   13.763514738   321.6507   5   9   2.9274   1.8526   5.8620   0.9046   1.3518   2.4696   0.00    0.0
2015/03/19 02:30:30.000   45.709764819   13.763511816   319.5263   5   9   2.9333   1.8570   5.8928   0.9183   1.3892   2.4989   0.00    0.0
2015/03/19 02:31:00.000   45.709763511   13.763514501   320.4525   5   9   2.9392   1.8616   5.9236   0.9321   1.4263   2.5278   0.00    0.0
2015/03/19 02:31:30.000   45.709767259   13.763513793   320.6915   5   9   2.9452   1.8664   5.9544   0.9460   1.4631   2.5563   0.00    0.0
2015/03/19 02:32:00.000   45.709768129   13.763516918   321.1557   5   9   2.9511   1.8713   5.9852   0.9601   1.4996   2.5843   0.00    0.0
2015/03/19 02:32:30.000   45.709766441   13.763515449   319.9069   5   9   2.9570   1.8765   6.0159   0.9743   1.5359   2.6119   0.00    0.0
2015/03/19 02:33:00.000   45.709764175   13.763517039   320.3883   5   9   2.9629   1.8819   6.0466   0.9886   1.5720   2.6390   0.00    0.0
2015/03/19 02:33:30.000   45.709763202   13.763514282   319.5114   5   9   2.9688   1.8875   6.0771   1.0030   1.6078   2.6656   0.00    0.0
2015/03/19 02:34:00.000   45.709770968   13.763514635   320.8921   5   9   2.9746   1.8933   6.1075   1.0175   1.6434   2.6917   0.00    0.0
2015/03/19 02:34:30.000   45.709764495   13.763513263   319.5642   5   9   2.9804   1.8993   6.1377   1.0320   1.6788   2.7173   0.00    0.0
2015/03/19 02:35:00.000   45.709768946   13.763510267   320.1144   5   9   2.9860   1.9055   6.1677   1.0466   1.7139   2.7424   0.00    0.0
2015/03/19 02:35:30.000   45.709765222   13.763509413   319.6181   5   9   2.9916   1.9120   6.1975   1.0612   1.7489   2.7669   0.00    0.0
2015/03/19 02:36:00.000   45.709764814   13.763511409   320.4738   5   9   2.9971   1.9186   6.2270   1.0758   1.7836   2.7909   0.00    0.0
2015/03/19 02:36:30.000   45.709765732   13.763507093   319.8670   5   9   3.0025   1.9254   6.2563   1.0904   1.8181   2.8142   0.00    0.0
2015/03/19 02:37:00.000   45.709767823   13.763508443   320.5153   5   9   3.0078   1.9325   6.2852   1.1050   1.8524   2.8370   0.00    0.0
2015/03/19 02:37:30.000   45.709763585   13.763507769   320.3946   5   9   3.0129   1.9398   6.3137   1.1196   1.8865   2.8591   0.00    0.0
2015/03/19 02:38:00.000   45.709767043   13.763507583   319.7856   5   9   3.0179   1.9472   6.3418   1.1341   1.9203   2.8805   0.00    0.0
2015/03/19 02:38:30.000   45.709766740   13.763513008   319.4515   5   9   3.0227   1.9549   6.3695   1.1486   1.9539   2.9013   0.00    0.0
2015/03/19 02:39:00.000   45.709763902   13.763513935   320.6569   5   9   3.0274   1.9628   6.3968   1.1630   1.9872   2.9214   0.00    0.0
2015/03/19 02:39:30.000   45.709764254   13.763514438   320.3298   5   9   3.0318   1.9709   6.4236   1.1773   2.0202   2.9408   0.00    0.0
2015/03/19 02:40:00.000   45.709765219   13.763515725   320.1107   5   9   3.0361   1.9791   6.4498   1.1914   2.0530   2.9594   0.00    0.0
2015/03/19 02:40:30.000   45.709767170   13.763512796   319.9798   5   9   3.0401   1.9876   6.4754   1.2055   2.0855   2.9773   0.00    0.0
2015/03/19 02:41:30.000   45.709761887   13.763510697   320.2964   5   8   3.3380   2.2537   7.9025   1.7094   0.1828   1.7297   0.00    0.0
2015/03/19 02:42:00.000   45.709762298   13.763511378   322.0491   5   8   3.3325   2.2545   7.9484   1.7066   0.4413   1.7654   0.00    0.0
2015/03/19 02:42:30.000   45.709766206   13.763511355   321.2249   5   9   3.1295   2.2555   6.3568   1.7045   0.5920   2.9513   0.00    0.0
2015/03/19 02:43:00.000   45.709763777   13.763511003   320.7403   5   9   3.1309   2.2566   6.3771   1.7083   0.6491   2.9633   0.00    0.0
2015/03/19 02:43:30.000   45.709761526   13.763512448   320.9892   5   9   3.1321   2.2578   6.3964   1.7120   0.7015   2.9743   0.00    0.0
2015/03/19 02:44:00.000   45.709762691   13.763504321   320.1650   5   9   3.1330   2.2589   6.4148   1.7157   0.7500   2.9845   0.00    0.0
2015/03/19 02:44:30.000   45.709763200   13.763506232   323.4063   5   9   3.1336   2.2602   6.4321   1.7193   0.7954   2.9939   0.00    0.0
2015/03/19 02:45:00.000   45.709759228   13.763507626   322.1362   5   9   3.1339   2.2615   6.4485   1.7228   0.8381   3.0023   0.00    0.0
2015/03/19 02:45:30.000   45.709759422   13.763503455   320.9884   5   9   3.1339   2.2628   6.4637   1.7262   0.8785   3.0098   0.00    0.0
2015/03/19 02:46:00.000   45.709761129   13.763505604   321.3501   5   9   3.1336   2.2641   6.4779   1.7295   0.9167   3.0164   0.00    0.0
2015/03/19 02:46:30.000   45.709765361   13.763506036   320.4998   5   9   3.1331   2.2655   6.4910   1.7326   0.9531   3.0220   0.00    0.0
2015/03/19 02:47:00.000   45.709763911   13.763505910   321.2761   5   9   3.1322   2.2669   6.5029   1.7357   0.9877   3.0266   0.00    0.0
2015/03/19 02:47:30.000   45.709762110   13.763508468   321.8586   5   9   3.1310   2.2684   6.5137   1.7386   1.0208   3.0303   0.00    0.0
2015/03/19 02:48:00.000   45.709765836   13.763507311   321.7657   5   9   3.1295   2.2699   6.5233   1.7413   1.0524   3.0330   0.00    0.0
2015/03/19 02:48:30.000   45.709762015   13.763511088   321.6910   5   9   3.1277   2.2714   6.5317   1.7439   1.0825   3.0348   0.00    0.0
2015/03/19 02:49:00.000   45.709763490   13.763505749   321.5254   5   9   3.1255   2.2729   6.5388   1.7464   1.1114   3.0355   0.00    0.0
2015/03/19 02:49:30.000   45.709763479   13.763509223   323.0460   5   9   3.1231   2.2744   6.5448   1.7487   1.1390   3.0352   0.00    0.0
2015/03/19 02:50:00.000   45.709762298   13.763505059   321.3000   5   9   3.1203   2.2760   6.5495   1.7508   1.1654   3.0339   0.00    0.0
2015/03/19 02:50:30.000   45.709761574   13.763508429   321.2420   5   9   3.1172   2.2775   6.5530   1.7527   1.1906   3.0316   0.00    0.0
2015/03/19 02:51:00.000   45.709763137   13.763508145   320.5465   5   9   3.1138   2.2791   6.5553   1.7544   1.2147   3.0283   0.00    0.0
2015/03/19 02:51:30.000   45.709761094   13.763505386   319.5311   5   9   3.1101   2.2807   6.5563   1.7559   1.2378   3.0241   0.00    0.0
2015/03/19 02:52:00.000   45.709766009   13.763508730   321.6651   5   9   3.1061   2.2823   6.5561   1.7573   1.2598   3.0188   0.00    0.0
2015/03/19 02:52:30.000   45.709764019   13.763510117   321.2518   5   9   3.1017   2.2838   6.5546   1.7584   1.2808   3.0125   0.00    0.0
2015/03/19 02:53:00.000   45.709760887   13.763505531   321.7882   5   9   3.0971   2.2854   6.5520   1.7593   1.3008   3.0052   0.00    0.0
2015/03/19 02:53:30.000   45.709762078   13.763506131   322.4447   5   9   3.0922   2.2870   6.5481   1.7600   1.3199   2.9969   0.00    0.0
2015/03/19 02:54:00.000   45.709760772   13.763508925   321.2274   5   9   3.0870   2.2885   6.5429   1.7605   1.3380   2.9877   0.00    0.0
2015/03/19 02:54:30.000   45.709765450   13.763510587   322.9522   5   9   3.0815   2.2901   6.5366   1.7608   1.3552   2.9775   0.00    0.0
2015/03/19 02:55:00.000   45.709764243   13.763510031   320.3681   5   9   3.0757   2.2916   6.5291   1.7608   1.3715   2.9664   0.00    0.0
2015/03/19 02:55:30.000   45.709765308   13.763512069   321.0622   5   9   3.0697   2.2931   6.5205   1.7606   1.3869   2.9544   0.00    0.0
2015/03/19 02:56:00.000   45.709759187   13.763508834   319.8993   5   9   3.0634   2.2946   6.5107   1.7602   1.4015   2.9414   0.00    0.0
2015/03/19 02:56:30.000   45.709767438   13.763511864   320.9658   5   9   3.0569   2.2961   6.4998   1.7596   1.4153   2.9275   0.00    0.0
2015/03/19 02:57:00.000   45.709766082   13.763513330   320.6317   5   9   3.0502   2.2976   6.4879   1.7587   1.4283   2.9128   0.00    0.0
2015/03/19 02:57:30.000   45.709761104   13.763510310   321.7638   5   9   3.0432   2.2990   6.4748   1.7576   1.4404   2.8972   0.00    0.0
2015/03/19 02:58:00.000   45.709768230   13.763511543   321.5457   5   9   3.0361   2.3004   6.4608   1.7563   1.4518   2.8808   0.00    0.0
2015/03/19 02:58:30.000   45.709765046   13.763512429   322.5032   5   9   3.0287   2.3018   6.4457   1.7547   1.4625   2.8635   0.00    0.0
2015/03/19 02:59:00.000   45.709761322   13.763511352   321.3802   5   9   3.0211   2.3031   6.4297   1.7529   1.4724   2.8454   0.00    0.0
2015/03/19 02:59:30.000   45.709763286   13.763512933   321.3420   5   9   3.0134   2.3044   6.4127   1.7509   1.4816   2.8266   0.00    0.0
2015/03/19 03:00:00.000   45.709762368   13.763509688   320.3084   5   9   3.0055   2.3057   6.3948   1.7487   1.4901   2.8070   0.00    0.0
2015/03/19 03:00:30.000   45.709760533   13.763510289   321.1875   5   9   2.9975   2.3070   6.3761   1.7463   1.4979   2.7867   0.00    0.0
2015/03/19 03:01:00.000   45.709761662   13.763507930   320.2947   5   9   2.9893   2.3082   6.3565   1.7436   1.5051   2.7656   0.00    0.0
2015/03/19 03:01:30.000   45.709762231   13.763507774   319.5329   5   9   2.9810   2.3094   6.3362   1.7408   1.5116   2.7439   0.00    0.0
2015/03/19 03:02:00.000   45.709759301   13.763506614   320.7453   5   9   2.9726   2.3105   6.3150   1.7377   1.5175   2.7215   0.00    0.0
2015/03/19 03:02:30.000   45.709758749   13.763510516   320.8435   5   9   2.9641   2.3116   6.2932   1.7344   1.5228   2.6985   0.00    0.0
2015/03/19 03:03:00.000   45.709756306   13.763508865   320.7420   5   9   2.9556   2.3127   6.2707   1.7309   1.5275   2.6749   0.00    0.0
2015/03/19 03:03:30.000   45.709763470   13.763508737   320.9336   5   9   2.9469   2.3137   6.2475   1.7272   1.5317   2.6507   0.00    0.0
2015/03/19 03:04:00.000   45.709758979   13.763509986   321.4608   5   9   2.9382   2.3147   6.2237   1.7233   1.5353   2.6259   0.00    0.0
2015/03/19 03:04:30.000   45.709755506   13.763508601   320.3979   5   9   2.9294   2.3156   6.1994   1.7192   1.5384   2.6005   0.00    0.0
2015/03/19 03:05:00.000   45.709765699   13.763509777   321.3550   5  10   2.4046   2.0631   4.7719   1.0930  -1.3243   0.3660   0.00    0.0
2015/03/19 03:05:30.000   45.709763960   13.763510147   321.4119   5  10   2.4029   2.0617   4.7677   1.0888  -1.3148   0.3287   0.00    0.0
2015/03/19 03:06:00.000   45.709760000   13.763507408   320.8484   5  10   2.4013   2.0603   4.7633   1.0846  -1.3052   0.2860   0.00    0.0
2015/03/19 03:06:30.000   45.709764489   13.763511803   320.6730   5  10   2.3997   2.0589   4.7587   1.0803  -1.2955   0.2352   0.00    0.0
2015/03/19 03:07:00.000   45.709760577   13.763508071   320.2429   5  10   2.3982   2.0575   4.7539   1.0760  -1.2857   0.1691   0.00    0.0
2015/03/19 03:07:30.000   45.709759924   13.763507806   321.2555   5  10   2.3967   2.0562   4.7490   1.0717  -1.2757   0.0406   0.00    0.0
2015/03/19 03:08:00.000   45.709763567   13.763512119   320.8142   5  10   2.3953   2.0548   4.7438   1.0673  -1.2657  -0.1598   0.00    0.0
2015/03/19 03:08:30.000   45.709763044   13.763507465   320.9193   5  10   2.3939   2.0535   4.7385   1.0629  -1.2555  -0.2300   0.00    0.0
2015/03/19 03:09:00.000   45.709762407   13.763505089   320.8646   5  10   2.3925   2.0523   4.7330   1.0584  -1.2452  -0.2837   0.00    0.0
2015/03/19 03:09:30.000   45.709766521   13.763514128   322.5998   5  10   2.3913   2.0510   4.7273   1.0539  -1.2348  -0.3291   0.00    0.0
2015/03/19 03:10:00.000   45.709760521   13.763508635   322.0327   5  10   2.3900   2.0498   4.7214   1.0494  -1.2242  -0.3691   0.00    0.0
2015/03/19 03:10:30.000   45.709758575   13.763508675   320.0995   5  10   2.3888   2.0486   4.7154   1.0448  -1.2136  -0.4055   0.00    0.0
2015/03/19 03:11:00.000   45.709766716   13.763507404   320.1474   5  10   2.3877   2.0474   4.7092   1.0402  -1.2029  -0.4390   0.00    0.0
2015/03/19 03:11:30.000   45.709761891   13.763508184   321.2481   5  10   2.3866   2.0463   4.7029   1.0355  -1.1920  -0.4703   0.00    0.0
2015/03/19 03:12:00.000   45.709763254   13.763512041   321.0634   5  10   2.3856   2.0451   4.6963   1.0307  -1.1810  -0.4998   0.00    0.0
2015/03/19 03:12:30.000   45.709760556   13.763511232   321.6111   5  10   2.3846   2.0440   4.6897   1.0259  -1.1699  -0.5278   0.00    0.0
2015/03/19 03:13:00.000   45.709764540   13.763509031   320.9646   5  10   2.3837   2.0429   4.6828   1.0211  -1.1587  -0.5544   0.00    0.0
2015/03/19 03:13:30.000   45.709762023   13.763509642   320.5816   5  10   2.3828   2.0419   4.6758   1.0161  -1.1474  -0.5800   0.00    0.0
2015/03/19 03:14:00.000   45.709767196   13.763510570   320.6624   5  10   2.3820   2.0409   4.6687   1.0112  -1.1360  -0.6045   0.00    0.0
2015/03/19 03:14:30.000   45.709768522   13.763510530   320.2716   5  10   2.3812   2.0399   4.6614   1.0061  -1.1245  -0.6282   0.00    0.0
2015/03/19 03:15:00.000   45.709759858   13.763509689   322.6304   5  10   2.3805   2.0389   4.6540   1.0010  -1.1128  -0.6510   0.00    0.0
2015/03/19 03:15:30.000   45.709759348   13.763503392   321.0207   5  10   2.3798   2.0379   4.6465   0.9959  -1.1011  -0.6732   0.00    0.0
2015/03/19 03:16:00.000   45.709766518   13.763510860   321.0107   5  10   2.3792   2.0370   4.6388   0.9907  -1.0892  -0.6946   0.00    0.0
2015/03/19 03:16:30.000   45.709759564   13.763504533   321.8253   5  10   2.3786   2.0361   4.6310   0.9854  -1.0773  -0.7155   0.00    0.0
2015/03/19 03:17:00.000   45.709759711   13.763513250   321.8082   5  10   2.3781   2.0352   4.6230   0.9800  -1.0652  -0.7358   0.00    0.0
2015/03/19 03:17:30.000   45.709764627   13.763510724   322.0194   5  10   2.3777   2.0344   4.6149   0.9746  -1.0530  -0.7555   0.00    0.0
2015/03/19 03:18:00.000   45.709762758   13.763512434   321.7764   5  10   2.3773   2.0336   4.6068   0.9691  -1.0408  -0.7748   0.00    0.0
2015/03/19 03:18:30.000   45.709757884   13.763508742   322.0174   5  10   2.3769   2.0328   4.5985   0.9635  -1.0284  -0.7936   0.00    0.0
2015/03/19 03:19:00.000   45.709761889   13.763511680   322.3208   5  10   2.3766   2.0320   4.5901   0.9579  -1.0158  -0.8120   0.00    0.0
2015/03/19 03:19:30.000   45.709762484   13.763514133   321.3989   5  10   2.3764   2.0313   4.5815   0.9522  -1.0032  -0.8299   0.00    0.0
2015/03/19 03:20:00.000   45.709764565   13.763512030   321.0855   5  10   2.3762   2.0306   4.5729   0.9464  -0.9905  -0.8475   0.00    0.0
2015/03/19 03:20:30.000   45.709760308   13.763507149   321.4863   5  10   2.3761   2.0299   4.5642   0.9405  -0.9776  -0.8646   0.00    0.0
2015/03/19 03:21:00.000   45.709758058   13.763512145   322.3823   5  10   2.3760   2.0292   4.5554   0.9345  -0.9647  -0.8814   0.00    0.0
2015/03/19 03:21:30.000   45.709765744   13.763509645   321.5890   5  10   2.3760   2.0286   4.5465   0.9285  -0.9516  -0.8979   0.00    0.0
2015/03/19 03:22:00.000   45.709765089   13.763512835   321.2546   5  10   2.3760   2.0280   4.5375   0.9223  -0.9384  -0.9140   0.00    0.0
2015/03/19 03:22:30.000   45.709762165   13.763509545   321.3910   5  10   2.3761   2.0275   4.5284   0.9161  -0.9251  -0.9298   0.00    0.0
2015/03/19 03:23:00.000   45.709764318   13.763511131   321.5509   5  10   2.3763   2.0269   4.5193   0.9098  -0.9116  -0.9454   0.00    0.0
2015/03/19 03:23:30.000   45.709758203   13.763510232   321.6840   5  10   2.3765   2.0264   4.5100   0.9034  -0.8980  -0.9606   0.00    0.0
2015/03/19 03:24:00.000   45.709761892   13.763509882   321.0343   5  10   2.3767   2.0259   4.5007   0.8969  -0.8843  -0.9755   0.00    0.0
2015/03/19 03:24:30.000   45.709768533   13.763511749   321.8447   5  10   2.3770   2.0255   4.4913   0.8904  -0.8705  -0.9901   0.00    0.0
2015/03/19 03:25:00.000   45.709765654   13.763511052   321.8716   5  10   2.3774   2.0251   4.4819   0.8837  -0.8565  -1.0045   0.00    0.0
2015/03/19 03:25:30.000   45.709762616   13.763514551   321.8994   5  10   2.3778   2.0247   4.4724   0.8769  -0.8424  -1.0186   0.00    0.0
2015/03/19 03:26:00.000   45.709763534   13.763510826   321.4956   5  10   2.3783   2.0243   4.4628   0.8700  -0.8281  -1.0324   0.00    0.0
2015/03/19 03:26:30.000   45.709761083   13.763510916   321.6457   5  10   2.3788   2.0240   4.4532   0.8630  -0.8137  -1.0460   0.00    0.0
2015/03/19 03:27:00.000   45.709762311   13.763508331   321.2745   5  10   2.3794   2.0237   4.4435   0.8560  -0.7991  -1.0593   0.00    0.0
2015/03/19 03:27:30.000   45.709763774   13.763510412   320.6387   5  10   2.3800   2.0234   4.4338   0.8488  -0.7843  -1.0724   0.00    0.0
2015/03/19 03:28:00.000   45.709762639   13.763512877   322.1301   5  10   2.3807   2.0231   4.4240   0.8415  -0.7694  -1.0853   0.00    0.0
2015/03/19 03:28:30.000   45.709763971   13.763508287   322.3349   5  10   2.3815   2.0229   4.4142   0.8340  -0.7543  -1.0979   0.00    0.0
2015/03/19 03:29:00.000   45.709766406   13.763510530   321.6344   5  10   2.3822   2.0227   4.4043   0.8265  -0.7390  -1.1103   0.00    0.0
2015/03/19 03:29:30.000   45.709765419   13.763505297   321.2423   5  10   2.3831   2.0226   4.3944   0.8189  -0.7235  -1.1225   0.00    0.0
