% program   : RTKPOST-EX 2.5.0
% inp file  : D:\Academic\0 Research\000 In preparation\00 GPS positioning performance circular analysis during short-term fast-developing geomagnetic storms\Storm 1\trie0760.15d
% inp file  : D:\Academic\0 Research\000 In preparation\00 GPS positioning performance circular analysis during short-term fast-developing geomagnetic storms\Storm 1\brdc0760.15n
% obs start : 2015/03/17 00:00:00.0 GPST (week1836 172800.0s)
% obs end   : 2015/03/17 23:59:30.0 GPST (week1836 259170.0s)
% pos mode  : Single
% elev mask : 15.0 deg
% tidecorr  :
% ionos opt : Broadcast
% tropo opt : Saastamoinen
% ephemeris : Broadcast
% navi sys  : GPS
%
% (lat/lon/height=WGS84/ellipsoidal,Q=1:fix,2:float,3:sbas,4:dgps,5:single,6:ppp,ns=# of satellites)
%  GPST                  latitude(deg) longitude(deg)  height(m)   Q  ns   sdn(m)   sde(m)   sdu(m)  sdne(m)  sdeu(m)  sdun(m) age(s)  ratio
2015/03/17 00:00:00.000   45.709749472   13.763511511   323.4468   5   6   4.0818   3.1522   8.9124   2.4605  -2.9471  -1.9592   0.00    0.0
2015/03/17 00:00:30.000   45.709748346   13.763513196   323.0777   5   6   4.0734   3.1382   8.9481   2.4348  -2.9152  -1.8558   0.00    0.0
2015/03/17 00:01:00.000   45.709749784   13.763513127   323.8905   5   6   4.0657   3.1245   8.9852   2.4092  -2.8835  -1.7463   0.00    0.0
2015/03/17 00:01:30.000   45.709751006   13.763512643   322.2439   5   6   4.0584   3.1112   9.0235   2.3840  -2.8519  -1.6294   0.00    0.0
2015/03/17 00:02:00.000   45.709749400   13.763509883   322.7186   5   6   4.0517   3.0982   9.0632   2.3590  -2.8204  -1.5033   0.00    0.0
2015/03/17 00:02:30.000   45.709748627   13.763513782   323.1174   5   6   4.0455   3.0855   9.1041   2.3342  -2.7889  -1.3653   0.00    0.0
2015/03/17 00:03:00.000   45.709751399   13.763516488   323.7308   5   6   4.0398   3.0731   9.1463   2.3097  -2.7574  -1.2113   0.00    0.0
2015/03/17 00:03:30.000   45.709749629   13.763509553   323.3551   5   6   4.0345   3.0610   9.1898   2.2854  -2.7260  -1.0343   0.00    0.0
2015/03/17 00:04:00.000   45.709751718   13.763513088   323.0589   5   6   4.0298   3.0491   9.2345   2.2613  -2.6945  -0.8191   0.00    0.0
2015/03/17 00:04:30.000   45.709749304   13.763509397   322.0872   5   6   4.0256   3.0376   9.2805   2.2375  -2.6630  -0.5205   0.00    0.0
2015/03/17 00:05:00.000   45.709748945   13.763512804   324.3558   5   6   4.0219   3.0264   9.3278   2.2139  -2.6315   0.3612   0.00    0.0
2015/03/17 00:05:30.000   45.709747386   13.763508401   323.1051   5   6   4.0186   3.0154   9.3762   2.1904  -2.5999   0.7303   0.00    0.0
2015/03/17 00:06:00.000   45.709750171   13.763512099   322.6245   5   6   4.0158   3.0047   9.4260   2.1672  -2.5681   0.9685   0.00    0.0
2015/03/17 00:06:30.000   45.709753023   13.763506758   321.6636   5   6   4.0134   2.9943   9.4769   2.1442  -2.5363   1.1594   0.00    0.0
2015/03/17 00:07:00.000   45.709748696   13.763515313   322.9110   5   6   4.0116   2.9842   9.5290   2.1214  -2.5043   1.3237   0.00    0.0
2015/03/17 00:07:30.000   45.709749722   13.763510428   323.2506   5   6   4.0101   2.9743   9.5823   2.0987  -2.4720   1.4704   0.00    0.0
2015/03/17 00:08:00.000   45.709752435   13.763512768   320.7990   5   6   4.0091   2.9647   9.6367   2.0763  -2.4396   1.6044   0.00    0.0
2015/03/17 00:08:30.000   45.709757331   13.763511414   319.7052   5   6   4.0086   2.9553   9.6923   2.0540  -2.4070   1.7286   0.00    0.0
2015/03/17 00:09:00.000   45.709753988   13.763511136   323.5365   5   6   4.0084   2.9462   9.7489   2.0320  -2.3740   1.8450   0.00    0.0
2015/03/17 00:09:30.000   45.709747890   13.763513283   322.5867   5   6   4.0087   2.9374   9.8067   2.0101  -2.3407   1.9550   0.00    0.0
2015/03/17 00:10:00.000   45.709750156   13.763512246   322.1181   5   6   4.0094   2.9288   9.8655   1.9883  -2.3071   2.0596   0.00    0.0
2015/03/17 00:10:30.000   45.709747499   13.763513252   321.6797   5   6   4.0104   2.9204   9.9254   1.9668  -2.2731   2.1596   0.00    0.0
2015/03/17 00:11:00.000   45.709750693   13.763512892   323.2022   5   6   4.0119   2.9123   9.9862   1.9454  -2.2387   2.2557   0.00    0.0
2015/03/17 00:11:30.000   45.709752790   13.763515134   322.9990   5   6   4.0137   2.9044  10.0480   1.9241  -2.2038   2.3482   0.00    0.0
2015/03/17 00:12:00.000   45.709748279   13.763512898   322.5549   5   6   4.0159   2.8968  10.1106   1.9030  -2.1684   2.4376   0.00    0.0
2015/03/17 00:12:30.000   45.709753876   13.763512986   321.7467   5   6   4.0185   2.8894  10.1742   1.8821  -2.1324   2.5241   0.00    0.0
2015/03/17 00:13:00.000   45.709749626   13.763513129   322.4660   5   6   4.0214   2.8823  10.2386   1.8613  -2.0958   2.6082   0.00    0.0
2015/03/17 00:13:30.000   45.709747506   13.763513860   323.6366   5   6   4.0246   2.8753  10.3037   1.8407  -2.0585   2.6898   0.00    0.0
2015/03/17 00:14:00.000   45.709753102   13.763513425   323.3217   5   6   4.0282   2.8686  10.3696   1.8202  -2.0205   2.7693   0.00    0.0
2015/03/17 00:14:30.000   45.709753674   13.763514253   323.4651   5   6   4.0320   2.8621  10.4361   1.7999  -1.9817   2.8467   0.00    0.0
2015/03/17 00:15:00.000   45.709750989   13.763515089   323.4927   5   6   4.0361   2.8559  10.5033   1.7797  -1.9421   2.9223   0.00    0.0
2015/03/17 00:15:30.000   45.709750595   13.763511655   322.8049   5   6   4.0405   2.8499  10.5709   1.7596  -1.9015   2.9960   0.00    0.0
2015/03/17 00:16:00.000   45.709755740   13.763512243   320.1955   5   6   4.0452   2.8441  10.6390   1.7397  -1.8599   3.0680   0.00    0.0
2015/03/17 00:16:30.000   45.709751056   13.763512802   321.1750   5   6   4.0501   2.8385  10.7075   1.7199  -1.8171   3.1383   0.00    0.0
2015/03/17 00:17:00.000   45.709749988   13.763510904   322.0734   5   6   4.0552   2.8331  10.7763   1.7002  -1.7732   3.2070   0.00    0.0
2015/03/17 00:17:30.000   45.709746563   13.763510999   320.9861   5   6   4.0605   2.8280  10.8454   1.6806  -1.7279   3.2741   0.00    0.0
2015/03/17 00:18:00.000   45.709752295   13.763516977   321.7897   5   6   4.0660   2.8231  10.9145   1.6612  -1.6812   3.3397   0.00    0.0
2015/03/17 00:18:30.000   45.709748616   13.763514131   322.5061   5   6   4.0716   2.8184  10.9837   1.6418  -1.6328   3.4037   0.00    0.0
2015/03/17 00:19:00.000   45.709748018   13.763515106   322.1166   5   6   4.0774   2.8139  11.0529   1.6226  -1.5827   3.4662   0.00    0.0
2015/03/17 00:19:30.000   45.709751107   13.763516606   321.8885   5   6   4.0833   2.8096  11.1219   1.6034  -1.5307   3.5272   0.00    0.0
2015/03/17 00:20:00.000   45.709753246   13.763510722   322.4926   5   6   4.0893   2.8055  11.1906   1.5844  -1.4765   3.5867   0.00    0.0
2015/03/17 00:20:30.000   45.709750293   13.763514143   322.6790   5   6   4.0953   2.8017  11.2589   1.5655  -1.4199   3.6446   0.00    0.0
2015/03/17 00:21:00.000   45.709750117   13.763513585   322.2410   5   6   4.1014   2.7980  11.3267   1.5466  -1.3605   3.7009   0.00    0.0
2015/03/17 00:21:30.000   45.709750479   13.763518929   322.6859   5   6   4.1075   2.7946  11.3940   1.5278  -1.2980   3.7557   0.00    0.0
2015/03/17 00:22:00.000   45.709748374   13.763518011   321.4151   5   6   4.1137   2.7914  11.4604   1.5090  -1.2319   3.8089   0.00    0.0
2015/03/17 00:22:30.000   45.709751878   13.763519130   322.2153   5   6   4.1197   2.7884  11.5260   1.4903  -1.1616   3.8604   0.00    0.0
2015/03/17 00:23:00.000   45.709750435   13.763515119   322.9863   5   6   4.1258   2.7856  11.5906   1.4717  -1.0862   3.9102   0.00    0.0
2015/03/17 00:23:30.000   45.709755574   13.763517751   324.7188   5   6   4.1317   2.7830  11.6541   1.4530  -1.0047   3.9583   0.00    0.0
2015/03/17 00:24:00.000   45.709754001   13.763516986   321.4169   5   6   4.1375   2.7807  11.7162   1.4344  -0.9154   4.0046   0.00    0.0
2015/03/17 00:24:30.000   45.709752299   13.763516777   323.2313   5   6   4.1432   2.7785  11.7770   1.4158  -0.8157   4.0491   0.00    0.0
2015/03/17 00:25:00.000   45.709754196   13.763519739   320.8834   5   6   4.1487   2.7765  11.8362   1.3972  -0.7013   4.0917   0.00    0.0
2015/03/17 00:25:30.000   45.709748586   13.763520017   322.5105   5   6   4.1540   2.7748  11.8937   1.3785  -0.5635   4.1324   0.00    0.0
2015/03/17 00:26:00.000   45.709752306   13.763520880   324.2132   5   6   4.1591   2.7733  11.9494   1.3598  -0.3771   4.1711   0.00    0.0
2015/03/17 00:26:30.000   45.709758288   13.763516686   321.9955   5   6   4.1640   2.7719  12.0031   1.3410   0.1839   4.2077   0.00    0.0
2015/03/17 00:27:00.000   45.709753106   13.763518252   322.7991   5   6   4.1685   2.7708  12.0547   1.3220   0.4588   4.2423   0.00    0.0
2015/03/17 00:27:30.000   45.709751598   13.763512986   321.6447   5   6   4.1728   2.7699  12.1040   1.3030   0.6228   4.2747   0.00    0.0
2015/03/17 00:28:00.000   45.709752872   13.763517394   323.1210   5   6   4.1767   2.7692  12.1509   1.2838   0.7521   4.3049   0.00    0.0
2015/03/17 00:28:30.000   45.709751370   13.763520154   322.7012   5   6   4.1803   2.7687  12.1953   1.2644   0.8625   4.3329   0.00    0.0
2015/03/17 00:29:00.000   45.709751031   13.763522257   322.1142   5   6   4.1835   2.7684  12.2370   1.2448   0.9604   4.3586   0.00    0.0
2015/03/17 00:29:30.000   45.709751174   13.763518897   322.7700   5   6   4.1864   2.7683  12.2760   1.2249   1.0493   4.3819   0.00    0.0
2015/03/17 00:30:00.000   45.709752617   13.763519190   324.2845   5   6   4.1888   2.7684  12.3121   1.2048   1.1313   4.4028   0.00    0.0
2015/03/17 00:30:30.000   45.709750987   13.763519273   322.2763   5   6   4.1908   2.7687  12.3451   1.1843   1.2076   4.4213   0.00    0.0
2015/03/17 00:31:00.000   45.709752541   13.763517006   324.2348   5   6   4.1923   2.7692  12.3751   1.1634   1.2793   4.4372   0.00    0.0
2015/03/17 00:31:30.000   45.709750582   13.763519186   324.2426   5   6   4.1934   2.7699  12.4019   1.1421   1.3470   4.4507   0.00    0.0
2015/03/17 00:32:00.000   45.709753996   13.763521611   322.8545   5   6   4.1940   2.7708  12.4254   1.1203   1.4113   4.4616   0.00    0.0
2015/03/17 00:32:30.000   45.709756688   13.763519573   324.0803   5   6   4.1941   2.7720  12.4455   1.0980   1.4725   4.4699   0.00    0.0
2015/03/17 00:33:00.000   45.709759094   13.763520608   324.4536   5   6   4.1937   2.7733  12.4622   1.0750   1.5310   4.4756   0.00    0.0
2015/03/17 00:33:30.000   45.709758152   13.763521721   323.9748   5   6   4.1929   2.7748  12.4754   1.0514   1.5870   4.4787   0.00    0.0
2015/03/17 00:34:00.000   45.709753106   13.763518610   322.9457   5   6   4.1915   2.7765  12.4852   1.0270   1.6408   4.4791   0.00    0.0
2015/03/17 00:34:30.000   45.709754341   13.763517498   324.1360   5   6   4.1897   2.7785  12.4913   1.0018   1.6924   4.4769   0.00    0.0
2015/03/17 00:35:00.000   45.709752388   13.763515064   323.4337   5   6   4.1874   2.7806  12.4939   0.9756   1.7421   4.4720   0.00    0.0
2015/03/17 00:35:30.000   45.709757885   13.763522180   325.5124   5   6   4.1846   2.7829  12.4930   0.9484   1.7900   4.4645   0.00    0.0
2015/03/17 00:36:00.000   45.709752203   13.763523670   324.2770   5   6   4.1813   2.7854  12.4885   0.9201   1.8361   4.4543   0.00    0.0
2015/03/17 00:36:30.000   45.709753909   13.763521102   324.5849   5   6   4.1776   2.7881  12.4804   0.8904   1.8806   4.4415   0.00    0.0
2015/03/17 00:37:00.000   45.709758925   13.763518021   324.8869   5   6   4.1734   2.7910  12.4688   0.8592   1.9236   4.4261   0.00    0.0
2015/03/17 00:37:30.000   45.709756404   13.763519407   324.7759   5   6   4.1688   2.7941  12.4537   0.8264   1.9651   4.4081   0.00    0.0
2015/03/17 00:38:00.000   45.709753721   13.763522278   324.5832   5   6   4.1638   2.7974  12.4353   0.7916   2.0051   4.3876   0.00    0.0
2015/03/17 00:38:30.000   45.709756941   13.763520303   325.3142   5   6   4.1583   2.8009  12.4134   0.7547   2.0439   4.3645   0.00    0.0
2015/03/17 00:39:00.000   45.709755979   13.763519982   324.2860   5   6   4.1525   2.8045  12.3883   0.7151   2.0813   4.3390   0.00    0.0
2015/03/17 00:39:30.000   45.709758733   13.763521949   324.2514   5   6   4.1464   2.8084  12.3599   0.6725   2.1175   4.3110   0.00    0.0
2015/03/17 00:40:00.000   45.709759454   13.763522765   324.9859   5   6   4.1399   2.8124  12.3284   0.6262   2.1526   4.2806   0.00    0.0
2015/03/17 00:40:30.000   45.709755703   13.763521260   324.0358   5   6   4.1331   2.8167  12.2939   0.5753   2.1865   4.2479   0.00    0.0
2015/03/17 00:41:00.000   45.709757236   13.763520847   325.1080   5   6   4.1261   2.8211  12.2565   0.5183   2.2193   4.2129   0.00    0.0
2015/03/17 00:41:30.000   45.709753637   13.763521524   324.3474   5   6   4.1188   2.8257  12.2163   0.4530   2.2510   4.1756   0.00    0.0
2015/03/17 00:42:00.000   45.709753382   13.763521659   326.0229   5   6   4.1113   2.8305  12.1734   0.3751   2.2818   4.1362   0.00    0.0
2015/03/17 00:42:30.000   45.709755897   13.763517165   326.4273   5   6   4.1037   2.8355  12.1280   0.2738   2.3116   4.0946   0.00    0.0
2015/03/17 00:43:00.000   45.709756375   13.763518238   325.2194   5   6   4.0958   2.8407  12.0801   0.0898   2.3405   4.0510   0.00    0.0
2015/03/17 00:43:30.000   45.709752015   13.763518881   323.0326   5   6   4.0879   2.8460  12.0299  -0.2450   2.3685   4.0053   0.00    0.0
2015/03/17 00:44:00.000   45.709757328   13.763517626   325.6751   5   6   4.0798   2.8516  11.9775  -0.3596   2.3956   3.9576   0.00    0.0
2015/03/17 00:44:30.000   45.709752370   13.763523267   325.2015   5   6   4.0717   2.8573  11.9231  -0.4470   2.4220   3.9081   0.00    0.0
2015/03/17 00:45:00.000   45.709758926   13.763523217   324.8549   5   6   4.0636   2.8632  11.8668  -0.5211   2.4476   3.8566   0.00    0.0
2015/03/17 00:45:30.000   45.709759322   13.763526701   327.9437   5   6   4.0554   2.8694  11.8088  -0.5870   2.4724   3.8034   0.00    0.0
2015/03/17 00:46:00.000   45.709757355   13.763521753   326.1555   5   6   4.0473   2.8757  11.7491  -0.6471   2.4966   3.7484   0.00    0.0
2015/03/17 00:46:30.000   45.709758048   13.763525653   325.9625   5   6   4.0393   2.8822  11.6879  -0.7030   2.5201   3.6917   0.00    0.0
2015/03/17 00:47:00.000   45.709754972   13.763528765   326.3606   5   6   4.0313   2.8888  11.6253  -0.7556   2.5430   3.6333   0.00    0.0
2015/03/17 00:47:30.000   45.709755756   13.763528595   326.0742   5   6   4.0234   2.8957  11.5615  -0.8055   2.5653   3.5733   0.00    0.0
2015/03/17 00:48:00.000   45.709756662   13.763530255   327.9786   5   6   4.0157   2.9028  11.4965  -0.8533   2.5870   3.5117   0.00    0.0
2015/03/17 00:48:30.000   45.709753318   13.763534145   327.3766   5   6   4.0081   2.9100  11.4306  -0.8992   2.6083   3.4485   0.00    0.0
2015/03/17 00:49:00.000   45.709754680   13.763531288   327.1232   5   6   4.0007   2.9175  11.3639  -0.9435   2.6290   3.3837   0.00    0.0
2015/03/17 00:49:30.000   45.709755444   13.763527638   325.9983   5   6   3.9936   2.9251  11.2963  -0.9865   2.6493   3.3174   0.00    0.0
2015/03/17 00:50:00.000   45.709759123   13.763525366   326.5475   5   6   3.9866   2.9330  11.2281  -1.0283   2.6691   3.2495   0.00    0.0
2015/03/17 00:50:30.000   45.709760814   13.763517471   326.7706   5   6   3.9799   2.9410  11.1594  -1.0691   2.6885   3.1802   0.00    0.0
2015/03/17 00:51:00.000   45.709761830   13.763526112   326.6322   5   6   3.9735   2.9493  11.0903  -1.1089   2.7076   3.1092   0.00    0.0
2015/03/17 00:51:30.000   45.709763272   13.763520067   325.5352   5   6   3.9673   2.9577  11.0209  -1.1479   2.7263   3.0367   0.00    0.0
2015/03/17 00:52:00.000   45.709759622   13.763525705   325.9673   5   6   3.9614   2.9663  10.9512  -1.1861   2.7447   2.9627   0.00    0.0
2015/03/17 00:52:30.000   45.709755924   13.763527559   326.6659   5   6   3.9559   2.9752  10.8813  -1.2237   2.7628   2.8869   0.00    0.0
2015/03/17 00:53:00.000   45.709759477   13.763530420   327.8609   5   6   3.9507   2.9842  10.8115  -1.2606   2.7806   2.8095   0.00    0.0
2015/03/17 00:53:30.000   45.709758366   13.763532948   327.3350   5   6   3.9458   2.9935  10.7416  -1.2970   2.7982   2.7304   0.00    0.0
2015/03/17 00:54:00.000   45.709755481   13.763528598   327.3750   5   6   3.9413   3.0029  10.6718  -1.3329   2.8156   2.6493   0.00    0.0
2015/03/17 00:54:30.000   45.709757740   13.763529160   326.1841   5   6   3.9371   3.0126  10.6022  -1.3683   2.8327   2.5663   0.00    0.0
2015/03/17 00:55:00.000   45.709757240   13.763527900   326.4426   5   6   3.9333   3.0225  10.5329  -1.4032   2.8497   2.4812   0.00    0.0
2015/03/17 00:55:30.000   45.709758880   13.763520825   326.1219   5   7   3.8958   2.5673   6.2728  -1.7034  -2.3025   1.1837   0.00    0.0
2015/03/17 00:56:00.000   45.709763528   13.763520182   326.3430   5   7   3.8984   2.5662   6.2671  -1.7142  -2.2910   1.1798   0.00    0.0
2015/03/17 00:56:30.000   45.709761679   13.763522143   324.8901   5   7   3.9010   2.5651   6.2612  -1.7248  -2.2791   1.1751   0.00    0.0
2015/03/17 00:57:00.000   45.709762162   13.763520400   325.0402   5   7   3.9034   2.5640   6.2551  -1.7351  -2.2670   1.1695   0.00    0.0
2015/03/17 00:57:30.000   45.709754618   13.763523580   326.5105   5   7   3.9058   2.5629   6.2489  -1.7451  -2.2546   1.1629   0.00    0.0
2015/03/17 00:58:00.000   45.709754981   13.763528765   325.1004   5   7   3.9080   2.5617   6.2425  -1.7548  -2.2420   1.1554   0.00    0.0
2015/03/17 00:58:30.000   45.709759312   13.763520163   324.8103   5   7   3.9102   2.5606   6.2360  -1.7643  -2.2290   1.1470   0.00    0.0
2015/03/17 00:59:00.000   45.709757716   13.763528238   325.2885   5   7   3.9122   2.5595   6.2293  -1.7734  -2.2158   1.1376   0.00    0.0
2015/03/17 00:59:30.000   45.709757799   13.763526721   326.1392   5   7   3.9141   2.5583   6.2224  -1.7823  -2.2023   1.1273   0.00    0.0
2015/03/17 01:00:00.000   45.709775045   13.763519455   325.8192   5   7   3.4761   2.6186   6.6565  -1.0004  -2.7535   0.6425   0.00    0.0
2015/03/17 01:00:30.000   45.709771123   13.763518993   325.9851   5   7   3.4780   2.6150   6.6485  -1.0173  -2.7409   0.6293   0.00    0.0
2015/03/17 01:01:00.000   45.709764897   13.763523502   324.2984   5   7   3.4800   2.6114   6.6401  -1.0337  -2.7279   0.6143   0.00    0.0
2015/03/17 01:01:30.000   45.709770539   13.763517142   323.9549   5   7   3.4819   2.6079   6.6314  -1.0496  -2.7147   0.5972   0.00    0.0
2015/03/17 01:02:00.000   45.709767570   13.763516355   323.7641   5   7   3.4839   2.6043   6.6224  -1.0650  -2.7012   0.5780   0.00    0.0
2015/03/17 01:02:30.000   45.709769968   13.763520260   322.7512   5   7   3.4858   2.6008   6.6131  -1.0799  -2.6874   0.5564   0.00    0.0
2015/03/17 01:03:00.000   45.709773259   13.763516021   324.1768   5   7   3.4877   2.5972   6.6035  -1.0944  -2.6733   0.5322   0.00    0.0
2015/03/17 01:03:30.000   45.709770483   13.763517408   324.5987   5   7   3.4896   2.5937   6.5936  -1.1085  -2.6589   0.5051   0.00    0.0
2015/03/17 01:04:00.000   45.709771192   13.763515928   325.3406   5   7   3.4915   2.5902   6.5834  -1.1222  -2.6442   0.4745   0.00    0.0
2015/03/17 01:04:30.000   45.709774604   13.763514348   323.4367   5   7   3.4934   2.5868   6.5729  -1.1355  -2.6293   0.4398   0.00    0.0
2015/03/17 01:05:00.000   45.709774853   13.763518761   323.7787   5   7   3.4952   2.5833   6.5622  -1.1485  -2.6140   0.4000   0.00    0.0
2015/03/17 01:05:30.000   45.709769647   13.763518008   325.5060   5   7   3.4971   2.5799   6.5512  -1.1611  -2.5985   0.3534   0.00    0.0
2015/03/17 01:06:00.000   45.709769637   13.763520829   324.6199   5   7   3.4989   2.5765   6.5399  -1.1735  -2.5827   0.2968   0.00    0.0
2015/03/17 01:06:30.000   45.709769182   13.763522057   323.7999   5   7   3.5007   2.5731   6.5283  -1.1855  -2.5666   0.2231   0.00    0.0
2015/03/17 01:07:00.000   45.709770171   13.763518432   326.2160   5   7   3.5025   2.5697   6.5165  -1.1972  -2.5502   0.0992   0.00    0.0
2015/03/17 01:07:30.000   45.709769862   13.763521920   324.8571   5   7   3.5043   2.5664   6.5045  -1.2087  -2.5336  -0.1777   0.00    0.0
2015/03/17 01:08:00.000   45.709769331   13.763520091   323.4044   5   7   3.5061   2.5631   6.4922  -1.2199  -2.5167  -0.2729   0.00    0.0
2015/03/17 01:08:30.000   45.709768457   13.763521840   325.6516   5   7   3.5078   2.5599   6.4796  -1.2308  -2.4995  -0.3447   0.00    0.0
2015/03/17 01:09:00.000   45.709765865   13.763524524   324.5035   5   7   3.5095   2.5566   6.4669  -1.2415  -2.4820  -0.4056   0.00    0.0
2015/03/17 01:09:30.000   45.709764969   13.763518749   325.0947   5   7   3.5112   2.5535   6.4539  -1.2519  -2.4642  -0.4599   0.00    0.0
2015/03/17 01:10:00.000   45.709765951   13.763520443   324.9337   5   7   3.5129   2.5503   6.4407  -1.2622  -2.4462  -0.5097   0.00    0.0
2015/03/17 01:10:30.000   45.709769504   13.763518649   324.7905   5   7   3.5146   2.5472   6.4274  -1.2722  -2.4279  -0.5562   0.00    0.0
2015/03/17 01:11:00.000   45.709768126   13.763517331   325.3371   5   7   3.5162   2.5441   6.4138  -1.2821  -2.4094  -0.6001   0.00    0.0
2015/03/17 01:11:30.000   45.709764403   13.763524366   323.9602   5   7   3.5178   2.5411   6.4000  -1.2917  -2.3906  -0.6418   0.00    0.0
2015/03/17 01:12:00.000   45.709769147   13.763519094   324.4889   5   7   3.5194   2.5381   6.3861  -1.3012  -2.3715  -0.6818   0.00    0.0
2015/03/17 01:12:30.000   45.709767947   13.763523333   325.3623   5   7   3.5210   2.5352   6.3720  -1.3105  -2.3521  -0.7203   0.00    0.0
2015/03/17 01:13:00.000   45.709766629   13.763520974   324.3597   5   7   3.5226   2.5323   6.3577  -1.3196  -2.3325  -0.7575   0.00    0.0
2015/03/17 01:13:30.000   45.709766321   13.763522860   324.5092   5   7   3.5241   2.5295   6.3433  -1.3286  -2.3126  -0.7935   0.00    0.0
2015/03/17 01:14:00.000   45.709771829   13.763521088   324.0333   5   7   3.5256   2.5267   6.3287  -1.3374  -2.2925  -0.8285   0.00    0.0
2015/03/17 01:14:30.000   45.709766852   13.763516623   324.3683   5   7   3.5271   2.5240   6.3140  -1.3461  -2.2721  -0.8625   0.00    0.0
2015/03/17 01:15:00.000   45.709763686   13.763527091   324.7485   5   7   3.5285   2.5214   6.2991  -1.3546  -2.2515  -0.8956   0.00    0.0
2015/03/17 01:15:30.000   45.709762828   13.763520500   324.0940   5   7   3.5300   2.5188   6.2842  -1.3630  -2.2306  -0.9280   0.00    0.0
2015/03/17 01:16:00.000   45.709763792   13.763518009   324.3344   5   7   3.5314   2.5163   6.2691  -1.3713  -2.2094  -0.9596   0.00    0.0
2015/03/17 01:16:30.000   45.709767018   13.763519661   323.7564   5   7   3.5327   2.5138   6.2539  -1.3794  -2.1880  -0.9905   0.00    0.0
2015/03/17 01:17:00.000   45.709768163   13.763519134   324.5290   5   7   3.5341   2.5114   6.2386  -1.3875  -2.1664  -1.0208   0.00    0.0
2015/03/17 01:17:30.000   45.709764697   13.763517706   323.9793   5   7   3.5354   2.5090   6.2233  -1.3954  -2.1444  -1.0504   0.00    0.0
2015/03/17 01:18:00.000   45.709767135   13.763519818   323.2930   5   7   3.5367   2.5068   6.2078  -1.4032  -2.1223  -1.0794   0.00    0.0
2015/03/17 01:18:30.000   45.709763513   13.763523285   325.0680   5   7   3.5380   2.5046   6.1923  -1.4110  -2.0998  -1.1079   0.00    0.0
2015/03/17 01:19:00.000   45.709771225   13.763512803   324.7056   5   7   3.5392   2.5024   6.1767  -1.4186  -2.0772  -1.1357   0.00    0.0
2015/03/17 01:19:30.000   45.709765319   13.763518986   324.8940   5   7   3.5404   2.5004   6.1610  -1.4262  -2.0542  -1.1631   0.00    0.0
2015/03/17 01:20:00.000   45.709766602   13.763521402   324.7427   5   7   3.5416   2.4984   6.1453  -1.4336  -2.0310  -1.1899   0.00    0.0
2015/03/17 01:20:30.000   45.709766675   13.763519968   325.9004   5   7   3.5428   2.4965   6.1295  -1.4410  -2.0076  -1.2162   0.00    0.0
2015/03/17 01:21:00.000   45.709759875   13.763526566   325.3160   5   7   3.5439   2.4947   6.1137  -1.4483  -1.9839  -1.2421   0.00    0.0
2015/03/17 01:21:30.000   45.709763549   13.763522208   324.2919   5   7   3.5450   2.4929   6.0979  -1.4555  -1.9599  -1.2674   0.00    0.0
2015/03/17 01:22:00.000   45.709761774   13.763521421   323.9643   5   7   3.5460   2.4912   6.0820  -1.4626  -1.9357  -1.2923   0.00    0.0
2015/03/17 01:22:30.000   45.709767961   13.763525652   324.5173   5   7   3.5471   2.4896   6.0661  -1.4697  -1.9112  -1.3167   0.00    0.0
2015/03/17 01:23:00.000   45.709763328   13.763527804   324.9627   5   7   3.5480   2.4881   6.0502  -1.4767  -1.8864  -1.3406   0.00    0.0
2015/03/17 01:23:30.000   45.709764104   13.763522530   324.6950   5   7   3.5490   2.4867   6.0343  -1.4837  -1.8614  -1.3641   0.00    0.0
2015/03/17 01:24:00.000   45.709768228   13.763519629   324.1684   5   7   3.5499   2.4854   6.0183  -1.4905  -1.8360  -1.3872   0.00    0.0
2015/03/17 01:24:30.000   45.709765895   13.763521413   324.9434   5   7   3.5508   2.4841   6.0024  -1.4973  -1.8104  -1.4098   0.00    0.0
2015/03/17 01:25:00.000   45.709765454   13.763525614   324.5104   5   7   3.5516   2.4829   5.9865  -1.5041  -1.7845  -1.4320   0.00    0.0
2015/03/17 01:25:30.000   45.709763541   13.763523616   324.4045   5   7   3.5524   2.4818   5.9705  -1.5108  -1.7583  -1.4538   0.00    0.0
2015/03/17 01:26:00.000   45.709769132   13.763522624   324.9451   5   7   3.5532   2.4808   5.9546  -1.5174  -1.7318  -1.4752   0.00    0.0
2015/03/17 01:26:30.000   45.709767583   13.763518611   324.3098   5   7   3.5539   2.4799   5.9388  -1.5240  -1.7050  -1.4961   0.00    0.0
2015/03/17 01:27:00.000   45.709768687   13.763524678   324.9509   5   7   3.5545   2.4791   5.9229  -1.5305  -1.6779  -1.5167   0.00    0.0
2015/03/17 01:27:30.000   45.709764820   13.763524057   324.3982   5   7   3.5551   2.4783   5.9071  -1.5370  -1.6504  -1.5368   0.00    0.0
2015/03/17 01:28:00.000   45.709766428   13.763525479   324.0022   5   7   3.5557   2.4777   5.8913  -1.5434  -1.6226  -1.5566   0.00    0.0
2015/03/17 01:28:30.000   45.709764563   13.763526233   324.1725   5   7   3.5563   2.4771   5.8755  -1.5497  -1.5944  -1.5759   0.00    0.0
2015/03/17 01:29:00.000   45.709759803   13.763523536   324.2037   5   7   3.5567   2.4766   5.8598  -1.5560  -1.5659  -1.5949   0.00    0.0
2015/03/17 01:29:30.000   45.709763917   13.763522723   324.4003   5   7   3.5572   2.4762   5.8441  -1.5623  -1.5370  -1.6134   0.00    0.0
2015/03/17 01:30:00.000   45.709764755   13.763517989   324.5121   5   7   3.5575   2.4759   5.8285  -1.5685  -1.5076  -1.6316   0.00    0.0
2015/03/17 01:30:30.000   45.709760977   13.763525887   324.5095   5   7   3.5579   2.4757   5.8129  -1.5747  -1.4779  -1.6494   0.00    0.0
2015/03/17 01:31:00.000   45.709763898   13.763522509   324.2979   5   7   3.5581   2.4756   5.7974  -1.5808  -1.4477  -1.6669   0.00    0.0
2015/03/17 01:31:30.000   45.709764695   13.763522816   324.0216   5   7   3.5584   2.4756   5.7819  -1.5868  -1.4171  -1.6839   0.00    0.0
2015/03/17 01:32:00.000   45.709766555   13.763521828   323.8436   5   8   3.3782   2.2807   5.0249  -1.2084  -2.1552   0.5215   0.00    0.0
2015/03/17 01:32:30.000   45.709760002   13.763519882   323.1249   5   8   3.3742   2.2756   5.0150  -1.2056  -2.1400   0.4853   0.00    0.0
2015/03/17 01:33:00.000   45.709764796   13.763522931   323.5585   5   8   3.3701   2.2706   5.0052  -1.2026  -2.1247   0.4462   0.00    0.0
2015/03/17 01:33:30.000   45.709765022   13.763524449   323.6073   5   8   3.3660   2.2656   4.9954  -1.1997  -2.1094   0.4033   0.00    0.0
2015/03/17 01:34:00.000   45.709765963   13.763513529   323.5054   5   8   3.3619   2.2606   4.9856  -1.1966  -2.0939   0.3554   0.00    0.0
2015/03/17 01:34:30.000   45.709768735   13.763521195   323.6168   5   8   3.3576   2.2557   4.9759  -1.1935  -2.0784   0.3000   0.00    0.0
2015/03/17 01:35:00.000   45.709758842   13.763517467   324.4437   5   8   3.3534   2.2509   4.9662  -1.1904  -2.0628   0.2319   0.00    0.0
2015/03/17 01:35:30.000   45.709766787   13.763518196   323.5032   5   8   3.3491   2.2461   4.9565  -1.1872  -2.0471   0.1329   0.00    0.0
2015/03/17 01:36:00.000   45.709765677   13.763521559   323.4691   5   8   3.3447   2.2414   4.9469  -1.1839  -2.0313  -0.1353   0.00    0.0
2015/03/17 01:36:30.000   45.709766158   13.763520561   323.0686   5   8   3.3403   2.2367   4.9373  -1.1806  -2.0154  -0.2326   0.00    0.0
2015/03/17 01:37:00.000   45.709759486   13.763524973   323.6500   5   8   3.3359   2.2322   4.9277  -1.1773  -1.9995  -0.2995   0.00    0.0
2015/03/17 01:37:30.000   45.709758163   13.763526186   323.7547   5   8   3.3314   2.2276   4.9182  -1.1740  -1.9835  -0.3538   0.00    0.0
2015/03/17 01:38:00.000   45.709763730   13.763522365   323.0138   5   9   2.8313   2.2076   4.5613  -0.9550  -1.8425  -1.8246   0.00    0.0
2015/03/17 01:38:30.000   45.709763193   13.763522683   324.0408   5   9   2.8272   2.2042   4.5594  -0.9588  -1.8308  -1.8232   0.00    0.0
2015/03/17 01:39:00.000   45.709764114   13.763527276   323.4479   5   8   2.8902   2.6732   5.5149   0.1124  -2.8321  -2.2893   0.00    0.0
2015/03/17 01:39:30.000   45.709765100   13.763523760   323.3196   5   8   2.8849   2.6659   5.5100  -0.0975  -2.8186  -2.2828   0.00    0.0
2015/03/17 01:40:00.000   45.709766230   13.763526044   323.1570   5   8   2.8795   2.6586   5.5051  -0.1775  -2.8050  -2.2761   0.00    0.0
2015/03/17 01:40:30.000   45.709762780   13.763527808   323.0514   5   8   2.8742   2.6514   5.5000  -0.2311  -2.7911  -2.2694   0.00    0.0
2015/03/17 01:41:00.000   45.709767250   13.763523680   322.9595   5   8   2.8688   2.6441   5.4948  -0.2743  -2.7771  -2.2625   0.00    0.0
2015/03/17 01:41:30.000   45.709763849   13.763521752   323.1027   5   8   2.8635   2.6369   5.4894  -0.3113  -2.7630  -2.2555   0.00    0.0
2015/03/17 01:42:00.000   45.709762121   13.763526269   323.4149   5   8   2.8583   2.6297   5.4839  -0.3442  -2.7487  -2.2484   0.00    0.0
2015/03/17 01:42:30.000   45.709764502   13.763527930   324.1640   5   8   2.8530   2.6225   5.4783  -0.3740  -2.7342  -2.2412   0.00    0.0
2015/03/17 01:43:00.000   45.709764357   13.763524847   322.9263   5   8   2.8478   2.6154   5.4725  -0.4015  -2.7196  -2.2339   0.00    0.0
2015/03/17 01:43:30.000   45.709766903   13.763519525   323.5815   5   8   2.8426   2.6082   5.4666  -0.4270  -2.7048  -2.2265   0.00    0.0
2015/03/17 01:44:00.000   45.709765915   13.763521770   323.8957   5   8   2.8374   2.6011   5.4606  -0.4510  -2.6898  -2.2190   0.00    0.0
2015/03/17 01:44:30.000   45.709764817   13.763519930   324.4668   5   8   2.8322   2.5940   5.4544  -0.4736  -2.6747  -2.2114   0.00    0.0
2015/03/17 01:45:00.000   45.709762729   13.763524141   323.3675   5   8   2.8270   2.5869   5.4482  -0.4950  -2.6594  -2.2037   0.00    0.0
2015/03/17 01:45:30.000   45.709760490   13.763523753   323.1717   5   9   2.7797   2.0191   4.6341   0.7181  -1.5523  -2.4920   0.00    0.0
2015/03/17 01:46:00.000   45.709773322   13.763518812   322.1903   5   9   2.7737   2.0157   4.6368   0.7064  -1.5409  -2.4859   0.00    0.0
2015/03/17 01:46:30.000   45.709763403   13.763526614   323.6613   5   9   2.7678   2.0123   4.6395   0.6945  -1.5294  -2.4797   0.00    0.0
2015/03/17 01:47:00.000   45.709768144   13.763522435   323.8963   5   9   2.7618   2.0090   4.6422   0.6825  -1.5177  -2.4734   0.00    0.0
2015/03/17 01:47:30.000   45.709765243   13.763522132   323.1273   5   9   2.7559   2.0058   4.6448   0.6704  -1.5059  -2.4670   0.00    0.0
2015/03/17 01:48:00.000   45.709767077   13.763529888   322.4421   5   9   2.7500   2.0026   4.6474   0.6581  -1.4940  -2.4604   0.00    0.0
2015/03/17 01:48:30.000   45.709770200   13.763522702   322.6522   5   9   2.7441   1.9995   4.6499   0.6457  -1.4820  -2.4538   0.00    0.0
2015/03/17 01:49:00.000   45.709764266   13.763523427   322.9552   5   9   2.7382   1.9964   4.6524   0.6331  -1.4698  -2.4470   0.00    0.0
2015/03/17 01:49:30.000   45.709761985   13.763523113   324.0601   5   9   2.7324   1.9934   4.6548   0.6203  -1.4575  -2.4400   0.00    0.0
2015/03/17 01:50:00.000   45.709766421   13.763523442   322.9887   5   9   2.7266   1.9905   4.6572   0.6073  -1.4451  -2.4330   0.00    0.0
2015/03/17 01:50:30.000   45.709766136   13.763530453   323.2302   5   9   2.7207   1.9876   4.6595   0.5942  -1.4325  -2.4258   0.00    0.0
2015/03/17 01:51:00.000   45.709762081   13.763525087   323.9201   5   9   2.7150   1.9847   4.6617   0.5808  -1.4197  -2.4186   0.00    0.0
2015/03/17 01:51:30.000   45.709764429   13.763523403   324.0095   5   9   2.7092   1.9820   4.6639   0.5672  -1.4068  -2.4112   0.00    0.0
2015/03/17 01:52:00.000   45.709759693   13.763529596   322.6617   5   9   2.7034   1.9793   4.6661   0.5534  -1.3937  -2.4036   0.00    0.0
2015/03/17 01:52:30.000   45.709763868   13.763529168   323.5445   5   9   2.6977   1.9767   4.6682   0.5393  -1.3804  -2.3960   0.00    0.0
2015/03/17 01:53:00.000   45.709765257   13.763526629   323.2326   5   9   2.6920   1.9741   4.6702   0.5249  -1.3669  -2.3882   0.00    0.0
2015/03/17 01:53:30.000   45.709760996   13.763525728   323.2471   5   9   2.6864   1.9716   4.6722   0.5102  -1.3533  -2.3804   0.00    0.0
2015/03/17 01:54:00.000   45.709769673   13.763524316   323.4799   5   9   2.6807   1.9691   4.6741   0.4952  -1.3395  -2.3724   0.00    0.0
2015/03/17 01:54:30.000   45.709766703   13.763529893   322.3430   5   9   2.6751   1.9667   4.6760   0.4799  -1.3254  -2.3643   0.00    0.0
2015/03/17 01:55:00.000   45.709765875   13.763527722   323.3557   5   9   2.6696   1.9644   4.6778   0.4641  -1.3112  -2.3561   0.00    0.0
2015/03/17 01:55:30.000   45.709762747   13.763525359   323.4352   5   9   2.6640   1.9622   4.6795   0.4480  -1.2968  -2.3477   0.00    0.0
2015/03/17 01:56:00.000   45.709766957   13.763529304   323.1242   5   9   2.6585   1.9600   4.6812   0.4313  -1.2821  -2.3393   0.00    0.0
2015/03/17 01:56:30.000   45.709765630   13.763524604   322.8039   5   9   2.6531   1.9578   4.6828   0.4142  -1.2672  -2.3307   0.00    0.0
2015/03/17 01:57:00.000   45.709765641   13.763521394   322.4042   5   9   2.6476   1.9557   4.6844   0.3964  -1.2521  -2.3220   0.00    0.0
2015/03/17 01:57:30.000   45.709764872   13.763522756   323.6343   5   9   2.6422   1.9537   4.6859   0.3780  -1.2367  -2.3133   0.00    0.0
2015/03/17 01:58:00.000   45.709767094   13.763523234   322.9387   5   9   2.6369   1.9518   4.6874   0.3588  -1.2211  -2.3044   0.00    0.0
2015/03/17 01:58:30.000   45.709766423   13.763523800   323.1225   5   9   2.6315   1.9499   4.6888   0.3387  -1.2052  -2.2953   0.00    0.0
2015/03/17 01:59:00.000   45.709768243   13.763522643   322.8472   5   9   2.6263   1.9481   4.6901   0.3175  -1.1890  -2.2862   0.00    0.0
2015/03/17 01:59:30.000   45.709765588   13.763527450   322.8489   5   9   2.6210   1.9464   4.6914   0.2949  -1.1726  -2.2770   0.00    0.0
2015/03/17 02:00:00.000   45.709766511   13.763524434   322.1763   5   9   2.6158   1.9447   4.6927   0.2708  -1.1558  -2.2677   0.00    0.0
2015/03/17 02:00:30.000   45.709765542   13.763525286   322.7809   5   9   2.6107   1.9431   4.6939   0.2445  -1.1387  -2.2582   0.00    0.0
2015/03/17 02:01:00.000   45.709764592   13.763528635   322.9331   5   9   2.6056   1.9415   4.6950   0.2154  -1.1213  -2.2487   0.00    0.0
2015/03/17 02:01:30.000   45.709761087   13.763525432   322.9904   5   9   2.6006   1.9400   4.6962   0.1819  -1.1036  -2.2391   0.00    0.0
2015/03/17 02:02:00.000   45.709763986   13.763524863   323.5741   5   9   2.5956   1.9386   4.6972   0.1412  -1.0855  -2.2293   0.00    0.0
2015/03/17 02:02:30.000   45.709765461   13.763520863   322.8542   5   9   2.5906   1.9373   4.6982   0.0832  -1.0670  -2.2195   0.00    0.0
2015/03/17 02:03:00.000   45.709763949   13.763525917   322.6477   5   9   2.5857   1.9360   4.6992  -0.0772  -1.0481  -2.2095   0.00    0.0
2015/03/17 02:03:30.000   45.709763965   13.763528613   323.4586   5   9   2.5809   1.9348   4.7001  -0.1368  -1.0288  -2.1994   0.00    0.0
2015/03/17 02:04:00.000   45.709767195   13.763524484   323.6015   5   9   2.5761   1.9337   4.7010  -0.1771  -1.0090  -2.1893   0.00    0.0
2015/03/17 02:04:30.000   45.709767415   13.763521615   321.9382   5   9   2.5713   1.9326   4.7019  -0.2094  -0.9887  -2.1790   0.00    0.0
2015/03/17 02:05:00.000   45.709765668   13.763528463   321.9383   5   9   2.5667   1.9316   4.7027  -0.2371  -0.9680  -2.1687   0.00    0.0
2015/03/17 02:05:30.000   45.709765531   13.763525832   323.2128   5   9   2.5621   1.9307   4.7035  -0.2616  -0.9467  -2.1582   0.00    0.0
2015/03/17 02:06:00.000   45.709763771   13.763521536   323.0974   5   9   2.5575   1.9298   4.7043  -0.2837  -0.9248  -2.1477   0.00    0.0
2015/03/17 02:06:30.000   45.709764168   13.763521655   323.0015   5   9   2.5530   1.9290   4.7050  -0.3040  -0.9023  -2.1371   0.00    0.0
2015/03/17 02:07:00.000   45.709762375   13.763522249   323.9150   5   9   2.5486   1.9283   4.7057  -0.3229  -0.8791  -2.1263   0.00    0.0
2015/03/17 02:07:30.000   45.709761205   13.763525504   323.0786   5  10   2.4814   1.8341   4.3868   0.4662  -1.3202  -1.8756   0.00    0.0
2015/03/17 02:08:00.000   45.709769186   13.763520454   321.9539   5  10   2.4772   1.8320   4.3877   0.4558  -1.3072  -1.8638   0.00    0.0
2015/03/17 02:08:30.000   45.709772746   13.763518765   321.4972   5  10   2.4731   1.8300   4.3885   0.4453  -1.2941  -1.8519   0.00    0.0
2015/03/17 02:09:00.000   45.709766823   13.763520775   323.1044   5  10   2.4691   1.8280   4.3894   0.4347  -1.2807  -1.8399   0.00    0.0
2015/03/17 02:09:30.000   45.709765853   13.763522298   323.1245   5  10   2.4651   1.8261   4.3902   0.4240  -1.2671  -1.8278   0.00    0.0
2015/03/17 02:10:00.000   45.709764353   13.763524359   322.9179   5  10   2.4612   1.8243   4.3911   0.4132  -1.2533  -1.8157   0.00    0.0
2015/03/17 02:10:30.000   45.709766157   13.763523212   323.0132   5  10   2.4574   1.8225   4.3920   0.4022  -1.2393  -1.8034   0.00    0.0
2015/03/17 02:11:00.000   45.709766130   13.763523606   323.0709   5  10   2.4537   1.8208   4.3928   0.3911  -1.2250  -1.7910   0.00    0.0
2015/03/17 02:11:30.000   45.709767907   13.763523458   322.7862   5  10   2.4500   1.8192   4.3937   0.3799  -1.2105  -1.7785   0.00    0.0
2015/03/17 02:12:00.000   45.709770777   13.763516343   322.1304   5  10   2.4464   1.8176   4.3946   0.3685  -1.1958  -1.7659   0.00    0.0
2015/03/17 02:12:30.000   45.709770991   13.763518348   321.9492   5  10   2.4429   1.8160   4.3956   0.3570  -1.1808  -1.7532   0.00    0.0
2015/03/17 02:13:00.000   45.709769201   13.763521645   323.1589   5  10   2.4395   1.8146   4.3965   0.3452  -1.1655  -1.7403   0.00    0.0
2015/03/17 02:13:30.000   45.709766884   13.763523727   322.4933   5  10   2.4361   1.8132   4.3975   0.3333  -1.1499  -1.7274   0.00    0.0
2015/03/17 02:14:00.000   45.709772610   13.763519592   322.8951   5  10   2.4329   1.8118   4.3985   0.3212  -1.1340  -1.7144   0.00    0.0
2015/03/17 02:14:30.000   45.709768877   13.763524685   322.5218   5   9   2.7672   1.8121   4.7402   0.4396  -1.0579  -0.7462   0.00    0.0
2015/03/17 02:15:00.000   45.709765835   13.763520269   322.6047   5   9   2.7644   1.8109   4.7568   0.4324  -1.0380  -0.6762   0.00    0.0
2015/03/17 02:15:30.000   45.709770907   13.763523292   322.5698   5   9   2.7618   1.8098   4.7737   0.4256  -1.0174  -0.5975   0.00    0.0
2015/03/17 02:16:00.000   45.709770381   13.763518159   321.7813   5   9   2.7593   1.8088   4.7911   0.4192  -0.9961  -0.5061   0.00    0.0
2015/03/17 02:16:30.000   45.709773491   13.763521038   321.8823   5   9   2.7571   1.8079   4.8088   0.4131  -0.9740  -0.3933   0.00    0.0
2015/03/17 02:17:00.000   45.709770542   13.763524647   322.2306   5   9   2.7550   1.8070   4.8269   0.4074  -0.9510  -0.2292   0.00    0.0
2015/03/17 02:17:30.000   45.709768910   13.763527542   322.2150   5   9   2.7531   1.8062   4.8453   0.4022  -0.9270   0.2242   0.00    0.0
2015/03/17 02:18:00.000   45.709770127   13.763521675   322.6333   5   9   2.7513   1.8056   4.8642   0.3975  -0.9020   0.3921   0.00    0.0
2015/03/17 02:18:30.000   45.709765392   13.763517127   322.5330   5   9   2.7498   1.8049   4.8835   0.3932  -0.8758   0.5078   0.00    0.0
2015/03/17 02:19:00.000   45.709770873   13.763519479   322.5358   5   9   2.7484   1.8044   4.9031   0.3894  -0.8483   0.6023   0.00    0.0
2015/03/17 02:19:30.000   45.709768490   13.763520631   322.1228   5   9   2.7472   1.8040   4.9231   0.3861  -0.8193   0.6844   0.00    0.0
2015/03/17 02:20:00.000   45.709769556   13.763523569   322.6662   5   9   2.7461   1.8036   4.9435   0.3834  -0.7888   0.7582   0.00    0.0
2015/03/17 02:20:30.000   45.709770989   13.763517524   323.0560   5   9   2.7452   1.8034   4.9643   0.3813  -0.7564   0.8258   0.00    0.0
2015/03/17 02:21:00.000   45.709766134   13.763522461   323.5609   5   9   2.7446   1.8032   4.9855   0.3797  -0.7219   0.8888   0.00    0.0
2015/03/17 02:21:30.000   45.709767595   13.763520144   322.0658   5   9   2.7440   1.8031   5.0071   0.3787  -0.6849   0.9480   0.00    0.0
2015/03/17 02:22:00.000   45.709773922   13.763519400   321.2967   5   9   2.7437   1.8031   5.0291   0.3784  -0.6451   1.0041   0.00    0.0
2015/03/17 02:22:30.000   45.709768746   13.763522016   322.0755   5   9   2.7435   1.8032   5.0514   0.3786  -0.6017   1.0576   0.00    0.0
2015/03/17 02:23:00.000   45.709772233   13.763524060   322.2766   5   9   2.7435   1.8034   5.0742   0.3795  -0.5540   1.1089   0.00    0.0
2015/03/17 02:23:30.000   45.709773852   13.763518923   322.1240   5   9   2.7436   1.8038   5.0973   0.3810  -0.5006   1.1584   0.00    0.0
2015/03/17 02:24:00.000   45.709773083   13.763518304   321.8629   5   9   2.7440   1.8042   5.1208   0.3831  -0.4395   1.2061   0.00    0.0
2015/03/17 02:24:30.000   45.709770632   13.763519476   321.9473   5   9   2.7445   1.8047   5.1447   0.3859  -0.3667   1.2524   0.00    0.0
2015/03/17 02:25:00.000   45.709771985   13.763524546   321.8203   5   9   2.7451   1.8053   5.1690   0.3893  -0.2732   1.2973   0.00    0.0
2015/03/17 02:25:30.000   45.709769012   13.763526224   322.0523   5   9   2.7459   1.8061   5.1936   0.3933  -0.1161   1.3411   0.00    0.0
2015/03/17 02:26:00.000   45.709771367   13.763522260   323.0659   5   9   2.7469   1.8069   5.2186   0.3979   0.2213   1.3838   0.00    0.0
2015/03/17 02:26:30.000   45.709772259   13.763520663   322.1770   5   9   2.7480   1.8079   5.2440   0.4032   0.3358   1.4255   0.00    0.0
2015/03/17 02:27:00.000   45.709773738   13.763519559   322.1723   5   9   2.7493   1.8090   5.2698   0.4090   0.4219   1.4663   0.00    0.0
2015/03/17 02:27:30.000   45.709770524   13.763522746   323.1279   5   9   2.7508   1.8102   5.2959   0.4153   0.4945   1.5063   0.00    0.0
2015/03/17 02:28:00.000   45.709766967   13.763522696   321.8046   5   9   2.7523   1.8115   5.3223   0.4222   0.5592   1.5455   0.00    0.0
2015/03/17 02:28:30.000   45.709768842   13.763517559   321.4850   5   9   2.7541   1.8130   5.3491   0.4297   0.6182   1.5841   0.00    0.0
2015/03/17 02:29:00.000   45.709769316   13.763517622   321.7126   5   9   2.7560   1.8146   5.3763   0.4376   0.6733   1.6219   0.00    0.0
2015/03/17 02:29:30.000   45.709769315   13.763520160   322.2292   5   9   2.7580   1.8163   5.4037   0.4461   0.7253   1.6592   0.00    0.0
2015/03/17 02:30:00.000   45.709772300   13.763522346   323.0103   5   9   2.7602   1.8182   5.4316   0.4550   0.7748   1.6958   0.00    0.0
2015/03/17 02:30:30.000   45.709767383   13.763519309   321.1879   5   9   2.7625   1.8202   5.4597   0.4643   0.8224   1.7319   0.00    0.0
2015/03/17 02:31:00.000   45.709768646   13.763518892   321.5963   5   9   2.7649   1.8223   5.4881   0.4741   0.8683   1.7675   0.00    0.0
2015/03/17 02:31:30.000   45.709769655   13.763518010   321.6150   5   9   2.7675   1.8246   5.5169   0.4843   0.9128   1.8026   0.00    0.0
2015/03/17 02:32:00.000   45.709767669   13.763526861   321.6073   5   9   2.7702   1.8271   5.5459   0.4949   0.9562   1.8372   0.00    0.0
2015/03/17 02:32:30.000   45.709772371   13.763522251   321.5947   5   9   2.7730   1.8297   5.5752   0.5059   0.9987   1.8713   0.00    0.0
2015/03/17 02:33:00.000   45.709770806   13.763518574   321.5612   5   9   2.7759   1.8324   5.6048   0.5172   1.0402   1.9050   0.00    0.0
2015/03/17 02:33:30.000   45.709766918   13.763518204   321.3348   5   9   2.7790   1.8354   5.6347   0.5288   1.0811   1.9382   0.00    0.0
2015/03/17 02:34:00.000   45.709767898   13.763519915   321.3217   5   9   2.7821   1.8385   5.6648   0.5408   1.1213   1.9710   0.00    0.0
2015/03/17 02:34:30.000   45.709763811   13.763524945   320.8135   5   9   2.7853   1.8417   5.6951   0.5530   1.1609   2.0033   0.00    0.0
2015/03/17 02:35:00.000   45.709766066   13.763521828   321.8108   5   9   2.7887   1.8452   5.7257   0.5655   1.2000   2.0353   0.00    0.0
2015/03/17 02:35:30.000   45.709768846   13.763522440   321.1042   5   9   2.7921   1.8488   5.7564   0.5783   1.2387   2.0668   0.00    0.0
2015/03/17 02:36:00.000   45.709770307   13.763524463   322.3238   5   9   2.7956   1.8526   5.7874   0.5913   1.2770   2.0980   0.00    0.0
2015/03/17 02:36:30.000   45.709769383   13.763521733   321.6564   5   9   2.7992   1.8565   5.8185   0.6045   1.3150   2.1287   0.00    0.0
2015/03/17 02:37:00.000   45.709768699   13.763521797   321.4564   5   9   2.8029   1.8607   5.8497   0.6180   1.3527   2.1590   0.00    0.0
2015/03/17 02:37:30.000   45.709772976   13.763518560   321.7386   5   9   2.8066   1.8651   5.8811   0.6316   1.3900   2.1889   0.00    0.0
2015/03/17 02:38:00.000   45.709769628   13.763519331   322.2259   5   9   2.8104   1.8696   5.9127   0.6455   1.4272   2.2183   0.00    0.0
2015/03/17 02:38:30.000   45.709770607   13.763520870   321.9935   5   9   2.8142   1.8744   5.9443   0.6595   1.4641   2.2474   0.00    0.0
2015/03/17 02:39:00.000   45.709771787   13.763524056   321.8501   5   9   2.8181   1.8793   5.9760   0.6736   1.5008   2.2760   0.00    0.0
2015/03/17 02:39:30.000   45.709769666   13.763520860   321.6520   5   9   2.8220   1.8845   6.0077   0.6879   1.5373   2.3042   0.00    0.0
2015/03/17 02:40:00.000   45.709770929   13.763520348   321.8792   5   9   2.8259   1.8898   6.0395   0.7022   1.5737   2.3320   0.00    0.0
2015/03/17 02:40:30.000   45.709769269   13.763525965   321.4049   5   9   2.8299   1.8954   6.0712   0.7167   1.6099   2.3593   0.00    0.0
2015/03/17 02:41:00.000   45.709770376   13.763523602   322.0449   5   9   2.8338   1.9012   6.1030   0.7313   1.6459   2.3861   0.00    0.0
2015/03/17 02:41:30.000   45.709767585   13.763524989   320.4566   5   9   2.8378   1.9072   6.1347   0.7460   1.6818   2.4125   0.00    0.0
2015/03/17 02:42:00.000   45.709771102   13.763522999   321.8045   5   9   2.8417   1.9134   6.1663   0.7607   1.7175   2.4384   0.00    0.0
2015/03/17 02:42:30.000   45.709765956   13.763520892   321.2012   5   9   2.8456   1.9198   6.1979   0.7755   1.7531   2.4638   0.00    0.0
2015/03/17 02:43:00.000   45.709769081   13.763520759   321.2229   5   9   2.8495   1.9265   6.2293   0.7902   1.7886   2.4887   0.00    0.0
2015/03/17 02:43:30.000   45.709774548   13.763520583   321.9653   5   9   2.8534   1.9334   6.2606   0.8051   1.8240   2.5130   0.00    0.0
2015/03/17 02:44:00.000   45.709768769   13.763521166   320.9038   5   9   2.8572   1.9405   6.2917   0.8199   1.8592   2.5368   0.00    0.0
2015/03/17 02:44:30.000   45.709771178   13.763518493   321.3278   5   9   2.8609   1.9478   6.3225   0.8347   1.8942   2.5601   0.00    0.0
2015/03/17 02:45:00.000   45.709769452   13.763517240   321.1897   5   9   2.8646   1.9554   6.3532   0.8494   1.9292   2.5827   0.00    0.0
2015/03/17 02:45:30.000   45.709770184   13.763518076   322.0316   5   9   2.8682   1.9632   6.3835   0.8641   1.9639   2.6048   0.00    0.0
2015/03/17 02:46:00.000   45.709768000   13.763513903   319.9262   5   9   2.8717   1.9712   6.4136   0.8788   1.9986   2.6263   0.00    0.0
2015/03/17 02:46:30.000   45.709767873   13.763519478   320.7660   5   9   2.8751   1.9794   6.4433   0.8934   2.0330   2.6472   0.00    0.0
2015/03/17 02:47:00.000   45.709767667   13.763522431   321.8838   5   9   2.8784   1.9879   6.4726   0.9079   2.0673   2.6674   0.00    0.0
2015/03/17 02:47:30.000   45.709765448   13.763519850   320.9381   5   9   2.8815   1.9966   6.5016   0.9223   2.1014   2.6869   0.00    0.0
2015/03/17 02:48:00.000   45.709767688   13.763520430   321.1260   5   9   2.8846   2.0055   6.5301   0.9365   2.1354   2.7058   0.00    0.0
2015/03/17 02:48:30.000   45.709768643   13.763523135   321.3659   5   9   2.8875   2.0146   6.5582   0.9507   2.1691   2.7239   0.00    0.0
2015/03/17 02:49:00.000   45.709769829   13.763518670   320.9174   5   9   2.8902   2.0240   6.5858   0.9646   2.2027   2.7414   0.00    0.0
2015/03/17 02:49:30.000   45.709769037   13.763522664   320.3036   5   8   3.0865   2.1458   8.4469   1.3016   1.1834   1.3971   0.00    0.0
2015/03/17 02:50:00.000   45.709767704   13.763519968   320.1559   5   8   3.0818   2.1490   8.5028   1.2987   1.2707   1.4445   0.00    0.0
2015/03/17 02:50:30.000   45.709767518   13.763521136   320.3632   5   8   3.0771   2.1524   8.5583   1.2960   1.3541   1.4895   0.00    0.0
2015/03/17 02:51:00.000   45.709772728   13.763521995   320.9818   5   9   2.9186   2.1310   6.4093   1.4103   0.4048   2.8056   0.00    0.0
2015/03/17 02:51:30.000   45.709765519   13.763518978   321.2314   5   9   2.9199   2.1316   6.4298   1.4136   0.4900   2.8185   0.00    0.0
2015/03/17 02:52:00.000   45.709767185   13.763519674   320.7412   5   9   2.9210   2.1322   6.4493   1.4169   0.5627   2.8306   0.00    0.0
2015/03/17 02:52:30.000   45.709766501   13.763519508   321.8066   5   9   2.9218   2.1330   6.4678   1.4202   0.6272   2.8419   0.00    0.0
2015/03/17 02:53:00.000   45.709765114   13.763516694   323.3032   5   9   2.9225   2.1337   6.4853   1.4235   0.6856   2.8524   0.00    0.0
2015/03/17 02:53:30.000   45.709766621   13.763519719   320.3967   5   9   2.9230   2.1346   6.5018   1.4267   0.7395   2.8620   0.00    0.0
2015/03/17 02:54:00.000   45.709767338   13.763518792   321.1804   5   9   2.9233   2.1355   6.5171   1.4299   0.7896   2.8708   0.00    0.0
2015/03/17 02:54:30.000   45.709766803   13.763516312   320.4214   5   9   2.9233   2.1365   6.5314   1.4331   0.8366   2.8788   0.00    0.0
2015/03/17 02:55:00.000   45.709763845   13.763514536   319.9321   5   9   2.9231   2.1376   6.5445   1.4361   0.8810   2.8858   0.00    0.0
2015/03/17 02:55:30.000   45.709767397   13.763516050   320.8968   5   9   2.9227   2.1387   6.5565   1.4391   0.9230   2.8920   0.00    0.0
2015/03/17 02:56:00.000   45.709769535   13.763520282   321.2958   5   9   2.9220   2.1399   6.5673   1.4421   0.9629   2.8972   0.00    0.0
2015/03/17 02:56:30.000   45.709763813   13.763520512   320.9372   5   9   2.9211   2.1411   6.5768   1.4449   1.0009   2.9016   0.00    0.0
2015/03/17 02:57:00.000   45.709768695   13.763519835   320.3626   5   9   2.9199   2.1424   6.5852   1.4476   1.0372   2.9050   0.00    0.0
2015/03/17 02:57:30.000   45.709764887   13.763519999   321.3472   5   9   2.9185   2.1437   6.5923   1.4502   1.0720   2.9075   0.00    0.0
2015/03/17 02:58:00.000   45.709764709   13.763518342   320.8127   5   9   2.9168   2.1451   6.5981   1.4527   1.1052   2.9091   0.00    0.0
2015/03/17 02:58:30.000   45.709765061   13.763514946   319.8572   5   9   2.9149   2.1465   6.6027   1.4550   1.1371   2.9097   0.00    0.0
2015/03/17 02:59:00.000   45.709764344   13.763517577   320.7497   5   9   2.9128   2.1480   6.6060   1.4572   1.1676   2.9093   0.00    0.0
2015/03/17 02:59:30.000   45.709764525   13.763518033   318.9273   5   9   2.9103   2.1495   6.6080   1.4593   1.1969   2.9081   0.00    0.0
2015/03/17 03:00:00.000   45.709767137   13.763517214   320.1943   5   9   2.9822   2.0878   6.8655   1.4022   0.7618   3.1248   0.00    0.0
2015/03/17 03:00:30.000   45.709769819   13.763520002   320.1239   5   9   2.9800   2.0886   6.8694   1.4062   0.8139   3.1246   0.00    0.0
2015/03/17 03:01:00.000   45.709764988   13.763515264   319.6168   5   9   2.9775   2.0896   6.8718   1.4101   0.8624   3.1233   0.00    0.0
2015/03/17 03:01:30.000   45.709766988   13.763515723   321.5662   5   9   2.9747   2.0906   6.8727   1.4138   0.9077   3.1210   0.00    0.0
2015/03/17 03:02:00.000   45.709764883   13.763519005   321.1211   5   9   2.9716   2.0917   6.8722   1.4174   0.9504   3.1176   0.00    0.0
2015/03/17 03:02:30.000   45.709770257   13.763521414   320.9012   5   9   2.9681   2.0929   6.8702   1.4208   0.9906   3.1131   0.00    0.0
2015/03/17 03:03:00.000   45.709767512   13.763516130   319.4141   5   9   2.9644   2.0941   6.8668   1.4240   1.0287   3.1077   0.00    0.0
2015/03/17 03:03:30.000   45.709769904   13.763519044   320.0588   5   9   2.9604   2.0953   6.8620   1.4270   1.0648   3.1012   0.00    0.0
2015/03/17 03:04:00.000   45.709765106   13.763516139   320.3638   5   9   2.9560   2.0967   6.8557   1.4298   1.0990   3.0936   0.00    0.0
2015/03/17 03:04:30.000   45.709764922   13.763517444   319.4934   5   9   2.9514   2.0980   6.8481   1.4325   1.1315   3.0851   0.00    0.0
2015/03/17 03:05:00.000   45.709767534   13.763515244   320.3412   5   9   2.9465   2.0994   6.8390   1.4349   1.1625   3.0756   0.00    0.0
2015/03/17 03:05:30.000   45.709765264   13.763518643   320.1393   5   9   2.9413   2.1009   6.8287   1.4371   1.1920   3.0651   0.00    0.0
2015/03/17 03:06:00.000   45.709768081   13.763519302   322.0519   5   9   2.9359   2.1024   6.8169   1.4391   1.2200   3.0536   0.00    0.0
2015/03/17 03:06:30.000   45.709768567   13.763519240   321.7080   5   9   2.9302   2.1039   6.8039   1.4408   1.2467   3.0412   0.00    0.0
2015/03/17 03:07:00.000   45.709763532   13.763517367   319.7476   5   9   2.9243   2.1055   6.7896   1.4424   1.2721   3.0278   0.00    0.0
2015/03/17 03:07:30.000   45.709764508   13.763518020   320.5307   5   9   2.9181   2.1071   6.7740   1.4436   1.2962   3.0136   0.00    0.0
2015/03/17 03:08:00.000   45.709768493   13.763517306   320.3946   5   9   2.9117   2.1088   6.7573   1.4447   1.3192   2.9984   0.00    0.0
2015/03/17 03:08:30.000   45.709766484   13.763515993   320.8899   5   9   2.9051   2.1104   6.7394   1.4455   1.3411   2.9824   0.00    0.0
2015/03/17 03:09:00.000   45.709767813   13.763514432   320.0075   5   9   2.8983   2.1121   6.7203   1.4461   1.3619   2.9656   0.00    0.0
2015/03/17 03:09:30.000   45.709770913   13.763513734   319.9663   5   9   2.8914   2.1138   6.7002   1.4464   1.3816   2.9480   0.00    0.0
2015/03/17 03:10:00.000   45.709767434   13.763513808   321.6713   5   9   2.8842   2.1155   6.6790   1.4465   1.4003   2.9295   0.00    0.0
2015/03/17 03:10:30.000   45.709766482   13.763513212   321.0526   5   9   2.8769   2.1172   6.6568   1.4463   1.4181   2.9103   0.00    0.0
2015/03/17 03:11:00.000   45.709765873   13.763518782   321.2662   5   9   2.8694   2.1189   6.6336   1.4459   1.4349   2.8904   0.00    0.0
2015/03/17 03:11:30.000   45.709768091   13.763516400   321.5713   5   9   2.8618   2.1207   6.6096   1.4452   1.4508   2.8698   0.00    0.0
2015/03/17 03:12:00.000   45.709768370   13.763515304   321.7860   5   9   2.8541   2.1224   6.5846   1.4443   1.4659   2.8485   0.00    0.0
2015/03/17 03:12:30.000   45.709766540   13.763511118   320.7844   5   9   2.8462   2.1242   6.5588   1.4431   1.4801   2.8265   0.00    0.0
2015/03/17 03:13:00.000   45.709767614   13.763512839   319.7846   5  10   2.3347   1.9291   4.9326   0.7979  -1.2632   0.9747   0.00    0.0
2015/03/17 03:13:30.000   45.709769104   13.763519269   321.7125   5  10   2.3333   1.9276   4.9272   0.7942  -1.2481   0.9638   0.00    0.0
2015/03/17 03:14:00.000   45.709766767   13.763512245   321.1755   5  10   2.3318   1.9261   4.9216   0.7905  -1.2328   0.9526   0.00    0.0
2015/03/17 03:14:30.000   45.709766254   13.763515819   320.9012   5  10   2.3305   1.9246   4.9157   0.7867  -1.2173   0.9410   0.00    0.0
2015/03/17 03:15:00.000   45.709766580   13.763513697   320.0463   5  10   2.3291   1.9232   4.9096   0.7829  -1.2015   0.9290   0.00    0.0
2015/03/17 03:15:30.000   45.709763861   13.763510873   321.7124   5  10   2.3278   1.9219   4.9033   0.7791  -1.1856   0.9166   0.00    0.0
2015/03/17 03:16:00.000   45.709765915   13.763513123   320.6168   5  10   2.3265   1.9206   4.8967   0.7752  -1.1694   0.9038   0.00    0.0
2015/03/17 03:16:30.000   45.709769624   13.763512695   320.8462   5  10   2.3253   1.9193   4.8899   0.7713  -1.1531   0.8906   0.00    0.0
2015/03/17 03:17:00.000   45.709763019   13.763507570   320.0688   5  10   2.3241   1.9181   4.8828   0.7674  -1.1365   0.8769   0.00    0.0
2015/03/17 03:17:30.000   45.709766850   13.763514054   320.7651   5  10   2.3230   1.9170   4.8756   0.7634  -1.1196   0.8627   0.00    0.0
2015/03/17 03:18:00.000   45.709766146   13.763512065   321.5543   5  10   2.3219   1.9159   4.8681   0.7593  -1.1026   0.8481   0.00    0.0
2015/03/17 03:18:30.000   45.709762365   13.763513012   320.9978   5  10   2.3208   1.9148   4.8604   0.7552  -1.0853   0.8330   0.00    0.0
2015/03/17 03:19:00.000   45.709765531   13.763510858   319.1952   5  10   2.3198   1.9138   4.8525   0.7510  -1.0678   0.8174   0.00    0.0
2015/03/17 03:19:30.000   45.709768001   13.763511365   320.6111   5  10   2.3188   1.9128   4.8444   0.7468  -1.0501   0.8013   0.00    0.0
2015/03/17 03:20:00.000   45.709764535   13.763513723   320.8229   5  10   2.3179   1.9119   4.8361   0.7425  -1.0321   0.7846   0.00    0.0
2015/03/17 03:20:30.000   45.709767677   13.763518275   321.0706   5  10   2.3170   1.9110   4.8276   0.7381  -1.0139   0.7673   0.00    0.0
2015/03/17 03:21:00.000   45.709762912   13.763512967   321.5471   5  10   2.3161   1.9102   4.8189   0.7337  -0.9954   0.7494   0.00    0.0
2015/03/17 03:21:30.000   45.709766741   13.763512889   320.9171   5  10   2.3153   1.9095   4.8100   0.7292  -0.9766   0.7309   0.00    0.0
2015/03/17 03:22:00.000   45.709768092   13.763515231   320.2836   5  10   2.3145   1.9087   4.8009   0.7246  -0.9576   0.7117   0.00    0.0
2015/03/17 03:22:30.000   45.709769885   13.763512877   321.1122   5  10   2.3138   1.9081   4.7917   0.7199  -0.9383   0.6917   0.00    0.0
2015/03/17 03:23:00.000   45.709766647   13.763509048   320.4536   5  10   2.3131   1.9075   4.7823   0.7151  -0.9187   0.6710   0.00    0.0
2015/03/17 03:23:30.000   45.709763720   13.763512432   320.6547   5  10   2.3125   1.9069   4.7728   0.7102  -0.8987   0.6494   0.00    0.0
2015/03/17 03:24:00.000   45.709769566   13.763509468   320.5203   5  10   2.3119   1.9064   4.7630   0.7053  -0.8785   0.6269   0.00    0.0
2015/03/17 03:24:30.000   45.709763414   13.763512173   321.7186   5  10   2.3113   1.9059   4.7532   0.7002  -0.8579   0.6034   0.00    0.0
2015/03/17 03:25:00.000   45.709767249   13.763510491   320.5637   5  10   2.3108   1.9054   4.7432   0.6951  -0.8370   0.5787   0.00    0.0
2015/03/17 03:25:30.000   45.709770529   13.763514265   320.7422   5  10   2.3104   1.9051   4.7330   0.6899  -0.8157   0.5527   0.00    0.0
2015/03/17 03:26:00.000   45.709764969   13.763516596   322.1308   5  10   2.3100   1.9047   4.7227   0.6845  -0.7939   0.5253   0.00    0.0
2015/03/17 03:26:30.000   45.709764561   13.763513803   320.7453   5  10   2.3096   1.9045   4.7123   0.6790  -0.7717   0.4962   0.00    0.0
2015/03/17 03:27:00.000   45.709766681   13.763512684   321.3980   5  10   2.3093   1.9042   4.7018   0.6735  -0.7491   0.4652   0.00    0.0
2015/03/17 03:27:30.000   45.709765609   13.763517165   320.8065   5  10   2.3091   1.9040   4.6911   0.6678  -0.7260   0.4317   0.00    0.0
2015/03/17 03:28:00.000   45.709768727   13.763512174   321.6079   5  10   2.3089   1.9039   4.6803   0.6619  -0.7022   0.3953   0.00    0.0
2015/03/17 03:28:30.000   45.709763300   13.763513929   321.8762   5  10   2.3087   1.9038   4.6695   0.6560  -0.6779   0.3551   0.00    0.0
2015/03/17 03:29:00.000   45.709762655   13.763509006   321.4087   5  10   2.3086   1.9037   4.6585   0.6499  -0.6529   0.3094   0.00    0.0
