% program   : RTKPOST-EX 2.5.0
% inp file  : D:\Academic\0 Research\000 In preparation\00 GPS positioning performance circular analysis during short-term fast-developing geomagnetic storms\Storm 4\trie2690.17d
% inp file  : D:\Academic\0 Research\000 In preparation\00 GPS positioning performance circular analysis during short-term fast-developing geomagnetic storms\Storm 4\brdc2690.17n
% obs start : 2017/09/26 00:00:00.0 GPST (week1968 172800.0s)
% obs end   : 2017/09/26 23:59:30.0 GPST (week1968 259170.0s)
% pos mode  : Single
% elev mask : 15.0 deg
% tidecorr  :
% ionos opt : Broadcast
% tropo opt : Saastamoinen
% ephemeris : Broadcast
% navi sys  : GPS
%
% (lat/lon/height=WGS84/ellipsoidal,Q=1:fix,2:float,3:sbas,4:dgps,5:single,6:ppp,ns=# of satellites)
%  GPST                  latitude(deg) longitude(deg)  height(m)   Q  ns   sdn(m)   sde(m)   sdu(m)  sdne(m)  sdeu(m)  sdun(m) age(s)  ratio
2017/09/26 00:00:00.000   45.709758709   13.763529956   321.3203   5   8   2.9232   1.8639   6.1151   0.2718  -0.8703   2.6088   0.00    0.0
2017/09/26 00:00:30.000   45.709757107   13.763525644   322.1793   5   8   2.9296   1.8637   6.1342   0.2456  -0.8641   2.6305   0.00    0.0
2017/09/26 00:01:00.000   45.709756610   13.763526025   321.3514   5   8   2.9360   1.8635   6.1528   0.2164  -0.8579   2.6516   0.00    0.0
2017/09/26 00:01:30.000   45.709757323   13.763525439   320.3089   5   8   2.9422   1.8633   6.1708   0.1828  -0.8516   2.6719   0.00    0.0
2017/09/26 00:02:00.000   45.709756326   13.763527607   321.4231   5   8   2.9482   1.8632   6.1881   0.1417  -0.8452   2.6915   0.00    0.0
2017/09/26 00:02:30.000   45.709756172   13.763530117   322.0029   5   8   2.9542   1.8632   6.2047   0.0825  -0.8387   2.7104   0.00    0.0
2017/09/26 00:03:00.000   45.709762427   13.763527617   321.4204   5   8   2.9600   1.8632   6.2205  -0.0799  -0.8322   2.7284   0.00    0.0
2017/09/26 00:03:30.000   45.709760687   13.763533259   322.1015   5   8   2.9657   1.8632   6.2356  -0.1396  -0.8255   2.7457   0.00    0.0
2017/09/26 00:04:00.000   45.709759598   13.763530835   321.5592   5   8   2.9712   1.8633   6.2498  -0.1804  -0.8188   2.7622   0.00    0.0
2017/09/26 00:04:30.000   45.709764879   13.763527300   322.8782   5   8   2.9765   1.8635   6.2633  -0.2134  -0.8120   2.7779   0.00    0.0
2017/09/26 00:05:00.000   45.709759145   13.763532819   322.3053   5   8   2.9816   1.8637   6.2759  -0.2418  -0.8051   2.7927   0.00    0.0
2017/09/26 00:05:30.000   45.709756539   13.763531776   321.6764   5   8   2.9865   1.8639   6.2876  -0.2670  -0.7980   2.8067   0.00    0.0
2017/09/26 00:06:00.000   45.709754918   13.763529031   320.5581   5   8   2.9912   1.8642   6.2983  -0.2900  -0.7909   2.8197   0.00    0.0
2017/09/26 00:06:30.000   45.709757923   13.763528537   321.1487   5   8   2.9957   1.8645   6.3082  -0.3111  -0.7836   2.8319   0.00    0.0
2017/09/26 00:07:00.000   45.709756426   13.763528313   321.1573   5   8   2.9999   1.8649   6.3170  -0.3308  -0.7762   2.8431   0.00    0.0
2017/09/26 00:07:30.000   45.709755510   13.763526195   320.4129   5   8   3.0039   1.8653   6.3249  -0.3494  -0.7687   2.8535   0.00    0.0
2017/09/26 00:08:00.000   45.709753801   13.763523250   319.6804   5   8   3.0077   1.8658   6.3318  -0.3669  -0.7610   2.8628   0.00    0.0
2017/09/26 00:08:30.000   45.709751025   13.763529152   319.8814   5   8   3.0111   1.8663   6.3376  -0.3835  -0.7532   2.8712   0.00    0.0
2017/09/26 00:09:00.000   45.709756076   13.763527991   318.9980   5   8   3.0143   1.8669   6.3424  -0.3994  -0.7453   2.8787   0.00    0.0
2017/09/26 00:09:30.000   45.709752293   13.763529311   319.6469   5   8   3.0173   1.8675   6.3462  -0.4146  -0.7372   2.8851   0.00    0.0
2017/09/26 00:10:00.000   45.709753084   13.763531400   319.9435   5   8   3.0199   1.8682   6.3489  -0.4291  -0.7289   2.8906   0.00    0.0
2017/09/26 00:10:30.000   45.709755536   13.763529420   320.3233   5   8   3.0222   1.8689   6.3505  -0.4432  -0.7205   2.8951   0.00    0.0
2017/09/26 00:11:00.000   45.709755993   13.763522107   320.0220   5   8   3.0243   1.8697   6.3510  -0.4568  -0.7119   2.8985   0.00    0.0
2017/09/26 00:11:30.000   45.709750217   13.763532524   319.8329   5   8   3.0260   1.8705   6.3505  -0.4699  -0.7032   2.9010   0.00    0.0
2017/09/26 00:12:00.000   45.709754693   13.763528521   320.5249   5   8   3.0275   1.8714   6.3488  -0.4826  -0.6942   2.9024   0.00    0.0
2017/09/26 00:12:30.000   45.709754107   13.763531381   320.2147   5   8   3.0286   1.8723   6.3461  -0.4950  -0.6851   2.9029   0.00    0.0
2017/09/26 00:13:00.000   45.709757483   13.763535630   320.7019   5   8   3.0294   1.8733   6.3423  -0.5070  -0.6758   2.9023   0.00    0.0
2017/09/26 00:13:30.000   45.709753855   13.763522617   319.7862   5   8   3.0300   1.8743   6.3374  -0.5187  -0.6662   2.9007   0.00    0.0
2017/09/26 00:14:00.000   45.709749539   13.763526339   319.5292   5   8   3.0302   1.8754   6.3315  -0.5301  -0.6565   2.8981   0.00    0.0
2017/09/26 00:14:30.000   45.709750171   13.763523797   319.4466   5   8   3.0301   1.8765   6.3245  -0.5412  -0.6465   2.8945   0.00    0.0
2017/09/26 00:15:00.000   45.709752423   13.763531904   320.8098   5   8   3.0297   1.8777   6.3164  -0.5521  -0.6363   2.8899   0.00    0.0
2017/09/26 00:15:30.000   45.709753355   13.763526097   320.2757   5   8   3.0290   1.8789   6.3073  -0.5628  -0.6258   2.8843   0.00    0.0
2017/09/26 00:16:00.000   45.709751435   13.763531891   320.9192   5   8   3.0280   1.8802   6.2973  -0.5732  -0.6151   2.8778   0.00    0.0
2017/09/26 00:16:30.000   45.709756073   13.763527081   319.7514   5   8   3.0268   1.8815   6.2862  -0.5834  -0.6041   2.8702   0.00    0.0
2017/09/26 00:17:00.000   45.709756768   13.763526696   321.1375   5   8   3.0252   1.8829   6.2742  -0.5935  -0.5929   2.8617   0.00    0.0
2017/09/26 00:17:30.000   45.709754162   13.763523196   319.9755   5   8   3.0234   1.8843   6.2612  -0.6034  -0.5814   2.8523   0.00    0.0
2017/09/26 00:18:00.000   45.709755487   13.763529542   319.8611   5   8   3.0213   1.8858   6.2473  -0.6131  -0.5695   2.8419   0.00    0.0
2017/09/26 00:18:30.000   45.709756136   13.763529506   319.5960   5   8   3.0189   1.8873   6.2325  -0.6226  -0.5574   2.8306   0.00    0.0
2017/09/26 00:19:00.000   45.709755279   13.763529715   320.3290   5   8   3.0162   1.8889   6.2168  -0.6320  -0.5449   2.8184   0.00    0.0
2017/09/26 00:19:30.000   45.709758861   13.763524715   319.7640   5   8   3.0134   1.8905   6.2004  -0.6413  -0.5320   2.8054   0.00    0.0
2017/09/26 00:20:00.000   45.709753651   13.763525157   318.8421   5   8   3.0102   1.8922   6.1831  -0.6504  -0.5188   2.7914   0.00    0.0
2017/09/26 00:20:30.000   45.709754270   13.763526662   319.8269   5   8   3.0069   1.8940   6.1651  -0.6594  -0.5052   2.7766   0.00    0.0
2017/09/26 00:21:00.000   45.709755604   13.763527972   320.9721   5   7   3.3560   2.2454   7.4420   1.1642  -2.3000   1.1574   0.00    0.0
2017/09/26 00:21:30.000   45.709755964   13.763530878   321.3999   5   7   3.3477   2.2442   7.4401   1.1499  -2.2987   1.1218   0.00    0.0
2017/09/26 00:22:00.000   45.709753326   13.763531888   320.0085   5   7   3.3394   2.2430   7.4370   1.1358  -2.2969   1.0835   0.00    0.0
2017/09/26 00:22:30.000   45.709753086   13.763523388   320.1296   5   7   3.3311   2.2418   7.4329   1.1216  -2.2947   1.0425   0.00    0.0
2017/09/26 00:23:00.000   45.709755650   13.763529280   320.6646   5   7   3.3229   2.2407   7.4276   1.1075  -2.2920   0.9985   0.00    0.0
2017/09/26 00:23:30.000   45.709755402   13.763529404   320.4402   5   7   3.3147   2.2396   7.4213   1.0934  -2.2889   0.9510   0.00    0.0
2017/09/26 00:24:00.000   45.709756090   13.763529520   319.8260   5   7   3.3066   2.2386   7.4139   1.0793  -2.2854   0.8997   0.00    0.0
2017/09/26 00:24:30.000   45.709755548   13.763531581   320.4336   5   7   3.2985   2.2375   7.4055   1.0652  -2.2814   0.8439   0.00    0.0
2017/09/26 00:25:00.000   45.709754005   13.763528533   321.8274   5   7   3.2904   2.2366   7.3961   1.0511  -2.2770   0.7828   0.00    0.0
2017/09/26 00:25:30.000   45.709750854   13.763531147   321.3362   5   7   3.2825   2.2356   7.3857   1.0371  -2.2721   0.7151   0.00    0.0
2017/09/26 00:26:00.000   45.709753619   13.763530983   319.9226   5   7   3.2746   2.2347   7.3743   1.0230  -2.2667   0.6389   0.00    0.0
2017/09/26 00:26:30.000   45.709755345   13.763528085   320.4762   5   7   3.2667   2.2338   7.3619   1.0089  -2.2610   0.5508   0.00    0.0
2017/09/26 00:27:00.000   45.709754173   13.763525275   319.4773   5   7   3.2590   2.2329   7.3487   0.9947  -2.2548   0.4439   0.00    0.0
2017/09/26 00:27:30.000   45.709754587   13.763530122   319.9440   5   7   3.2513   2.2321   7.3346   0.9805  -2.2482   0.2990   0.00    0.0
2017/09/26 00:28:00.000   45.709753836   13.763528050   319.8325   5   7   3.2438   2.2313   7.3196   0.9663  -2.2411  -0.1394   0.00    0.0
2017/09/26 00:28:30.000   45.709759573   13.763525555   319.1468   5   7   3.2363   2.2306   7.3038   0.9519  -2.2336  -0.3596   0.00    0.0
2017/09/26 00:29:00.000   45.709753674   13.763531203   320.4161   5   7   3.2289   2.2299   7.2872   0.9375  -2.2257  -0.4899   0.00    0.0
2017/09/26 00:29:30.000   45.709753923   13.763528560   318.3175   5   7   3.2217   2.2292   7.2699   0.9230  -2.2174  -0.5929   0.00    0.0
2017/09/26 00:30:00.000   45.709750367   13.763529550   319.5867   5   7   3.2145   2.2286   7.2518   0.9083  -2.2087  -0.6808   0.00    0.0
2017/09/26 00:30:30.000   45.709753045   13.763527448   320.6474   5   7   3.2074   2.2280   7.2330   0.8935  -2.1996  -0.7590   0.00    0.0
2017/09/26 00:31:00.000   45.709755809   13.763532614   320.2935   5   7   3.2005   2.2275   7.2135   0.8786  -2.1901  -0.8300   0.00    0.0
2017/09/26 00:31:30.000   45.709759304   13.763527540   319.3886   5   7   3.1937   2.2270   7.1934   0.8635  -2.1802  -0.8955   0.00    0.0
2017/09/26 00:32:00.000   45.709753320   13.763528037   320.2824   5   7   3.1870   2.2265   7.1727   0.8482  -2.1699  -0.9565   0.00    0.0
2017/09/26 00:32:30.000   45.709754544   13.763530483   318.9428   5   7   3.1804   2.2261   7.1515   0.8326  -2.1592  -1.0139   0.00    0.0
2017/09/26 00:33:00.000   45.709750340   13.763528166   320.3413   5   7   3.1740   2.2258   7.1297   0.8169  -2.1482  -1.0681   0.00    0.0
2017/09/26 00:33:30.000   45.709757620   13.763530378   319.7911   5   7   3.1677   2.2255   7.1074   0.8008  -2.1368  -1.1195   0.00    0.0
2017/09/26 00:34:00.000   45.709762350   13.763524978   317.9326   5   7   3.1615   2.2252   7.0846   0.7845  -2.1251  -1.1685   0.00    0.0
2017/09/26 00:34:30.000   45.709757160   13.763531778   318.9202   5   7   3.1555   2.2250   7.0613   0.7678  -2.1130  -1.2154   0.00    0.0
2017/09/26 00:35:00.000   45.709761260   13.763526416   314.9770   5   6   4.0697   2.7530  14.5724  -1.9014   4.0347  -5.8717   0.00    0.0
2017/09/26 00:35:30.000   45.709762018   13.763525618   317.0126   5   6   4.0836   2.7720  14.6090  -1.9421   4.1028  -5.9243   0.00    0.0
2017/09/26 00:36:00.000   45.709760675   13.763524959   316.3080   5   6   4.0977   2.7916  14.6423  -1.9827   4.1703  -5.9760   0.00    0.0
2017/09/26 00:36:30.000   45.709762510   13.763520494   314.7757   5   6   4.1123   2.8116  14.6722  -2.0232   4.2369  -6.0266   0.00    0.0
2017/09/26 00:37:00.000   45.709762443   13.763520928   314.7161   5   6   4.1271   2.8321  14.6988  -2.0637   4.3028  -6.0763   0.00    0.0
2017/09/26 00:37:30.000   45.709764021   13.763522627   315.5008   5   6   4.1422   2.8531  14.7219  -2.1041   4.3677  -6.1248   0.00    0.0
2017/09/26 00:38:00.000   45.709765634   13.763512851   313.9704   5   6   4.1576   2.8747  14.7417  -2.1444   4.4319  -6.1722   0.00    0.0
2017/09/26 00:38:30.000   45.709761541   13.763519717   314.6660   5   6   4.1731   2.8967  14.7582  -2.1846   4.4951  -6.2184   0.00    0.0
2017/09/26 00:39:00.000   45.709763194   13.763518490   314.0092   5   6   4.1889   2.9191  14.7714  -2.2247   4.5573  -6.2635   0.00    0.0
2017/09/26 00:39:30.000   45.709769323   13.763514972   313.9968   5   6   4.2049   2.9420  14.7813  -2.2646   4.6187  -6.3073   0.00    0.0
2017/09/26 00:40:00.000   45.709762249   13.763522441   315.7423   5   6   4.2211   2.9654  14.7881  -2.3045   4.6790  -6.3499   0.00    0.0
2017/09/26 00:40:30.000   45.709764529   13.763516986   315.3805   5   6   4.2373   2.9892  14.7916  -2.3441   4.7384  -6.3912   0.00    0.0
2017/09/26 00:41:00.000   45.709767552   13.763517720   313.4452   5   6   4.2537   3.0134  14.7921  -2.3836   4.7968  -6.4312   0.00    0.0
2017/09/26 00:41:30.000   45.709762876   13.763519101   314.0616   5   6   4.2701   3.0380  14.7895  -2.4229   4.8541  -6.4700   0.00    0.0
2017/09/26 00:42:00.000   45.709767852   13.763514225   313.7972   5   6   4.2866   3.0630  14.7839  -2.4621   4.9104  -6.5074   0.00    0.0
2017/09/26 00:42:30.000   45.709769195   13.763516030   314.4344   5   6   4.3032   3.0884  14.7755  -2.5010   4.9657  -6.5435   0.00    0.0
2017/09/26 00:43:00.000   45.709766607   13.763514877   312.1260   5   6   4.3197   3.1142  14.7641  -2.5397   5.0199  -6.5783   0.00    0.0
2017/09/26 00:43:30.000   45.709773990   13.763512079   311.7311   5   6   4.3362   3.1403  14.7501  -2.5782   5.0731  -6.6118   0.00    0.0
2017/09/26 00:44:00.000   45.709769978   13.763515780   311.9646   5   6   4.3527   3.1667  14.7333  -2.6165   5.1252  -6.6440   0.00    0.0
2017/09/26 00:44:30.000   45.709765885   13.763517278   314.5452   5   6   4.3692   3.1934  14.7139  -2.6545   5.1762  -6.6749   0.00    0.0
2017/09/26 00:45:00.000   45.709770978   13.763510796   312.0991   5   6   4.3856   3.2205  14.6921  -2.6923   5.2262  -6.7044   0.00    0.0
2017/09/26 00:45:30.000   45.709762566   13.763516585   312.8082   5   6   4.4019   3.2479  14.6677  -2.7298   5.2751  -6.7327   0.00    0.0
2017/09/26 00:46:00.000   45.709768369   13.763515232   314.0297   5   6   4.4181   3.2755  14.6410  -2.7671   5.3229  -6.7596   0.00    0.0
2017/09/26 00:46:30.000   45.709771581   13.763513070   311.6626   5   6   4.4341   3.3034  14.6121  -2.8040   5.3697  -6.7853   0.00    0.0
2017/09/26 00:47:00.000   45.709769537   13.763510406   312.9568   5   6   4.4501   3.3316  14.5809  -2.8407   5.4155  -6.8097   0.00    0.0
2017/09/26 00:47:30.000   45.709774083   13.763507016   311.4007   5   6   4.4659   3.3600  14.5477  -2.8771   5.4601  -6.8329   0.00    0.0
2017/09/26 00:48:00.000   45.709774862   13.763507163   310.7077   5   6   4.4815   3.3887  14.5124  -2.9132   5.5038  -6.8548   0.00    0.0
2017/09/26 00:48:30.000   45.709766474   13.763519382   313.7089   5   6   4.4969   3.4175  14.4752  -2.9490   5.5464  -6.8754   0.00    0.0
2017/09/26 00:49:00.000   45.709768671   13.763509364   312.0319   5   6   4.5122   3.4466  14.4361  -2.9844   5.5880  -6.8949   0.00    0.0
2017/09/26 00:49:30.000   45.709769446   13.763510577   312.7866   5   6   4.5272   3.4758  14.3953  -3.0196   5.6286  -6.9132   0.00    0.0
2017/09/26 00:50:00.000   45.709773529   13.763505909   312.1065   5   6   4.5421   3.5052  14.3528  -3.0544   5.6681  -6.9303   0.00    0.0
2017/09/26 00:50:30.000   45.709764790   13.763516695   313.3554   5   6   4.5567   3.5348  14.3086  -3.0889   5.7067  -6.9463   0.00    0.0
2017/09/26 00:51:00.000   45.709771091   13.763508435   313.2944   5   6   4.5710   3.5646  14.2629  -3.1231   5.7443  -6.9611   0.00    0.0
2017/09/26 00:51:30.000   45.709771544   13.763511945   313.7376   5   6   4.5852   3.5945  14.2157  -3.1569   5.7809  -6.9748   0.00    0.0
2017/09/26 00:52:00.000   45.709768240   13.763513696   314.1889   5   6   4.5990   3.6245  14.1672  -3.1904   5.8165  -6.9874   0.00    0.0
2017/09/26 00:52:30.000   45.709773427   13.763510583   313.0893   5   6   4.6127   3.6546  14.1173  -3.2235   5.8512  -6.9990   0.00    0.0
2017/09/26 00:53:00.000   45.709770397   13.763513533   312.9446   5   6   4.6260   3.6849  14.0661  -3.2563   5.8850  -7.0095   0.00    0.0
2017/09/26 00:53:30.000   45.709772222   13.763508663   311.7671   5   6   4.6391   3.7152  14.0137  -3.2887   5.9178  -7.0189   0.00    0.0
2017/09/26 00:54:00.000   45.709772871   13.763502790   312.5957   5   6   4.6519   3.7456  13.9603  -3.3208   5.9497  -7.0274   0.00    0.0
2017/09/26 00:54:30.000   45.709779562   13.763502800   311.3171   5   6   4.6644   3.7761  13.9057  -3.3525   5.9807  -7.0348   0.00    0.0
2017/09/26 00:55:00.000   45.709774641   13.763504471   312.7270   5   6   4.6766   3.8067  13.8501  -3.3838   6.0108  -7.0412   0.00    0.0
2017/09/26 00:55:30.000   45.709780420   13.763499171   310.6045   5   6   4.6885   3.8374  13.7935  -3.4148   6.0400  -7.0467   0.00    0.0
2017/09/26 00:56:00.000   45.709778494   13.763504134   311.8821   5   6   4.7001   3.8680  13.7361  -3.4454   6.0683  -7.0513   0.00    0.0
2017/09/26 00:56:30.000   45.709773322   13.763505754   312.5090   5   6   4.7114   3.8988  13.6778  -3.4757   6.0958  -7.0549   0.00    0.0
2017/09/26 00:57:00.000   45.709775623   13.763500865   311.3938   5   6   4.7223   3.9295  13.6186  -3.5055   6.1224  -7.0576   0.00    0.0
2017/09/26 00:57:30.000   45.709777105   13.763504458   312.3041   5   6   4.7330   3.9603  13.5587  -3.5350   6.1482  -7.0595   0.00    0.0
2017/09/26 00:58:00.000   45.709775667   13.763500128   312.3965   5   6   4.7433   3.9911  13.4981  -3.5641   6.1731  -7.0604   0.00    0.0
2017/09/26 00:58:30.000   45.709776204   13.763502067   311.1947   5   6   4.7533   4.0218  13.4368  -3.5928   6.1973  -7.0605   0.00    0.0
2017/09/26 00:59:00.000   45.709773696   13.763500284   313.1954   5   6   4.7630   4.0526  13.3748  -3.6211   6.2206  -7.0597   0.00    0.0
2017/09/26 00:59:30.000   45.709775124   13.763507250   313.2760   5   6   4.7723   4.0833  13.3122  -3.6490   6.2430  -7.0582   0.00    0.0
2017/09/26 01:00:00.000   45.709764544   13.763506000   318.2078   5   6   4.2608   4.0707  12.1919  -3.4964   6.0132  -6.2075   0.00    0.0
2017/09/26 01:00:30.000   45.709763990   13.763511673   318.9317   5   6   4.2669   4.0990  12.1263  -3.5187   6.0275  -6.2024   0.00    0.0
2017/09/26 01:01:00.000   45.709763651   13.763515269   318.6587   5   6   4.2727   4.1273  12.0605  -3.5407   6.0412  -6.1967   0.00    0.0
2017/09/26 01:01:30.000   45.709766217   13.763500679   316.6781   5   6   4.2784   4.1554  11.9946  -3.5623   6.0542  -6.1904   0.00    0.0
2017/09/26 01:02:00.000   45.709762163   13.763501831   317.3425   5   6   4.2838   4.1835  11.9285  -3.5836   6.0667  -6.1836   0.00    0.0
2017/09/26 01:02:30.000   45.709763182   13.763505213   319.2797   5   6   4.2889   4.2115  11.8623  -3.6047   6.0785  -6.1762   0.00    0.0
2017/09/26 01:03:00.000   45.709768214   13.763504981   317.5178   5   6   4.2939   4.2394  11.7961  -3.6254   6.0898  -6.1683   0.00    0.0
2017/09/26 01:03:30.000   45.709769400   13.763502271   316.8699   5   6   4.2986   4.2673  11.7298  -3.6458   6.1005  -6.1599   0.00    0.0
2017/09/26 01:04:00.000   45.709767184   13.763508457   319.5661   5   6   4.3031   4.2950  11.6635  -3.6659   6.1106  -6.1509   0.00    0.0
2017/09/26 01:04:30.000   45.709766900   13.763502690   318.3330   5   6   4.3073   4.3226  11.5972  -3.6856   6.1201  -6.1415   0.00    0.0
2017/09/26 01:05:00.000   45.709765845   13.763508871   319.2695   5   6   4.3113   4.3501  11.5309  -3.7051   6.1290  -6.1316   0.00    0.0
2017/09/26 01:05:30.000   45.709762665   13.763515194   321.3020   5   7   3.1948   2.4654   6.0975  -1.8379   1.5970  -3.0509   0.00    0.0
2017/09/26 01:06:00.000   45.709758630   13.763524403   321.8821   5   7   3.1925   2.4704   6.0830  -1.8452   1.6162  -3.0498   0.00    0.0
2017/09/26 01:06:30.000   45.709752175   13.763526818   322.7000   5   7   3.1902   2.4755   6.0684  -1.8524   1.6350  -3.0485   0.00    0.0
2017/09/26 01:07:00.000   45.709759439   13.763517619   322.5445   5   7   3.1880   2.4806   6.0537  -1.8595   1.6535  -3.0470   0.00    0.0
2017/09/26 01:07:30.000   45.709753282   13.763526943   322.1042   5   7   3.1857   2.4858   6.0390  -1.8666   1.6717  -3.0454   0.00    0.0
2017/09/26 01:08:00.000   45.709759581   13.763519826   321.4740   5   7   3.1835   2.4910   6.0241  -1.8735   1.6895  -3.0437   0.00    0.0
2017/09/26 01:08:30.000   45.709759588   13.763522835   321.9375   5   7   3.1812   2.4962   6.0093  -1.8805   1.7069  -3.0418   0.00    0.0
2017/09/26 01:09:00.000   45.709754401   13.763518525   322.0185   5   7   3.1789   2.5015   5.9943  -1.8873   1.7241  -3.0398   0.00    0.0
2017/09/26 01:09:30.000   45.709755789   13.763515937   321.6528   5   7   3.1767   2.5069   5.9793  -1.8941   1.7409  -3.0375   0.00    0.0
2017/09/26 01:10:00.000   45.709757622   13.763518692   322.1763   5   7   3.1744   2.5123   5.9642  -1.9008   1.7573  -3.0352   0.00    0.0
2017/09/26 01:10:30.000   45.709752161   13.763525197   322.2141   5   7   3.1721   2.5177   5.9491  -1.9075   1.7734  -3.0327   0.00    0.0
2017/09/26 01:11:00.000   45.709761320   13.763521714   321.6889   5   7   3.1698   2.5231   5.9339  -1.9140   1.7892  -3.0300   0.00    0.0
2017/09/26 01:11:30.000   45.709760357   13.763512364   321.6472   5   7   3.1674   2.5286   5.9186  -1.9205   1.8047  -3.0271   0.00    0.0
2017/09/26 01:12:00.000   45.709760810   13.763518120   321.5055   5   7   3.1651   2.5341   5.9033  -1.9270   1.8199  -3.0241   0.00    0.0
2017/09/26 01:12:30.000   45.709758366   13.763516597   321.4484   5   7   3.1627   2.5397   5.8878  -1.9333   1.8347  -3.0210   0.00    0.0
2017/09/26 01:13:00.000   45.709755530   13.763521552   321.3359   5   7   3.1604   2.5453   5.8724  -1.9396   1.8493  -3.0176   0.00    0.0
2017/09/26 01:13:30.000   45.709756737   13.763515142   321.4433   5   7   3.1580   2.5509   5.8569  -1.9457   1.8635  -3.0141   0.00    0.0
2017/09/26 01:14:00.000   45.709763080   13.763510029   320.1693   5   7   3.1556   2.5566   5.8413  -1.9518   1.8774  -3.0105   0.00    0.0
2017/09/26 01:14:30.000   45.709750002   13.763527695   321.8579   5   7   3.1532   2.5622   5.8256  -1.9579   1.8910  -3.0066   0.00    0.0
2017/09/26 01:15:00.000   45.709754622   13.763523195   321.4888   5   7   3.1508   2.5679   5.8099  -1.9638   1.9043  -3.0026   0.00    0.0
2017/09/26 01:15:30.000   45.709763013   13.763510010   320.7389   5   7   3.1483   2.5736   5.7942  -1.9696   1.9172  -2.9985   0.00    0.0
2017/09/26 01:16:00.000   45.709760450   13.763515541   321.8266   5   7   3.1458   2.5794   5.7784  -1.9754   1.9299  -2.9941   0.00    0.0
2017/09/26 01:16:30.000   45.709759816   13.763515721   321.0748   5   7   3.1434   2.5851   5.7625  -1.9811   1.9423  -2.9896   0.00    0.0
2017/09/26 01:17:00.000   45.709755683   13.763516255   322.0047   5   7   3.1409   2.5909   5.7466  -1.9867   1.9544  -2.9850   0.00    0.0
2017/09/26 01:17:30.000   45.709764899   13.763510446   321.1755   5   7   3.1383   2.5967   5.7307  -1.9922   1.9662  -2.9802   0.00    0.0
2017/09/26 01:18:00.000   45.709765917   13.763506384   320.6359   5   7   3.1358   2.6025   5.7147  -1.9976   1.9777  -2.9752   0.00    0.0
2017/09/26 01:18:30.000   45.709761597   13.763515163   320.4668   5   7   3.1333   2.6084   5.6987  -2.0029   1.9889  -2.9700   0.00    0.0
2017/09/26 01:19:00.000   45.709759789   13.763516581   322.1192   5   6   3.9571   3.0542   6.0101  -2.8026   0.9533  -2.0132   0.00    0.0
2017/09/26 01:19:30.000   45.709759392   13.763518756   321.8151   5   6   3.9476   3.0560   5.9957  -2.8002   0.9796  -2.0095   0.00    0.0
2017/09/26 01:20:00.000   45.709759268   13.763519495   321.0139   5   6   3.9381   3.0578   5.9812  -2.7977   1.0051  -2.0058   0.00    0.0
2017/09/26 01:20:30.000   45.709761501   13.763516063   320.8552   5   6   3.9285   3.0595   5.9666  -2.7951   1.0299  -2.0021   0.00    0.0
2017/09/26 01:21:00.000   45.709761757   13.763519158   322.6737   5   6   3.9188   3.0611   5.9519  -2.7922   1.0540  -1.9983   0.00    0.0
2017/09/26 01:21:30.000   45.709762535   13.763511085   320.6896   5   6   3.9091   3.0626   5.9371  -2.7893   1.0775  -1.9944   0.00    0.0
2017/09/26 01:22:00.000   45.709762746   13.763515112   322.4105   5   6   3.8994   3.0641   5.9222  -2.7862   1.1003  -1.9905   0.00    0.0
2017/09/26 01:22:30.000   45.709759719   13.763514797   321.3805   5   6   3.8895   3.0656   5.9073  -2.7830   1.1226  -1.9865   0.00    0.0
2017/09/26 01:23:00.000   45.709763793   13.763514142   322.2529   5   6   3.8796   3.0669   5.8923  -2.7796   1.1443  -1.9825   0.00    0.0
2017/09/26 01:23:30.000   45.709765911   13.763512276   321.8572   5   6   3.8697   3.0682   5.8773  -2.7761   1.1654  -1.9784   0.00    0.0
2017/09/26 01:24:00.000   45.709754866   13.763516830   323.0315   5   6   3.8597   3.0695   5.8622  -2.7725   1.1860  -1.9742   0.00    0.0
2017/09/26 01:24:30.000   45.709761608   13.763521696   322.2981   5   6   3.8497   3.0707   5.8470  -2.7687   1.2061  -1.9699   0.00    0.0
2017/09/26 01:25:00.000   45.709760708   13.763519371   322.3994   5   6   3.8397   3.0718   5.8317  -2.7649   1.2257  -1.9655   0.00    0.0
2017/09/26 01:25:30.000   45.709764882   13.763514964   322.0897   5   6   3.8296   3.0729   5.8165  -2.7609   1.2449  -1.9611   0.00    0.0
2017/09/26 01:26:00.000   45.709770511   13.763508493   321.0937   5   6   3.8194   3.0739   5.8011  -2.7568   1.2636  -1.9566   0.00    0.0
2017/09/26 01:26:30.000   45.709762718   13.763517390   322.3124   5   6   3.8093   3.0749   5.7857  -2.7525   1.2818  -1.9520   0.00    0.0
2017/09/26 01:27:00.000   45.709759408   13.763517115   321.2083   5   6   3.7991   3.0758   5.7703  -2.7482   1.2997  -1.9473   0.00    0.0
2017/09/26 01:27:30.000   45.709761565   13.763516415   321.5682   5   6   3.7888   3.0767   5.7549  -2.7437   1.3171  -1.9425   0.00    0.0
2017/09/26 01:28:00.000   45.709761875   13.763522925   321.2414   5   6   3.7786   3.0775   5.7394  -2.7392   1.3341  -1.9377   0.00    0.0
2017/09/26 01:28:30.000   45.709755001   13.763520196   321.3469   5   6   3.7683   3.0783   5.7239  -2.7345   1.3508  -1.9327   0.00    0.0
2017/09/26 01:29:00.000   45.709761899   13.763517829   322.4185   5   6   3.7580   3.0791   5.7083  -2.7297   1.3671  -1.9276   0.00    0.0
2017/09/26 01:29:30.000   45.709757806   13.763519953   321.4700   5   6   3.7477   3.0798   5.6927  -2.7248   1.3830  -1.9225   0.00    0.0
2017/09/26 01:30:00.000   45.709756722   13.763517742   321.4929   5   6   3.7374   3.0805   5.6772  -2.7198   1.3985  -1.9173   0.00    0.0
2017/09/26 01:30:30.000   45.709763553   13.763514140   321.4083   5   6   3.7270   3.0811   5.6616  -2.7148   1.4137  -1.9119   0.00    0.0
2017/09/26 01:31:00.000   45.709760066   13.763518904   321.0097   5   6   3.7167   3.0817   5.6459  -2.7096   1.4285  -1.9065   0.00    0.0
2017/09/26 01:31:30.000   45.709763174   13.763513650   321.7114   5   6   3.7063   3.0823   5.6303  -2.7043   1.4431  -1.9010   0.00    0.0
2017/09/26 01:32:00.000   45.709767412   13.763509411   321.5285   5   6   3.6960   3.0828   5.6147  -2.6990   1.4573  -1.8953   0.00    0.0
2017/09/26 01:32:30.000   45.709759665   13.763517108   321.0630   5   6   3.6856   3.0833   5.5991  -2.6935   1.4712  -1.8896   0.00    0.0
2017/09/26 01:33:00.000   45.709759481   13.763518492   321.6970   5   6   3.6753   3.0838   5.5835  -2.6880   1.4847  -1.8838   0.00    0.0
2017/09/26 01:33:30.000   45.709760881   13.763522027   321.3395   5   6   3.6649   3.0843   5.5678  -2.6824   1.4980  -1.8779   0.00    0.0
2017/09/26 01:34:00.000   45.709766065   13.763509960   321.9764   5   6   3.6546   3.0847   5.5522  -2.6767   1.5110  -1.8719   0.00    0.0
2017/09/26 01:34:30.000   45.709760476   13.763520259   321.2536   5   6   3.6442   3.0851   5.5366  -2.6709   1.5237  -1.8657   0.00    0.0
2017/09/26 01:35:00.000   45.709761517   13.763510405   321.2634   5   7   2.7087   2.4655   4.8577  -1.6151  -1.5836   1.7024   0.00    0.0
2017/09/26 01:35:30.000   45.709758991   13.763514821   321.0117   5   7   2.7034   2.4628   4.8489  -1.6077  -1.5655   1.6904   0.00    0.0
2017/09/26 01:36:00.000   45.709762384   13.763521476   320.8345   5   7   2.6981   2.4602   4.8400  -1.6003  -1.5472   1.6783   0.00    0.0
2017/09/26 01:36:30.000   45.709760393   13.763513183   320.9876   5   8   2.4978   1.9890   4.2992  -1.0413   0.9191   0.7473   0.00    0.0
2017/09/26 01:37:00.000   45.709766297   13.763514547   319.8646   5   8   2.4958   1.9888   4.3006  -1.0381   0.9279   0.7483   0.00    0.0
2017/09/26 01:37:30.000   45.709763377   13.763518432   320.1402   5   8   2.4939   1.9886   4.3019  -1.0348   0.9365   0.7494   0.00    0.0
2017/09/26 01:38:00.000   45.709761396   13.763516610   320.7197   5   8   2.4921   1.9884   4.3031  -1.0315   0.9451   0.7505   0.00    0.0
2017/09/26 01:38:30.000   45.709760503   13.763518661   320.5800   5   8   2.4903   1.9883   4.3043  -1.0283   0.9537   0.7516   0.00    0.0
2017/09/26 01:39:00.000   45.709763323   13.763512562   319.8905   5   8   2.4887   1.9882   4.3053  -1.0251   0.9621   0.7527   0.00    0.0
2017/09/26 01:39:30.000   45.709767719   13.763509655   320.5198   5   8   2.4871   1.9882   4.3064  -1.0219   0.9705   0.7539   0.00    0.0
2017/09/26 01:40:00.000   45.709765475   13.763514585   320.6640   5   8   2.4855   1.9882   4.3073  -1.0187   0.9788   0.7551   0.00    0.0
2017/09/26 01:40:30.000   45.709762778   13.763517578   320.6570   5   8   2.4841   1.9882   4.3082  -1.0156   0.9870   0.7564   0.00    0.0
2017/09/26 01:41:00.000   45.709763905   13.763516323   321.0297   5   8   2.4827   1.9883   4.3090  -1.0124   0.9951   0.7577   0.00    0.0
2017/09/26 01:41:30.000   45.709764948   13.763512855   320.4161   5   8   2.4814   1.9884   4.3098  -1.0093   1.0031   0.7591   0.00    0.0
2017/09/26 01:42:00.000   45.709763209   13.763525488   320.9574   5   8   2.4801   1.9885   4.3104  -1.0062   1.0111   0.7605   0.00    0.0
2017/09/26 01:42:30.000   45.709764574   13.763521270   321.2605   5   8   2.4789   1.9886   4.3110  -1.0031   1.0190   0.7619   0.00    0.0
2017/09/26 01:43:00.000   45.709761826   13.763521362   321.7983   5   8   2.4778   1.9888   4.3116  -1.0000   1.0268   0.7634   0.00    0.0
2017/09/26 01:43:30.000   45.709761929   13.763525137   321.2375   5   8   2.4768   1.9891   4.3120  -0.9969   1.0345   0.7650   0.00    0.0
2017/09/26 01:44:00.000   45.709760939   13.763522501   321.4370   5   8   2.4758   1.9893   4.3124  -0.9938   1.0422   0.7666   0.00    0.0
2017/09/26 01:44:30.000   45.709756695   13.763521394   321.4416   5   8   2.4749   1.9896   4.3126  -0.9908   1.0498   0.7683   0.00    0.0
2017/09/26 01:45:00.000   45.709758187   13.763525532   320.9607   5   8   2.4741   1.9899   4.3128  -0.9877   1.0573   0.7700   0.00    0.0
2017/09/26 01:45:30.000   45.709762382   13.763516649   321.4119   5   8   2.4733   1.9903   4.3130  -0.9847   1.0647   0.7718   0.00    0.0
2017/09/26 01:46:00.000   45.709758590   13.763517245   321.2274   5   8   2.4726   1.9907   4.3130  -0.9817   1.0721   0.7737   0.00    0.0
2017/09/26 01:46:30.000   45.709760454   13.763515523   321.4142   5   8   2.4720   1.9911   4.3130  -0.9786   1.0794   0.7756   0.00    0.0
2017/09/26 01:47:00.000   45.709760134   13.763516859   321.3783   5   8   2.4714   1.9916   4.3128  -0.9756   1.0866   0.7775   0.00    0.0
2017/09/26 01:47:30.000   45.709762396   13.763508514   319.8097   5   8   2.4709   1.9920   4.3127  -0.9726   1.0937   0.7796   0.00    0.0
2017/09/26 01:48:00.000   45.709764707   13.763508357   320.7675   5   8   2.4705   1.9926   4.3124  -0.9696   1.1008   0.7817   0.00    0.0
2017/09/26 01:48:30.000   45.709761653   13.763514461   321.4520   5   8   2.4701   1.9931   4.3120  -0.9666   1.1078   0.7838   0.00    0.0
2017/09/26 01:49:00.000   45.709759422   13.763521382   321.1342   5   8   2.4698   1.9937   4.3116  -0.9636   1.1147   0.7861   0.00    0.0
2017/09/26 01:49:30.000   45.709765080   13.763511947   320.9676   5   8   2.4696   1.9943   4.3111  -0.9606   1.1216   0.7884   0.00    0.0
2017/09/26 01:50:00.000   45.709759010   13.763518214   320.6415   5   8   2.4694   1.9950   4.3105  -0.9576   1.1284   0.7907   0.00    0.0
2017/09/26 01:50:30.000   45.709761163   13.763517812   320.6329   5   8   2.4693   1.9956   4.3099  -0.9546   1.1351   0.7932   0.00    0.0
2017/09/26 01:51:00.000   45.709765573   13.763520797   320.8973   5   8   2.4692   1.9963   4.3091  -0.9516   1.1418   0.7957   0.00    0.0
2017/09/26 01:51:30.000   45.709760870   13.763512555   320.8952   5   8   2.4693   1.9971   4.3083  -0.9486   1.1484   0.7982   0.00    0.0
2017/09/26 01:52:00.000   45.709762871   13.763517262   320.9983   5   8   2.4693   1.9978   4.3074  -0.9456   1.1549   0.8009   0.00    0.0
2017/09/26 01:52:30.000   45.709763778   13.763517431   321.0689   5   8   2.4695   1.9986   4.3065  -0.9426   1.1614   0.8036   0.00    0.0
2017/09/26 01:53:00.000   45.709760153   13.763513617   319.9126   5   8   2.4697   1.9995   4.3055  -0.9396   1.1677   0.8064   0.00    0.0
2017/09/26 01:53:30.000   45.709762225   13.763511530   320.7944   5   8   2.4700   2.0003   4.3044  -0.9366   1.1741   0.8092   0.00    0.0
2017/09/26 01:54:00.000   45.709758223   13.763520987   320.2061   5   8   2.4703   2.0012   4.3032  -0.9336   1.1803   0.8121   0.00    0.0
2017/09/26 01:54:30.000   45.709762220   13.763520036   321.3400   5   8   2.4708   2.0021   4.3020  -0.9306   1.1865   0.8151   0.00    0.0
2017/09/26 01:55:00.000   45.709762702   13.763517632   320.6800   5   8   2.4712   2.0031   4.3007  -0.9276   1.1927   0.8182   0.00    0.0
2017/09/26 01:55:30.000   45.709765977   13.763516365   320.5913   5   8   2.4718   2.0041   4.2994  -0.9246   1.1988   0.8213   0.00    0.0
2017/09/26 01:56:00.000   45.709765169   13.763514910   320.9704   5   8   2.4724   2.0051   4.2980  -0.9216   1.2048   0.8245   0.00    0.0
2017/09/26 01:56:30.000   45.709762046   13.763524469   321.2415   5   8   2.4731   2.0061   4.2966  -0.9186   1.2107   0.8278   0.00    0.0
2017/09/26 01:57:00.000   45.709760420   13.763519240   321.2159   5   8   2.4738   2.0072   4.2950  -0.9156   1.2166   0.8311   0.00    0.0
2017/09/26 01:57:30.000   45.709764051   13.763514789   320.8858   5   8   2.4746   2.0083   4.2935  -0.9125   1.2225   0.8346   0.00    0.0
2017/09/26 01:58:00.000   45.709760413   13.763520110   320.9158   5   8   2.4755   2.0094   4.2919  -0.9095   1.2282   0.8381   0.00    0.0
2017/09/26 01:58:30.000   45.709756365   13.763517771   320.7107   5   8   2.4764   2.0105   4.2902  -0.9065   1.2340   0.8416   0.00    0.0
2017/09/26 01:59:00.000   45.709758674   13.763521033   321.3197   5   8   2.4774   2.0117   4.2885  -0.9034   1.2396   0.8453   0.00    0.0
2017/09/26 01:59:30.000   45.709762610   13.763515793   321.1404   5   9   2.2248   1.9157   4.1221  -0.3679   1.5093  -0.7515   0.00    0.0
2017/09/26 02:00:00.000   45.709764691   13.763513346   318.5081   5   9   2.2255   1.9164   4.1233  -0.3569   1.5124  -0.7402   0.00    0.0
2017/09/26 02:00:30.000   45.709762704   13.763513719   318.9819   5   9   2.2264   1.9172   4.1244  -0.3455   1.5154  -0.7287   0.00    0.0
2017/09/26 02:01:00.000   45.709761443   13.763509813   318.6848   5   9   2.2273   1.9181   4.1254  -0.3337   1.5183  -0.7167   0.00    0.0
2017/09/26 02:01:30.000   45.709761672   13.763512525   318.8895   5   9   2.2283   1.9189   4.1264  -0.3214   1.5213  -0.7045   0.00    0.0
2017/09/26 02:02:00.000   45.709761569   13.763514259   318.8310   5   8   2.5481   1.9630   4.4054   0.6406   1.3007  -1.5425   0.00    0.0
2017/09/26 02:02:30.000   45.709764252   13.763509599   319.5671   5   8   2.5484   1.9632   4.4099   0.6433   1.3044  -1.5401   0.00    0.0
2017/09/26 02:03:00.000   45.709758347   13.763513917   318.8205   5   8   2.5486   1.9634   4.4143   0.6459   1.3080  -1.5374   0.00    0.0
2017/09/26 02:03:30.000   45.709763551   13.763507851   319.1770   5   8   2.5489   1.9637   4.4187   0.6486   1.3116  -1.5345   0.00    0.0
2017/09/26 02:04:00.000   45.709760180   13.763513603   318.8261   5   8   2.5492   1.9640   4.4230   0.6512   1.3153  -1.5315   0.00    0.0
2017/09/26 02:04:30.000   45.709755196   13.763511235   319.0348   5   8   2.5496   1.9643   4.4272   0.6539   1.3189  -1.5282   0.00    0.0
2017/09/26 02:05:00.000   45.709761222   13.763513900   319.2968   5   8   2.5500   1.9646   4.4313   0.6566   1.3225  -1.5248   0.00    0.0
2017/09/26 02:05:30.000   45.709758410   13.763508373   319.0449   5   8   2.5504   1.9650   4.4353   0.6593   1.3262  -1.5211   0.00    0.0
2017/09/26 02:06:00.000   45.709764387   13.763515591   318.8874   5   8   2.5509   1.9654   4.4393   0.6619   1.3298  -1.5173   0.00    0.0
2017/09/26 02:06:30.000   45.709762169   13.763510429   318.8413   5   8   2.5515   1.9658   4.4432   0.6646   1.3334  -1.5132   0.00    0.0
2017/09/26 02:07:00.000   45.709765741   13.763519934   319.1753   5   7   3.4739   2.0979   4.9332   1.4729   1.8302   1.6602   0.00    0.0
2017/09/26 02:07:30.000   45.709763681   13.763511800   319.1281   5   7   3.4772   2.1006   4.9538   1.4803   1.8446   1.6946   0.00    0.0
2017/09/26 02:08:00.000   45.709763949   13.763512054   319.0434   5   7   3.4805   2.1034   4.9746   1.4877   1.8590   1.7289   0.00    0.0
2017/09/26 02:08:30.000   45.709766400   13.763516838   319.3810   5   7   3.4840   2.1062   4.9958   1.4951   1.8735   1.7630   0.00    0.0
2017/09/26 02:09:00.000   45.709763403   13.763511504   318.7527   5   7   3.4876   2.1090   5.0171   1.5026   1.8881   1.7969   0.00    0.0
2017/09/26 02:09:30.000   45.709761415   13.763514581   318.1634   5   7   3.4913   2.1119   5.0388   1.5102   1.9028   1.8306   0.00    0.0
2017/09/26 02:10:00.000   45.709761607   13.763510892   318.8743   5   7   3.4951   2.1149   5.0607   1.5177   1.9175   1.8642   0.00    0.0
2017/09/26 02:10:30.000   45.709773378   13.763515369   319.4709   5   7   3.4990   2.1179   5.0828   1.5253   1.9324   1.8977   0.00    0.0
2017/09/26 02:11:00.000   45.709766877   13.763514798   319.4567   5   7   3.5031   2.1209   5.1052   1.5330   1.9473   1.9310   0.00    0.0
2017/09/26 02:11:30.000   45.709767209   13.763508031   318.9199   5   7   3.5073   2.1240   5.1279   1.5407   1.9623   1.9642   0.00    0.0
2017/09/26 02:12:00.000   45.709764497   13.763510768   318.5838   5   7   3.5116   2.1272   5.1508   1.5484   1.9774   1.9972   0.00    0.0
2017/09/26 02:12:30.000   45.709765906   13.763515626   319.0318   5   7   3.5160   2.1304   5.1739   1.5561   1.9926   2.0301   0.00    0.0
2017/09/26 02:13:00.000   45.709764285   13.763507919   319.0614   5   7   3.5205   2.1336   5.1973   1.5639   2.0078   2.0629   0.00    0.0
2017/09/26 02:13:30.000   45.709761965   13.763514331   318.4372   5   7   3.5252   2.1369   5.2209   1.5717   2.0231   2.0956   0.00    0.0
2017/09/26 02:14:00.000   45.709762794   13.763505117   318.4517   5   7   3.5299   2.1402   5.2447   1.5796   2.0384   2.1281   0.00    0.0
2017/09/26 02:14:30.000   45.709763117   13.763512509   318.5270   5   7   3.5348   2.1436   5.2688   1.5874   2.0538   2.1606   0.00    0.0
2017/09/26 02:15:00.000   45.709763251   13.763509887   318.7386   5   7   3.5398   2.1470   5.2931   1.5953   2.0693   2.1929   0.00    0.0
2017/09/26 02:15:30.000   45.709761311   13.763505804   318.6881   5   7   3.5449   2.1504   5.3176   1.6032   2.0848   2.2251   0.00    0.0
2017/09/26 02:16:00.000   45.709768359   13.763512007   319.5283   5   8   3.4523   2.0732   4.9804   1.7547   1.8117   2.5872   0.00    0.0
2017/09/26 02:16:30.000   45.709763110   13.763511963   319.1405   5   8   3.4605   2.0753   5.0050   1.7614   1.8260   2.6118   0.00    0.0
2017/09/26 02:17:00.000   45.709761490   13.763512003   318.8936   5   8   3.4686   2.0774   5.0298   1.7681   1.8402   2.6365   0.00    0.0
2017/09/26 02:17:30.000   45.709762868   13.763513661   319.1531   5   8   3.4769   2.0795   5.0548   1.7747   1.8544   2.6611   0.00    0.0
2017/09/26 02:18:00.000   45.709771531   13.763516233   319.2270   5   8   3.4852   2.0816   5.0799   1.7814   1.8687   2.6857   0.00    0.0
2017/09/26 02:18:30.000   45.709768934   13.763519214   320.2042   5   8   3.4935   2.0837   5.1052   1.7880   1.8829   2.7103   0.00    0.0
2017/09/26 02:19:00.000   45.709763000   13.763517704   319.2460   5   8   3.5019   2.0858   5.1306   1.7946   1.8971   2.7349   0.00    0.0
2017/09/26 02:19:30.000   45.709764220   13.763512864   318.9966   5   8   3.5104   2.0879   5.1561   1.8011   1.9112   2.7595   0.00    0.0
2017/09/26 02:20:00.000   45.709766778   13.763520250   319.3766   5   8   3.5188   2.0901   5.1818   1.8076   1.9254   2.7840   0.00    0.0
2017/09/26 02:20:30.000   45.709771808   13.763519856   320.0152   5   8   3.5273   2.0922   5.2075   1.8141   1.9394   2.8085   0.00    0.0
2017/09/26 02:21:00.000   45.709767424   13.763511821   319.4921   5   9   2.5413   1.8536   4.3941   0.9579   1.0224   1.0185   0.00    0.0
2017/09/26 02:21:30.000   45.709762301   13.763511320   319.0486   5   9   2.5412   1.8533   4.4093   0.9570   1.0303   1.0395   0.00    0.0
2017/09/26 02:22:00.000   45.709763361   13.763516595   319.0196   5   9   2.5411   1.8530   4.4244   0.9561   1.0382   1.0603   0.00    0.0
2017/09/26 02:22:30.000   45.709767274   13.763515128   319.9180   5   9   2.5412   1.8527   4.4397   0.9552   1.0462   1.0810   0.00    0.0
2017/09/26 02:23:00.000   45.709766441   13.763515804   318.3606   5   9   2.5413   1.8524   4.4551   0.9544   1.0541   1.1015   0.00    0.0
2017/09/26 02:23:30.000   45.709762900   13.763513892   319.8092   5   9   2.5415   1.8521   4.4705   0.9535   1.0621   1.1219   0.00    0.0
2017/09/26 02:24:00.000   45.709764826   13.763516051   320.0452   5   9   2.5418   1.8519   4.4861   0.9526   1.0701   1.1422   0.00    0.0
2017/09/26 02:24:30.000   45.709762391   13.763515914   320.2026   5   9   2.5421   1.8516   4.5017   0.9517   1.0780   1.1623   0.00    0.0
2017/09/26 02:25:00.000   45.709766988   13.763516671   319.8218   5   9   2.5426   1.8514   4.5173   0.9509   1.0860   1.1823   0.00    0.0
2017/09/26 02:25:30.000   45.709769760   13.763512863   319.7014   5   9   2.5431   1.8513   4.5331   0.9500   1.0940   1.2022   0.00    0.0
2017/09/26 02:26:00.000   45.709765767   13.763513903   319.1543   5   9   2.5437   1.8511   4.5488   0.9491   1.1019   1.2219   0.00    0.0
2017/09/26 02:26:30.000   45.709760674   13.763511689   319.3469   5   9   2.5443   1.8509   4.5647   0.9483   1.1099   1.2416   0.00    0.0
2017/09/26 02:27:00.000   45.709761525   13.763515818   319.2544   5   9   2.5451   1.8508   4.5806   0.9474   1.1178   1.2611   0.00    0.0
2017/09/26 02:27:30.000   45.709762467   13.763513242   318.9022   5   9   2.5459   1.8507   4.5966   0.9465   1.1258   1.2805   0.00    0.0
2017/09/26 02:28:00.000   45.709766270   13.763515529   320.4727   5   9   2.5467   1.8505   4.6126   0.9456   1.1337   1.2998   0.00    0.0
2017/09/26 02:28:30.000   45.709767374   13.763518468   319.0714   5   9   2.5477   1.8504   4.6286   0.9447   1.1415   1.3189   0.00    0.0
2017/09/26 02:29:00.000   45.709760481   13.763510390   319.5233   5   9   2.5487   1.8504   4.6447   0.9438   1.1494   1.3379   0.00    0.0
2017/09/26 02:29:30.000   45.709763511   13.763516376   319.7178   5   9   2.5498   1.8503   4.6608   0.9429   1.1572   1.3569   0.00    0.0
2017/09/26 02:30:00.000   45.709763188   13.763513922   319.7797   5   9   2.5510   1.8503   4.6769   0.9420   1.1650   1.3757   0.00    0.0
2017/09/26 02:30:30.000   45.709767296   13.763513743   319.7594   5   9   2.5522   1.8502   4.6931   0.9411   1.1728   1.3943   0.00    0.0
2017/09/26 02:31:00.000   45.709763237   13.763517726   319.7506   5   9   2.5535   1.8502   4.7092   0.9401   1.1805   1.4129   0.00    0.0
2017/09/26 02:31:30.000   45.709766813   13.763512715   320.1602   5   9   2.5549   1.8502   4.7254   0.9392   1.1882   1.4313   0.00    0.0
2017/09/26 02:32:00.000   45.709765265   13.763515578   319.3700   5   9   2.5563   1.8502   4.7416   0.9382   1.1958   1.4496   0.00    0.0
2017/09/26 02:32:30.000   45.709764598   13.763515987   320.3427   5   9   2.5578   1.8502   4.7577   0.9372   1.2034   1.4678   0.00    0.0
2017/09/26 02:33:00.000   45.709765347   13.763514486   319.1959   5   9   2.5593   1.8502   4.7739   0.9362   1.2109   1.4859   0.00    0.0
2017/09/26 02:33:30.000   45.709769191   13.763517604   319.8509   5   9   2.5610   1.8503   4.7901   0.9352   1.2184   1.5038   0.00    0.0
2017/09/26 02:34:00.000   45.709766857   13.763515934   319.7076   5   9   2.5626   1.8503   4.8062   0.9342   1.2258   1.5215   0.00    0.0
2017/09/26 02:34:30.000   45.709765826   13.763518078   320.0865   5   9   2.5644   1.8504   4.8223   0.9331   1.2332   1.5392   0.00    0.0
2017/09/26 02:35:00.000   45.709767067   13.763513600   319.6733   5   9   2.5662   1.8505   4.8384   0.9320   1.2405   1.5567   0.00    0.0
2017/09/26 02:35:30.000   45.709766728   13.763514447   319.9274   5   9   2.5680   1.8505   4.8544   0.9309   1.2477   1.5740   0.00    0.0
2017/09/26 02:36:00.000   45.709769750   13.763518405   320.3054   5   9   2.5699   1.8506   4.8703   0.9298   1.2548   1.5912   0.00    0.0
2017/09/26 02:36:30.000   45.709767518   13.763516169   319.5090   5   9   2.5719   1.8507   4.8863   0.9286   1.2618   1.6083   0.00    0.0
2017/09/26 02:37:00.000   45.709766511   13.763517993   320.0465   5   9   2.5739   1.8508   4.9021   0.9274   1.2688   1.6252   0.00    0.0
2017/09/26 02:37:30.000   45.709766897   13.763517373   319.8686   5   9   2.5760   1.8510   4.9179   0.9261   1.2757   1.6419   0.00    0.0
2017/09/26 02:38:00.000   45.709766079   13.763512215   320.5577   5   9   2.5781   1.8511   4.9336   0.9249   1.2825   1.6585   0.00    0.0
2017/09/26 02:38:30.000   45.709762331   13.763516125   319.8062   5   9   2.5803   1.8512   4.9492   0.9235   1.2892   1.6749   0.00    0.0
2017/09/26 02:39:00.000   45.709766725   13.763516128   320.2790   5   9   2.5825   1.8514   4.9647   0.9222   1.2958   1.6911   0.00    0.0
2017/09/26 02:39:30.000   45.709767561   13.763513998   320.6797   5   9   2.5847   1.8515   4.9801   0.9208   1.3023   1.7072   0.00    0.0
2017/09/26 02:40:00.000   45.709763830   13.763514319   320.0415   5   9   2.5870   1.8517   4.9955   0.9193   1.3086   1.7230   0.00    0.0
2017/09/26 02:40:30.000   45.709766031   13.763512130   320.4127   5   9   2.5893   1.8518   5.0106   0.9178   1.3149   1.7387   0.00    0.0
2017/09/26 02:41:00.000   45.709765173   13.763511821   319.6854   5   9   2.5917   1.8520   5.0257   0.9163   1.3210   1.7542   0.00    0.0
2017/09/26 02:41:30.000   45.709760729   13.763516647   320.1986   5   9   2.5941   1.8522   5.0406   0.9147   1.3271   1.7695   0.00    0.0
2017/09/26 02:42:00.000   45.709763000   13.763514120   319.7451   5   9   2.5965   1.8523   5.0554   0.9130   1.3330   1.7846   0.00    0.0
2017/09/26 02:42:30.000   45.709768389   13.763514134   320.2095   5   9   2.5990   1.8525   5.0700   0.9113   1.3387   1.7994   0.00    0.0
2017/09/26 02:43:00.000   45.709766934   13.763515432   320.1017   5   9   2.6015   1.8527   5.0845   0.9095   1.3444   1.8141   0.00    0.0
2017/09/26 02:43:30.000   45.709766451   13.763510416   319.9001   5   9   2.6040   1.8529   5.0988   0.9077   1.3499   1.8285   0.00    0.0
2017/09/26 02:44:00.000   45.709766438   13.763507554   320.4828   5   9   2.6066   1.8531   5.1129   0.9057   1.3552   1.8427   0.00    0.0
2017/09/26 02:44:30.000   45.709764365   13.763513678   320.4586   5   9   2.6092   1.8533   5.1269   0.9037   1.3604   1.8567   0.00    0.0
2017/09/26 02:45:00.000   45.709766548   13.763512091   320.5002   5   9   2.6118   1.8535   5.1406   0.9017   1.3655   1.8704   0.00    0.0
2017/09/26 02:45:30.000   45.709765126   13.763514262   320.7098   5   9   2.6144   1.8536   5.1541   0.8995   1.3704   1.8839   0.00    0.0
2017/09/26 02:46:00.000   45.709767063   13.763512912   320.7397   5   9   2.6170   1.8538   5.1674   0.8973   1.3751   1.8972   0.00    0.0
2017/09/26 02:46:30.000   45.709765054   13.763510771   320.3724   5   9   2.6196   1.8540   5.1805   0.8949   1.3797   1.9101   0.00    0.0
2017/09/26 02:47:00.000   45.709765939   13.763513524   320.2059   5   9   2.6223   1.8542   5.1934   0.8925   1.3841   1.9229   0.00    0.0
2017/09/26 02:47:30.000   45.709768081   13.763513233   319.9895   5   9   2.6249   1.8544   5.2060   0.8900   1.3883   1.9353   0.00    0.0
2017/09/26 02:48:00.000   45.709767667   13.763515636   320.3966   5   9   2.6276   1.8546   5.2184   0.8874   1.3924   1.9475   0.00    0.0
2017/09/26 02:48:30.000   45.709768812   13.763513868   320.3092   5   9   2.6303   1.8548   5.2305   0.8847   1.3962   1.9594   0.00    0.0
2017/09/26 02:49:00.000   45.709768655   13.763520189   321.5118   5   9   2.6329   1.8550   5.2424   0.8819   1.3999   1.9710   0.00    0.0
2017/09/26 02:49:30.000   45.709768345   13.763519663   320.9735   5   9   2.6356   1.8552   5.2540   0.8790   1.4034   1.9823   0.00    0.0
2017/09/26 02:50:00.000   45.709765505   13.763510528   320.7758   5   9   2.6382   1.8554   5.2653   0.8760   1.4067   1.9933   0.00    0.0
2017/09/26 02:50:30.000   45.709767567   13.763514206   320.4625   5   9   2.6409   1.8556   5.2763   0.8728   1.4098   2.0040   0.00    0.0
2017/09/26 02:51:00.000   45.709769385   13.763521281   320.7435   5   9   2.6435   1.8558   5.2871   0.8696   1.4127   2.0144   0.00    0.0
2017/09/26 02:51:30.000   45.709773838   13.763517583   319.7813   5   8   2.9244   1.9800   5.8451   1.2684   0.5476   1.0114   0.00    0.0
2017/09/26 02:52:00.000   45.709775346   13.763516189   318.9143   5   8   2.9226   1.9779   5.8693   1.2602   0.5463   1.0214   0.00    0.0
2017/09/26 02:52:30.000   45.709774401   13.763518122   319.5884   5   8   2.9208   1.9759   5.8933   1.2520   0.5448   1.0312   0.00    0.0
2017/09/26 02:53:00.000   45.709771293   13.763516312   319.5986   5   8   2.9189   1.9740   5.9171   1.2436   0.5431   1.0407   0.00    0.0
2017/09/26 02:53:30.000   45.709775560   13.763517182   319.7002   5   8   2.9171   1.9720   5.9406   1.2352   0.5414   1.0500   0.00    0.0
2017/09/26 02:54:00.000   45.709768275   13.763518400   320.2578   5   8   2.9153   1.9701   5.9640   1.2266   0.5395   1.0590   0.00    0.0
2017/09/26 02:54:30.000   45.709771490   13.763514919   319.2579   5   8   2.9135   1.9681   5.9871   1.2180   0.5375   1.0678   0.00    0.0
2017/09/26 02:55:00.000   45.709776171   13.763521748   320.0776   5   8   2.9117   1.9663   6.0099   1.2092   0.5353   1.0764   0.00    0.0
2017/09/26 02:55:30.000   45.709774946   13.763520293   319.7872   5   8   2.9098   1.9644   6.0325   1.2004   0.5329   1.0847   0.00    0.0
2017/09/26 02:56:00.000   45.709775427   13.763517823   320.3256   5   8   2.9080   1.9625   6.0547   1.1915   0.5305   1.0927   0.00    0.0
2017/09/26 02:56:30.000   45.709771900   13.763515809   320.3807   5   8   2.9062   1.9607   6.0767   1.1824   0.5278   1.1005   0.00    0.0
2017/09/26 02:57:00.000   45.709773655   13.763521084   320.1743   5   8   2.9044   1.9589   6.0983   1.1733   0.5250   1.1080   0.00    0.0
2017/09/26 02:57:30.000   45.709779773   13.763516522   320.1208   5   8   2.9026   1.9571   6.1195   1.1641   0.5220   1.1151   0.00    0.0
2017/09/26 02:58:00.000   45.709770430   13.763513808   321.0249   5   8   2.9008   1.9554   6.1404   1.1548   0.5188   1.1221   0.00    0.0
2017/09/26 02:58:30.000   45.709775290   13.763516624   320.3545   5   8   2.8990   1.9537   6.1608   1.1453   0.5154   1.1287   0.00    0.0
2017/09/26 02:59:00.000   45.709771525   13.763520077   320.1916   5   8   2.8972   1.9520   6.1809   1.1358   0.5118   1.1350   0.00    0.0
2017/09/26 02:59:30.000   45.709773516   13.763519975   320.7297   5   8   2.8954   1.9503   6.2006   1.1261   0.5081   1.1410   0.00    0.0
2017/09/26 03:00:00.000   45.709768418   13.763522766   321.8514   5   8   2.5904   1.8670   5.9906   0.9573  -0.8043   0.9285   0.00    0.0
2017/09/26 03:00:30.000   45.709765841   13.763524818   322.5226   5   8   2.5904   1.8653   6.0114   0.9484  -0.8055   0.9434   0.00    0.0
2017/09/26 03:01:00.000   45.709769114   13.763524399   322.3326   5   8   2.5905   1.8636   6.0319   0.9395  -0.8066   0.9580   0.00    0.0
2017/09/26 03:01:30.000   45.709765533   13.763523624   321.3751   5   8   2.5906   1.8619   6.0519   0.9304  -0.8076   0.9723   0.00    0.0
2017/09/26 03:02:00.000   45.709764419   13.763523008   321.9104   5   8   2.5907   1.8602   6.0715   0.9212  -0.8086   0.9864   0.00    0.0
2017/09/26 03:02:30.000   45.709765087   13.763518981   321.2888   5   8   2.5909   1.8586   6.0906   0.9119  -0.8096   1.0001   0.00    0.0
2017/09/26 03:03:00.000   45.709764807   13.763517668   322.9295   5   8   2.5911   1.8569   6.1092   0.9025  -0.8105   1.0135   0.00    0.0
2017/09/26 03:03:30.000   45.709770134   13.763521792   321.6145   5   8   2.5913   1.8554   6.1273   0.8930  -0.8113   1.0267   0.00    0.0
2017/09/26 03:04:00.000   45.709767886   13.763521320   322.0700   5   8   2.5916   1.8538   6.1449   0.8834  -0.8122   1.0395   0.00    0.0
2017/09/26 03:04:30.000   45.709768057   13.763523079   321.2497   5   8   2.5919   1.8522   6.1620   0.8736  -0.8129   1.0520   0.00    0.0
2017/09/26 03:05:00.000   45.709766010   13.763519980   320.6917   5   8   2.5923   1.8507   6.1785   0.8638  -0.8137   1.0642   0.00    0.0
2017/09/26 03:05:30.000   45.709765203   13.763523819   321.6226   5   8   2.5926   1.8492   6.1944   0.8538  -0.8144   1.0761   0.00    0.0
2017/09/26 03:06:00.000   45.709760761   13.763519238   322.0942   5   8   2.5931   1.8478   6.2097   0.8436  -0.8150   1.0876   0.00    0.0
2017/09/26 03:06:30.000   45.709768680   13.763522498   320.9030   5   8   2.5935   1.8464   6.2244   0.8334  -0.8156   1.0989   0.00    0.0
2017/09/26 03:07:00.000   45.709768951   13.763520140   322.1172   5   8   2.5940   1.8449   6.2385   0.8230  -0.8162   1.1098   0.00    0.0
2017/09/26 03:07:30.000   45.709763419   13.763518897   322.4022   5   8   2.5945   1.8436   6.2519   0.8124  -0.8167   1.1203   0.00    0.0
2017/09/26 03:08:00.000   45.709765652   13.763519395   321.3303   5   8   2.5951   1.8422   6.2646   0.8017  -0.8172   1.1305   0.00    0.0
2017/09/26 03:08:30.000   45.709761501   13.763524402   321.2397   5   8   2.5956   1.8409   6.2767   0.7909  -0.8176   1.1404   0.00    0.0
2017/09/26 03:09:00.000   45.709765807   13.763521678   321.7812   5   8   2.5962   1.8396   6.2880   0.7798  -0.8180   1.1499   0.00    0.0
2017/09/26 03:09:30.000   45.709765960   13.763523048   322.4728   5   8   2.5969   1.8383   6.2986   0.7686  -0.8184   1.1590   0.00    0.0
2017/09/26 03:10:00.000   45.709764823   13.763519562   321.0557   5   8   2.5976   1.8371   6.3085   0.7573  -0.8187   1.1678   0.00    0.0
2017/09/26 03:10:30.000   45.709765176   13.763519674   321.6888   5   8   2.5983   1.8359   6.3177   0.7457  -0.8190   1.1763   0.00    0.0
2017/09/26 03:11:00.000   45.709765924   13.763525132   321.7730   5   8   2.5990   1.8347   6.3261   0.7339  -0.8193   1.1843   0.00    0.0
2017/09/26 03:11:30.000   45.709764833   13.763520773   322.1013   5   8   2.5998   1.8335   6.3338   0.7220  -0.8195   1.1920   0.00    0.0
2017/09/26 03:12:00.000   45.709765976   13.763522486   320.9526   5   8   2.6006   1.8324   6.3407   0.7098  -0.8196   1.1993   0.00    0.0
2017/09/26 03:12:30.000   45.709765702   13.763519923   322.3822   5   8   2.6014   1.8313   6.3467   0.6974  -0.8197   1.2062   0.00    0.0
2017/09/26 03:13:00.000   45.709768234   13.763522461   321.1028   5   8   2.6022   1.8303   6.3520   0.6848  -0.8198   1.2127   0.00    0.0
2017/09/26 03:13:30.000   45.709763972   13.763518725   321.4958   5   8   2.6031   1.8292   6.3565   0.6719  -0.8199   1.2188   0.00    0.0
2017/09/26 03:14:00.000   45.709761170   13.763520270   321.6837   5   8   2.6040   1.8282   6.3602   0.6588  -0.8199   1.2245   0.00    0.0
2017/09/26 03:14:30.000   45.709763849   13.763523302   320.7043   5   8   2.6050   1.8272   6.3631   0.6454  -0.8199   1.2298   0.00    0.0
2017/09/26 03:15:00.000   45.709763740   13.763519121   321.3336   5   8   2.6059   1.8263   6.3652   0.6317  -0.8198   1.2348   0.00    0.0
2017/09/26 03:15:30.000   45.709763904   13.763517796   321.1396   5   8   2.6069   1.8254   6.3664   0.6176  -0.8197   1.2393   0.00    0.0
2017/09/26 03:16:00.000   45.709770130   13.763525836   321.7047   5   8   2.6079   1.8245   6.3668   0.6033  -0.8196   1.2434   0.00    0.0
2017/09/26 03:16:30.000   45.709768167   13.763521967   321.1504   5   8   2.6090   1.8237   6.3664   0.5885  -0.8194   1.2471   0.00    0.0
2017/09/26 03:17:00.000   45.709769275   13.763518112   321.7449   5   8   2.6100   1.8228   6.3652   0.5734  -0.8192   1.2504   0.00    0.0
2017/09/26 03:17:30.000   45.709765939   13.763519641   321.5888   5   8   2.6111   1.8221   6.3631   0.5579  -0.8190   1.2533   0.00    0.0
2017/09/26 03:18:00.000   45.709765554   13.763518667   321.7630   5   8   2.6123   1.8213   6.3603   0.5419  -0.8188   1.2558   0.00    0.0
2017/09/26 03:18:30.000   45.709768073   13.763522852   321.7187   5   8   2.6134   1.8206   6.3566   0.5254  -0.8185   1.2579   0.00    0.0
2017/09/26 03:19:00.000   45.709765416   13.763519201   320.8614   5   8   2.6146   1.8199   6.3521   0.5084  -0.8181   1.2596   0.00    0.0
2017/09/26 03:19:30.000   45.709761186   13.763518240   321.5412   5   8   2.6158   1.8192   6.3468   0.4907  -0.8178   1.2608   0.00    0.0
2017/09/26 03:20:00.000   45.709768961   13.763523893   321.0243   5   8   2.6170   1.8186   6.3408   0.4724  -0.8174   1.2617   0.00    0.0
2017/09/26 03:20:30.000   45.709765593   13.763524399   321.3203   5   8   2.6182   1.8180   6.3339   0.4534  -0.8170   1.2621   0.00    0.0
2017/09/26 03:21:00.000   45.709762921   13.763521960   320.8716   5   8   2.6195   1.8174   6.3262   0.4335  -0.8165   1.2621   0.00    0.0
2017/09/26 03:21:30.000   45.709766629   13.763526440   321.1901   5   8   2.6208   1.8169   6.3178   0.4126  -0.8160   1.2618   0.00    0.0
2017/09/26 03:22:00.000   45.709764868   13.763519032   321.3047   5   8   2.6221   1.8164   6.3086   0.3906  -0.8155   1.2610   0.00    0.0
2017/09/26 03:22:30.000   45.709765030   13.763520257   320.8217   5   8   2.6235   1.8159   6.2987   0.3672  -0.8150   1.2598   0.00    0.0
2017/09/26 03:23:00.000   45.709767966   13.763520747   321.4753   5   8   2.6248   1.8155   6.2881   0.3423  -0.8144   1.2582   0.00    0.0
2017/09/26 03:23:30.000   45.709765538   13.763523055   321.5437   5   8   2.6262   1.8151   6.2767   0.3153  -0.8138   1.2563   0.00    0.0
2017/09/26 03:24:00.000   45.709764808   13.763521276   321.5427   5   8   2.6277   1.8148   6.2646   0.2859  -0.8132   1.2539   0.00    0.0
2017/09/26 03:24:30.000   45.709766554   13.763522292   321.0073   5   8   2.6291   1.8144   6.2519   0.2529  -0.8126   1.2511   0.00    0.0
2017/09/26 03:25:00.000   45.709763775   13.763518111   321.1604   5   8   2.6306   1.8141   6.2384   0.2150  -0.8119   1.2480   0.00    0.0
2017/09/26 03:25:30.000   45.709766099   13.763522689   320.0617   5   8   2.6321   1.8139   6.2243   0.1688  -0.8112   1.2445   0.00    0.0
2017/09/26 03:26:00.000   45.709765700   13.763523629   321.7218   5   8   2.6336   1.8136   6.2096   0.1036  -0.8105   1.2406   0.00    0.0
2017/09/26 03:26:30.000   45.709765850   13.763520643   320.8035   5   8   2.6352   1.8134   6.1942  -0.0839  -0.8097   1.2363   0.00    0.0
2017/09/26 03:27:00.000   45.709766346   13.763519634   320.5646   5   8   2.6367   1.8133   6.1783  -0.1576  -0.8090   1.2317   0.00    0.0
2017/09/26 03:27:30.000   45.709767641   13.763520626   321.5041   5   8   2.6384   1.8131   6.1617  -0.2064  -0.8082   1.2266   0.00    0.0
2017/09/26 03:28:00.000   45.709767740   13.763520056   320.9729   5   8   2.6400   1.8130   6.1446  -0.2458  -0.8074   1.2213   0.00    0.0
2017/09/26 03:28:30.000   45.709764117   13.763521970   321.2536   5   8   2.6417   1.8130   6.1270  -0.2797  -0.8066   1.2155   0.00    0.0
2017/09/26 03:29:00.000   45.709765305   13.763516287   321.4115   5   8   2.6433   1.8130   6.1088  -0.3099  -0.8058   1.2094   0.00    0.0
