% program   : RTKPOST-EX 2.5.0
% inp file  : D:\Academic\0 Research\000 In preparation\00 GPS positioning performance circular analysis during short-term fast-developing geomagnetic storms\Storm 4\trie2710.17d
% inp file  : D:\Academic\0 Research\000 In preparation\00 GPS positioning performance circular analysis during short-term fast-developing geomagnetic storms\Storm 4\brdc2710.17n
% obs start : 2017/09/28 00:00:00.0 GPST (week1968 345600.0s)
% obs end   : 2017/09/28 23:59:30.0 GPST (week1968 431970.0s)
% pos mode  : Single
% elev mask : 15.0 deg
% tidecorr  :
% ionos opt : Broadcast
% tropo opt : Saastamoinen
% ephemeris : Broadcast
% navi sys  : GPS
%
% (lat/lon/height=WGS84/ellipsoidal,Q=1:fix,2:float,3:sbas,4:dgps,5:single,6:ppp,ns=# of satellites)
%  GPST                  latitude(deg) longitude(deg)  height(m)   Q  ns   sdn(m)   sde(m)   sdu(m)  sdne(m)  sdeu(m)  sdun(m) age(s)  ratio
2017/09/28 00:00:00.000   45.709770474   13.763506189   322.9129   5   8   2.9807   1.7979   6.3093  -0.5859  -0.9219   2.8255   0.00    0.0
2017/09/28 00:00:30.000   45.709772609   13.763507466   322.1851   5   8   2.9831   1.7988   6.3138  -0.5991  -0.9184   2.8321   0.00    0.0
2017/09/28 00:01:00.000   45.709771587   13.763506088   321.6470   5   8   2.9852   1.7996   6.3172  -0.6119  -0.9147   2.8377   0.00    0.0
2017/09/28 00:01:30.000   45.709771857   13.763510105   323.3469   5   8   2.9870   1.8006   6.3197  -0.6244  -0.9108   2.8424   0.00    0.0
2017/09/28 00:02:00.000   45.709771424   13.763506853   322.2946   5   8   2.9886   1.8015   6.3210  -0.6365  -0.9067   2.8461   0.00    0.0
2017/09/28 00:02:30.000   45.709772064   13.763507493   323.0458   5   8   2.9898   1.8026   6.3213  -0.6483  -0.9024   2.8487   0.00    0.0
2017/09/28 00:03:00.000   45.709774435   13.763505526   323.8576   5   8   2.9908   1.8036   6.3206  -0.6598  -0.8979   2.8505   0.00    0.0
2017/09/28 00:03:30.000   45.709769191   13.763511910   324.4416   5   8   2.9915   1.8048   6.3188  -0.6710  -0.8932   2.8512   0.00    0.0
2017/09/28 00:04:00.000   45.709773240   13.763512698   323.9910   5   8   2.9919   1.8059   6.3159  -0.6819  -0.8882   2.8509   0.00    0.0
2017/09/28 00:04:30.000   45.709771751   13.763513388   324.1342   5   8   2.9920   1.8071   6.3120  -0.6926  -0.8830   2.8496   0.00    0.0
2017/09/28 00:05:00.000   45.709777594   13.763512100   324.2919   5   8   2.9917   1.8084   6.3071  -0.7030  -0.8775   2.8474   0.00    0.0
2017/09/28 00:05:30.000   45.709770331   13.763509134   323.9885   5   8   2.9912   1.8097   6.3011  -0.7132  -0.8718   2.8441   0.00    0.0
2017/09/28 00:06:00.000   45.709770460   13.763509513   322.7846   5   8   2.9904   1.8111   6.2941  -0.7231  -0.8659   2.8399   0.00    0.0
2017/09/28 00:06:30.000   45.709771457   13.763506589   323.6089   5   8   2.9893   1.8125   6.2861  -0.7328  -0.8596   2.8348   0.00    0.0
2017/09/28 00:07:00.000   45.709774532   13.763509769   323.4464   5   8   2.9880   1.8140   6.2771  -0.7423  -0.8531   2.8286   0.00    0.0
2017/09/28 00:07:30.000   45.709773361   13.763504686   323.8269   5   8   2.9863   1.8155   6.2671  -0.7516  -0.8464   2.8216   0.00    0.0
2017/09/28 00:08:00.000   45.709774411   13.763509864   324.5027   5   8   2.9844   1.8171   6.2562  -0.7608  -0.8393   2.8135   0.00    0.0
2017/09/28 00:08:30.000   45.709770139   13.763509295   323.8512   5   8   2.9822   1.8187   6.2443  -0.7697  -0.8320   2.8046   0.00    0.0
2017/09/28 00:09:00.000   45.709774412   13.763508515   323.0740   5   8   2.9797   1.8203   6.2316  -0.7785  -0.8243   2.7948   0.00    0.0
2017/09/28 00:09:30.000   45.709773325   13.763505504   323.3743   5   8   2.9770   1.8221   6.2180  -0.7871  -0.8164   2.7840   0.00    0.0
2017/09/28 00:10:00.000   45.709775818   13.763506680   322.7694   5   8   2.9740   1.8238   6.2035  -0.7955  -0.8082   2.7724   0.00    0.0
2017/09/28 00:10:30.000   45.709771994   13.763510583   323.4602   5   8   2.9708   1.8257   6.1882  -0.8038  -0.7996   2.7599   0.00    0.0
2017/09/28 00:11:00.000   45.709774059   13.763507131   322.8343   5   8   2.9674   1.8275   6.1721  -0.8119  -0.7908   2.7465   0.00    0.0
2017/09/28 00:11:30.000   45.709778160   13.763504167   323.0740   5   8   2.9637   1.8295   6.1553  -0.8200  -0.7816   2.7324   0.00    0.0
2017/09/28 00:12:00.000   45.709770955   13.763509946   323.2088   5   8   2.9598   1.8315   6.1377  -0.8278  -0.7721   2.7174   0.00    0.0
2017/09/28 00:12:30.000   45.709773841   13.763507365   324.6286   5   7   3.2073   2.0804   7.4071   0.7251  -2.1642   1.4501   0.00    0.0
2017/09/28 00:13:00.000   45.709768049   13.763505022   326.2456   5   7   3.1990   2.0803   7.4052   0.7049  -2.1621   1.4248   0.00    0.0
2017/09/28 00:13:30.000   45.709771504   13.763506117   326.3638   5   7   3.1908   2.0802   7.4021   0.6844  -2.1596   1.3979   0.00    0.0
2017/09/28 00:14:00.000   45.709770611   13.763506749   324.5904   5   7   3.1826   2.0802   7.3979   0.6637  -2.1565   1.3695   0.00    0.0
2017/09/28 00:14:30.000   45.709771765   13.763504436   326.7818   5   7   3.1745   2.0802   7.3926   0.6427  -2.1530   1.3395   0.00    0.0
2017/09/28 00:15:00.000   45.709770914   13.763508242   325.7393   5   7   3.1663   2.0802   7.3861   0.6213  -2.1489   1.3077   0.00    0.0
2017/09/28 00:15:30.000   45.709774349   13.763506099   324.6002   5   7   3.1583   2.0802   7.3786   0.5994  -2.1444   1.2743   0.00    0.0
2017/09/28 00:16:00.000   45.709767456   13.763507307   326.2633   5   7   3.1502   2.0802   7.3699   0.5771  -2.1394   1.2390   0.00    0.0
2017/09/28 00:16:30.000   45.709771292   13.763503605   325.0567   5   7   3.1422   2.0803   7.3603   0.5543  -2.1339   1.2017   0.00    0.0
2017/09/28 00:17:00.000   45.709769483   13.763505603   327.4743   5   7   3.1343   2.0804   7.3495   0.5308  -2.1279   1.1625   0.00    0.0
2017/09/28 00:17:30.000   45.709764794   13.763501125   324.5397   5   7   3.1264   2.0806   7.3378   0.5065  -2.1214   1.1210   0.00    0.0
2017/09/28 00:18:00.000   45.709771601   13.763507725   324.5785   5   7   3.1186   2.0808   7.3251   0.4814  -2.1144   1.0771   0.00    0.0
2017/09/28 00:18:30.000   45.709773556   13.763506674   324.4145   5   7   3.1108   2.0810   7.3114   0.4552  -2.1070   1.0307   0.00    0.0
2017/09/28 00:19:00.000   45.709767137   13.763507173   324.5374   5   7   3.1031   2.0812   7.2968   0.4278  -2.0991   0.9813   0.00    0.0
2017/09/28 00:19:30.000   45.709770075   13.763506590   324.6753   5   7   3.0956   2.0815   7.2813   0.3988  -2.0907   0.9286   0.00    0.0
2017/09/28 00:20:00.000   45.709766334   13.763503796   324.5208   5   7   3.0881   2.0818   7.2649   0.3678  -2.0819   0.8722   0.00    0.0
2017/09/28 00:20:30.000   45.709766572   13.763507799   326.2233   5   7   3.0806   2.0822   7.2477   0.3344  -2.0726   0.8112   0.00    0.0
2017/09/28 00:21:00.000   45.709769840   13.763507324   324.2905   5   7   3.0733   2.0826   7.2297   0.2975  -2.0629   0.7447   0.00    0.0
2017/09/28 00:21:30.000   45.709767473   13.763505843   323.3236   5   7   3.0661   2.0830   7.2110   0.2557  -2.0527   0.6712   0.00    0.0
2017/09/28 00:22:00.000   45.709770245   13.763506609   326.0421   5   7   3.0590   2.0835   7.1914   0.2060  -2.0421   0.5881   0.00    0.0
2017/09/28 00:22:30.000   45.709765761   13.763505719   324.4968   5   7   3.0520   2.0840   7.1712   0.1400  -2.0310   0.4908   0.00    0.0
2017/09/28 00:23:00.000   45.709769343   13.763502573   325.3094   5   7   3.0451   2.0846   7.1503  -0.0555  -2.0195   0.3682   0.00    0.0
2017/09/28 00:23:30.000   45.709772365   13.763506268   325.4788   5   7   3.0383   2.0852   7.1288  -0.1602  -2.0076   0.1734   0.00    0.0
2017/09/28 00:24:00.000   45.709770654   13.763504839   323.8984   5   7   3.0316   2.0858   7.1066  -0.2194  -1.9953  -0.2746   0.00    0.0
2017/09/28 00:24:30.000   45.709765941   13.763511068   325.6694   5   7   3.0251   2.0865   7.0839  -0.2656  -1.9826  -0.4253   0.00    0.0
2017/09/28 00:25:00.000   45.709768758   13.763510540   324.9658   5   7   3.0187   2.0873   7.0606  -0.3048  -1.9695  -0.5349   0.00    0.0
2017/09/28 00:25:30.000   45.709773242   13.763498243   324.4169   5   7   3.0124   2.0881   7.0368  -0.3395  -1.9560  -0.6253   0.00    0.0
2017/09/28 00:26:00.000   45.709770633   13.763506114   324.0410   5   7   3.0062   2.0890   7.0125  -0.3709  -1.9422  -0.7040   0.00    0.0
2017/09/28 00:26:30.000   45.709763982   13.763507719   325.8178   5   6   3.7552   2.7138  13.9902  -2.0174   4.1552  -5.2889   0.00    0.0
2017/09/28 00:27:00.000   45.709765716   13.763504454   324.7901   5   6   3.7646   2.7346  14.0146  -2.0504   4.2161  -5.3346   0.00    0.0
2017/09/28 00:27:30.000   45.709766813   13.763506440   324.9182   5   6   3.7744   2.7559  14.0355  -2.0834   4.2761  -5.3793   0.00    0.0
2017/09/28 00:28:00.000   45.709770081   13.763500919   323.2663   5   6   3.7844   2.7775  14.0530  -2.1165   4.3353  -5.4229   0.00    0.0
2017/09/28 00:28:30.000   45.709771357   13.763503165   323.4311   5   6   3.7947   2.7996  14.0671  -2.1495   4.3936  -5.4655   0.00    0.0
2017/09/28 00:29:00.000   45.709769271   13.763508404   325.4476   5   6   3.8052   2.8221  14.0778  -2.1826   4.4509  -5.5070   0.00    0.0
2017/09/28 00:29:30.000   45.709769157   13.763506617   325.5420   5   6   3.8159   2.8450  14.0851  -2.2157   4.5073  -5.5474   0.00    0.0
2017/09/28 00:30:00.000   45.709765795   13.763505855   324.3674   5   6   3.8268   2.8682  14.0891  -2.2487   4.5627  -5.5866   0.00    0.0
2017/09/28 00:30:30.000   45.709766224   13.763502100   323.4734   5   6   3.8379   2.8918  14.0899  -2.2817   4.6171  -5.6246   0.00    0.0
2017/09/28 00:31:00.000   45.709770296   13.763504375   323.3619   5   6   3.8491   2.9158  14.0875  -2.3145   4.6705  -5.6614   0.00    0.0
2017/09/28 00:31:30.000   45.709770075   13.763500926   322.8911   5   6   3.8605   2.9401  14.0819  -2.3473   4.7229  -5.6970   0.00    0.0
2017/09/28 00:32:00.000   45.709765308   13.763509568   325.4907   5   6   3.8719   2.9648  14.0732  -2.3801   4.7742  -5.7314   0.00    0.0
2017/09/28 00:32:30.000   45.709766668   13.763502821   325.1575   5   6   3.8835   2.9897  14.0615  -2.4126   4.8244  -5.7646   0.00    0.0
2017/09/28 00:33:00.000   45.709768206   13.763505140   322.7875   5   6   3.8951   3.0150  14.0469  -2.4451   4.8736  -5.7964   0.00    0.0
2017/09/28 00:33:30.000   45.709766751   13.763508441   326.4783   5   6   3.9067   3.0405  14.0295  -2.4774   4.9217  -5.8271   0.00    0.0
2017/09/28 00:34:00.000   45.709770982   13.763499729   323.7896   5   6   3.9184   3.0663  14.0092  -2.5096   4.9687  -5.8565   0.00    0.0
2017/09/28 00:34:30.000   45.709769055   13.763506020   324.0545   5   6   3.9301   3.0924  13.9863  -2.5416   5.0146  -5.8846   0.00    0.0
2017/09/28 00:35:00.000   45.709768545   13.763501037   322.5380   5   6   3.9418   3.1187  13.9608  -2.5734   5.0594  -5.9115   0.00    0.0
2017/09/28 00:35:30.000   45.709770382   13.763502925   322.9715   5   6   3.9535   3.1452  13.9328  -2.6050   5.1031  -5.9372   0.00    0.0
2017/09/28 00:36:00.000   45.709766863   13.763503982   323.6819   5   6   3.9652   3.1719  13.9024  -2.6364   5.1458  -5.9616   0.00    0.0
2017/09/28 00:36:30.000   45.709764803   13.763510412   324.7942   5   6   3.9768   3.1988  13.8696  -2.6676   5.1873  -5.9848   0.00    0.0
2017/09/28 00:37:00.000   45.709768294   13.763500877   323.4107   5   6   3.9883   3.2260  13.8346  -2.6986   5.2278  -6.0068   0.00    0.0
2017/09/28 00:37:30.000   45.709765762   13.763504749   323.6473   5   6   3.9998   3.2532  13.7975  -2.7294   5.2673  -6.0277   0.00    0.0
2017/09/28 00:38:00.000   45.709764507   13.763507015   325.1450   5   6   4.0112   3.2807  13.7584  -2.7599   5.3056  -6.0473   0.00    0.0
2017/09/28 00:38:30.000   45.709771540   13.763506255   322.4581   5   6   4.0225   3.3083  13.7173  -2.7902   5.3430  -6.0658   0.00    0.0
2017/09/28 00:39:00.000   45.709768382   13.763500158   323.7323   5   6   4.0337   3.3360  13.6744  -2.8202   5.3793  -6.0832   0.00    0.0
2017/09/28 00:39:30.000   45.709768935   13.763498039   320.9850   5   6   4.0447   3.3639  13.6297  -2.8500   5.4146  -6.0994   0.00    0.0
2017/09/28 00:40:00.000   45.709764785   13.763504259   322.7817   5   6   4.0556   3.3918  13.5833  -2.8795   5.4489  -6.1146   0.00    0.0
2017/09/28 00:40:30.000   45.709764627   13.763511611   324.6501   5   6   4.0664   3.4199  13.5353  -2.9088   5.4821  -6.1286   0.00    0.0
2017/09/28 00:41:00.000   45.709763927   13.763504378   323.1336   5   6   4.0771   3.4481  13.4859  -2.9377   5.5145  -6.1417   0.00    0.0
2017/09/28 00:41:30.000   45.709763744   13.763508496   324.1553   5   6   4.0876   3.4764  13.4350  -2.9664   5.5458  -6.1536   0.00    0.0
2017/09/28 00:42:00.000   45.709761722   13.763504207   323.4949   5   6   4.0979   3.5047  13.3828  -2.9949   5.5762  -6.1646   0.00    0.0
2017/09/28 00:42:30.000   45.709764349   13.763509623   324.3538   5   6   4.1080   3.5331  13.3294  -3.0230   5.6057  -6.1746   0.00    0.0
2017/09/28 00:43:00.000   45.709759863   13.763513961   325.3970   5   6   4.1180   3.5616  13.2748  -3.0509   5.6343  -6.1836   0.00    0.0
2017/09/28 00:43:30.000   45.709767218   13.763503939   322.5379   5   6   4.1278   3.5901  13.2191  -3.0784   5.6619  -6.1917   0.00    0.0
2017/09/28 00:44:00.000   45.709762909   13.763511592   324.3134   5   6   4.1375   3.6186  13.1623  -3.1057   5.6887  -6.1989   0.00    0.0
2017/09/28 00:44:30.000   45.709765610   13.763512399   323.9009   5   6   4.1469   3.6472  13.1046  -3.1327   5.7147  -6.2052   0.00    0.0
2017/09/28 00:45:00.000   45.709762935   13.763509179   323.2488   5   6   4.1561   3.6758  13.0461  -3.1594   5.7397  -6.2106   0.00    0.0
2017/09/28 00:45:30.000   45.709761816   13.763510812   323.4424   5   6   4.1652   3.7045  12.9867  -3.1858   5.7640  -6.2151   0.00    0.0
2017/09/28 00:46:00.000   45.709766366   13.763503846   321.8651   5   6   4.1740   3.7331  12.9265  -3.2119   5.7874  -6.2188   0.00    0.0
2017/09/28 00:46:30.000   45.709770331   13.763496376   320.3254   5   6   4.1827   3.7618  12.8657  -3.2377   5.8101  -6.2217   0.00    0.0
2017/09/28 00:47:00.000   45.709764697   13.763508646   323.1789   5   6   4.1911   3.7904  12.8042  -3.2632   5.8319  -6.2239   0.00    0.0
2017/09/28 00:47:30.000   45.709769463   13.763502244   321.9010   5   6   4.1993   3.8191  12.7421  -3.2884   5.8530  -6.2252   0.00    0.0
2017/09/28 00:48:00.000   45.709766428   13.763505113   323.6695   5   6   4.2073   3.8477  12.6795  -3.3133   5.8734  -6.2258   0.00    0.0
2017/09/28 00:48:30.000   45.709762203   13.763514359   324.2019   5   6   4.2151   3.8763  12.6163  -3.3379   5.8930  -6.2257   0.00    0.0
2017/09/28 00:49:00.000   45.709765417   13.763505531   322.7055   5   6   4.2227   3.9049  12.5528  -3.3622   5.9118  -6.2248   0.00    0.0
2017/09/28 00:49:30.000   45.709768456   13.763505683   322.7316   5   6   4.2300   3.9335  12.4888  -3.3862   5.9300  -6.2233   0.00    0.0
2017/09/28 00:50:00.000   45.709759211   13.763511090   322.7287   5   6   4.2372   3.9620  12.4244  -3.4098   5.9475  -6.2211   0.00    0.0
2017/09/28 00:50:30.000   45.709761656   13.763511409   323.8143   5   6   4.2441   3.9905  12.3598  -3.4332   5.9642  -6.2183   0.00    0.0
2017/09/28 00:51:00.000   45.709764130   13.763508386   323.7200   5   6   4.2508   4.0189  12.2948  -3.4563   5.9804  -6.2148   0.00    0.0
2017/09/28 00:51:30.000   45.709766794   13.763504854   322.4845   5   6   4.2572   4.0473  12.2296  -3.4791   5.9958  -6.2106   0.00    0.0
2017/09/28 00:52:00.000   45.709765161   13.763513690   323.3390   5   6   4.2635   4.0756  12.1642  -3.5015   6.0106  -6.2059   0.00    0.0
2017/09/28 00:52:30.000   45.709760832   13.763513333   324.6471   5   6   4.2695   4.1039  12.0986  -3.5237   6.0247  -6.2005   0.00    0.0
2017/09/28 00:53:00.000   45.709767716   13.763506987   322.5603   5   6   4.2752   4.1321  12.0328  -3.5455   6.0383  -6.1946   0.00    0.0
2017/09/28 00:53:30.000   45.709762246   13.763505681   321.6387   5   6   4.2808   4.1602  11.9669  -3.5670   6.0512  -6.1881   0.00    0.0
2017/09/28 00:54:00.000   45.709759501   13.763510158   321.6465   5   6   4.2861   4.1882  11.9008  -3.5883   6.0635  -6.1811   0.00    0.0
2017/09/28 00:54:30.000   45.709762682   13.763510826   323.7026   5   6   4.2912   4.2162  11.8347  -3.6092   6.0752  -6.1735   0.00    0.0
2017/09/28 00:55:00.000   45.709766397   13.763507725   322.2927   5   6   4.2960   4.2440  11.7685  -3.6298   6.0863  -6.1654   0.00    0.0
2017/09/28 00:55:30.000   45.709765767   13.763504481   322.0690   5   6   4.3006   4.2718  11.7023  -3.6501   6.0968  -6.1568   0.00    0.0
2017/09/28 00:56:00.000   45.709764865   13.763510231   323.6585   5   6   4.3050   4.2995  11.6360  -3.6700   6.1068  -6.1476   0.00    0.0
2017/09/28 00:56:30.000   45.709765564   13.763504124   323.4073   5   6   4.3091   4.3270  11.5698  -3.6897   6.1161  -6.1380   0.00    0.0
2017/09/28 00:57:00.000   45.709760523   13.763517329   325.0809   5   6   4.3130   4.3545  11.5035  -3.7090   6.1250  -6.1279   0.00    0.0
2017/09/28 00:57:30.000   45.709758537   13.763515641   324.6932   5   7   3.1940   2.4667   6.0909  -1.8391   1.5994  -3.0513   0.00    0.0
2017/09/28 00:58:00.000   45.709757034   13.763516579   324.4429   5   7   3.1917   2.4717   6.0763  -1.8463   1.6185  -3.0501   0.00    0.0
2017/09/28 00:58:30.000   45.709760649   13.763514910   323.7193   5   7   3.1895   2.4768   6.0616  -1.8534   1.6372  -3.0487   0.00    0.0
2017/09/28 00:59:00.000   45.709757271   13.763513710   324.1355   5   7   3.1872   2.4819   6.0469  -1.8605   1.6556  -3.0472   0.00    0.0
2017/09/28 00:59:30.000   45.709755684   13.763517803   324.8013   5   7   3.1850   2.4871   6.0321  -1.8676   1.6736  -3.0455   0.00    0.0
2017/09/28 01:00:00.000   45.709761061   13.763523207   322.4166   5   7   3.1827   2.4923   6.0172  -1.8745   1.6913  -3.0437   0.00    0.0
2017/09/28 01:00:30.000   45.709761016   13.763523066   322.4744   5   7   3.1805   2.4975   6.0023  -1.8814   1.7086  -3.0417   0.00    0.0
2017/09/28 01:01:00.000   45.709761854   13.763517202   321.4123   5   7   3.1782   2.5028   5.9873  -1.8883   1.7256  -3.0396   0.00    0.0
2017/09/28 01:01:30.000   45.709757834   13.763522206   322.1809   5   7   3.1759   2.5081   5.9722  -1.8950   1.7423  -3.0373   0.00    0.0
2017/09/28 01:02:00.000   45.709758272   13.763518498   322.1446   5   7   3.1736   2.5135   5.9571  -1.9017   1.7586  -3.0349   0.00    0.0
2017/09/28 01:02:30.000   45.709763425   13.763518143   321.8677   5   7   3.1713   2.5189   5.9419  -1.9083   1.7747  -3.0323   0.00    0.0
2017/09/28 01:03:00.000   45.709764320   13.763519520   322.9848   5   7   3.1690   2.5243   5.9266  -1.9149   1.7903  -3.0295   0.00    0.0
2017/09/28 01:03:30.000   45.709761133   13.763513699   322.3506   5   7   3.1667   2.5298   5.9113  -1.9213   1.8057  -3.0266   0.00    0.0
2017/09/28 01:04:00.000   45.709765202   13.763517924   321.8995   5   7   3.1643   2.5353   5.8959  -1.9277   1.8208  -3.0235   0.00    0.0
2017/09/28 01:04:30.000   45.709761413   13.763518216   322.0882   5   7   3.1620   2.5409   5.8805  -1.9340   1.8355  -3.0203   0.00    0.0
2017/09/28 01:05:00.000   45.709762149   13.763520347   321.8132   5   7   3.1596   2.5464   5.8650  -1.9402   1.8499  -3.0169   0.00    0.0
2017/09/28 01:05:30.000   45.709768342   13.763511533   321.3720   5   7   3.1572   2.5520   5.8494  -1.9464   1.8640  -3.0133   0.00    0.0
2017/09/28 01:06:00.000   45.709764643   13.763519549   321.1193   5   7   3.1548   2.5577   5.8338  -1.9525   1.8778  -3.0095   0.00    0.0
2017/09/28 01:06:30.000   45.709760071   13.763518747   322.2893   5   7   3.1524   2.5633   5.8181  -1.9584   1.8913  -3.0056   0.00    0.0
2017/09/28 01:07:00.000   45.709762199   13.763520452   322.0524   5   7   3.1499   2.5690   5.8024  -1.9643   1.9045  -3.0016   0.00    0.0
2017/09/28 01:07:30.000   45.709767146   13.763513524   321.2024   5   7   3.1475   2.5747   5.7866  -1.9702   1.9174  -2.9973   0.00    0.0
2017/09/28 01:08:00.000   45.709759681   13.763524396   321.9272   5   7   3.1450   2.5804   5.7708  -1.9759   1.9299  -2.9929   0.00    0.0
2017/09/28 01:08:30.000   45.709758680   13.763522287   321.5539   5   7   3.1425   2.5862   5.7549  -1.9815   1.9422  -2.9883   0.00    0.0
2017/09/28 01:09:00.000   45.709758842   13.763520454   323.2320   5   7   3.1400   2.5920   5.7390  -1.9871   1.9542  -2.9836   0.00    0.0
2017/09/28 01:09:30.000   45.709766812   13.763516496   322.5844   5   7   3.1375   2.5977   5.7230  -1.9926   1.9659  -2.9787   0.00    0.0
2017/09/28 01:10:00.000   45.709768521   13.763514747   322.3493   5   7   3.1350   2.6035   5.7070  -1.9980   1.9773  -2.9736   0.00    0.0
2017/09/28 01:10:30.000   45.709759467   13.763523812   322.0480   5   6   3.9609   3.0511   6.0163  -2.8012   0.9312  -2.0198   0.00    0.0
2017/09/28 01:11:00.000   45.709762917   13.763518502   322.3466   5   6   3.9515   3.0530   6.0020  -2.7989   0.9581  -2.0162   0.00    0.0
2017/09/28 01:11:30.000   45.709759927   13.763517920   322.2711   5   6   3.9420   3.0548   5.9875  -2.7965   0.9842  -2.0124   0.00    0.0
2017/09/28 01:12:00.000   45.709764683   13.763524233   322.0450   5   6   3.9325   3.0565   5.9729  -2.7940   1.0095  -2.0087   0.00    0.0
2017/09/28 01:12:30.000   45.709764420   13.763519809   321.1867   5   6   3.9229   3.0582   5.9583  -2.7913   1.0341  -2.0049   0.00    0.0
2017/09/28 01:13:00.000   45.709761165   13.763523533   323.1906   5   6   3.9133   3.0598   5.9435  -2.7884   1.0580  -2.0010   0.00    0.0
2017/09/28 01:13:30.000   45.709762804   13.763519375   322.0356   5   6   3.9036   3.0613   5.9287  -2.7855   1.0813  -1.9971   0.00    0.0
2017/09/28 01:14:00.000   45.709761117   13.763519926   322.0484   5   6   3.8938   3.0628   5.9139  -2.7823   1.1039  -1.9931   0.00    0.0
2017/09/28 01:14:30.000   45.709769406   13.763511503   321.3101   5   6   3.8840   3.0642   5.8989  -2.7791   1.1260  -1.9890   0.00    0.0
2017/09/28 01:15:00.000   45.709764131   13.763518184   322.4492   5   6   3.8741   3.0655   5.8839  -2.7757   1.1475  -1.9849   0.00    0.0
2017/09/28 01:15:30.000   45.709761359   13.763519587   322.5714   5   6   3.8642   3.0668   5.8688  -2.7722   1.1684  -1.9807   0.00    0.0
2017/09/28 01:16:00.000   45.709758026   13.763522107   322.5870   5   6   3.8543   3.0680   5.8537  -2.7685   1.1889  -1.9764   0.00    0.0
2017/09/28 01:16:30.000   45.709760037   13.763520741   322.1350   5   6   3.8443   3.0692   5.8385  -2.7648   1.2088  -1.9721   0.00    0.0
2017/09/28 01:17:00.000   45.709763659   13.763519697   322.3649   5   6   3.8342   3.0703   5.8232  -2.7609   1.2283  -1.9677   0.00    0.0
2017/09/28 01:17:30.000   45.709763511   13.763519629   322.0927   5   6   3.8242   3.0713   5.8079  -2.7568   1.2473  -1.9631   0.00    0.0
2017/09/28 01:18:00.000   45.709767573   13.763515013   320.7644   5   6   3.8140   3.0723   5.7926  -2.7527   1.2658  -1.9585   0.00    0.0
2017/09/28 01:18:30.000   45.709761449   13.763520059   322.4264   5   6   3.8039   3.0733   5.7772  -2.7485   1.2840  -1.9539   0.00    0.0
2017/09/28 01:19:00.000   45.709759545   13.763516481   322.5083   5   6   3.7937   3.0742   5.7617  -2.7441   1.3017  -1.9491   0.00    0.0
2017/09/28 01:19:30.000   45.709762817   13.763516659   322.2574   5   6   3.7835   3.0751   5.7463  -2.7396   1.3189  -1.9442   0.00    0.0
2017/09/28 01:20:00.000   45.709760570   13.763525106   322.5686   5   6   3.7733   3.0759   5.7308  -2.7350   1.3358  -1.9393   0.00    0.0
2017/09/28 01:20:30.000   45.709758577   13.763518822   322.1659   5   6   3.7630   3.0766   5.7153  -2.7304   1.3524  -1.9342   0.00    0.0
2017/09/28 01:21:00.000   45.709760134   13.763522789   323.4739   5   6   3.7528   3.0774   5.6997  -2.7256   1.3685  -1.9291   0.00    0.0
2017/09/28 01:21:30.000   45.709759816   13.763523912   322.2591   5   6   3.7425   3.0781   5.6841  -2.7207   1.3843  -1.9239   0.00    0.0
2017/09/28 01:22:00.000   45.709761060   13.763520836   321.8652   5   6   3.7322   3.0787   5.6686  -2.7157   1.3997  -1.9185   0.00    0.0
2017/09/28 01:22:30.000   45.709762777   13.763521559   322.0832   5   6   3.7219   3.0793   5.6530  -2.7106   1.4148  -1.9131   0.00    0.0
2017/09/28 01:23:00.000   45.709762187   13.763525615   322.1325   5   6   3.7115   3.0799   5.6374  -2.7054   1.4295  -1.9076   0.00    0.0
2017/09/28 01:23:30.000   45.709764864   13.763516351   322.3806   5   6   3.7012   3.0805   5.6217  -2.7001   1.4439  -1.9020   0.00    0.0
2017/09/28 01:24:00.000   45.709765670   13.763518150   322.0766   5   6   3.6909   3.0810   5.6061  -2.6947   1.4580  -1.8963   0.00    0.0
2017/09/28 01:24:30.000   45.709763718   13.763518506   320.9765   5   6   3.6806   3.0815   5.5905  -2.6893   1.4718  -1.8905   0.00    0.0
2017/09/28 01:25:00.000   45.709760087   13.763526784   323.0577   5   6   3.6702   3.0819   5.5749  -2.6837   1.4852  -1.8846   0.00    0.0
2017/09/28 01:25:30.000   45.709761194   13.763522743   322.6455   5   6   3.6599   3.0824   5.5593  -2.6781   1.4984  -1.8786   0.00    0.0
2017/09/28 01:26:00.000   45.709758876   13.763516235   322.2392   5   6   3.6496   3.0828   5.5437  -2.6724   1.5113  -1.8725   0.00    0.0
2017/09/28 01:26:30.000   45.709758184   13.763526330   322.4601   5   6   3.6393   3.0832   5.5281  -2.6666   1.5239  -1.8663   0.00    0.0
2017/09/28 01:27:00.000   45.709764569   13.763515668   321.9291   5   7   2.7062   2.4648   4.8508  -1.6123  -1.5787   1.6949   0.00    0.0
2017/09/28 01:27:30.000   45.709765491   13.763515987   322.1638   5   7   2.7008   2.4621   4.8419  -1.6049  -1.5606   1.6829   0.00    0.0
2017/09/28 01:28:00.000   45.709763615   13.763518355   321.9414   5   8   2.4983   1.9891   4.2952  -1.0429   0.9093   0.7409   0.00    0.0
2017/09/28 01:28:30.000   45.709761379   13.763519389   321.9650   5   8   2.4963   1.9889   4.2966  -1.0396   0.9181   0.7420   0.00    0.0
2017/09/28 01:29:00.000   45.709769909   13.763513403   320.6964   5   8   2.4943   1.9886   4.2979  -1.0363   0.9269   0.7431   0.00    0.0
2017/09/28 01:29:30.000   45.709765246   13.763519380   321.3489   5   8   2.4925   1.9884   4.2992  -1.0330   0.9355   0.7443   0.00    0.0
2017/09/28 01:30:00.000   45.709766286   13.763514805   321.4256   5   8   2.4907   1.9883   4.3004  -1.0297   0.9441   0.7455   0.00    0.0
2017/09/28 01:30:30.000   45.709766094   13.763518610   321.4554   5   8   2.4889   1.9882   4.3015  -1.0265   0.9526   0.7467   0.00    0.0
2017/09/28 01:31:00.000   45.709767723   13.763511995   321.6766   5   8   2.4873   1.9881   4.3026  -1.0233   0.9610   0.7479   0.00    0.0
2017/09/28 01:31:30.000   45.709768108   13.763515032   321.6349   5   8   2.4857   1.9880   4.3036  -1.0201   0.9694   0.7492   0.00    0.0
2017/09/28 01:32:00.000   45.709767064   13.763519660   321.7310   5   8   2.4842   1.9880   4.3046  -1.0169   0.9776   0.7505   0.00    0.0
2017/09/28 01:32:30.000   45.709763960   13.763518730   321.7798   5   8   2.4828   1.9880   4.3054  -1.0137   0.9858   0.7519   0.00    0.0
2017/09/28 01:33:00.000   45.709767166   13.763516175   321.1469   5   8   2.4814   1.9881   4.3062  -1.0105   0.9939   0.7533   0.00    0.0
2017/09/28 01:33:30.000   45.709770008   13.763514555   321.4066   5   8   2.4801   1.9882   4.3070  -1.0074   1.0019   0.7548   0.00    0.0
2017/09/28 01:34:00.000   45.709768335   13.763522245   322.6017   5   8   2.4789   1.9883   4.3076  -1.0043   1.0099   0.7563   0.00    0.0
2017/09/28 01:34:30.000   45.709765715   13.763517346   321.8085   5   8   2.4777   1.9885   4.3082  -1.0011   1.0177   0.7579   0.00    0.0
2017/09/28 01:35:00.000   45.709766715   13.763520069   322.8112   5   8   2.4767   1.9886   4.3087  -0.9980   1.0255   0.7595   0.00    0.0
2017/09/28 01:35:30.000   45.709768771   13.763520377   321.7559   5   8   2.4756   1.9889   4.3091  -0.9949   1.0332   0.7612   0.00    0.0
2017/09/28 01:36:00.000   45.709763014   13.763520835   322.0326   5   8   2.4747   1.9891   4.3094  -0.9918   1.0409   0.7629   0.00    0.0
2017/09/28 01:36:30.000   45.709758786   13.763524917   322.0003   5   8   2.4738   1.9894   4.3097  -0.9888   1.0484   0.7647   0.00    0.0
2017/09/28 01:37:00.000   45.709762603   13.763522355   322.2590   5   8   2.4730   1.9897   4.3099  -0.9857   1.0559   0.7665   0.00    0.0
2017/09/28 01:37:30.000   45.709763605   13.763517716   322.2597   5   8   2.4723   1.9901   4.3100  -0.9826   1.0633   0.7684   0.00    0.0
2017/09/28 01:38:00.000   45.709765765   13.763519050   322.4466   5   8   2.4716   1.9905   4.3100  -0.9796   1.0707   0.7704   0.00    0.0
2017/09/28 01:38:30.000   45.709762005   13.763519698   321.9896   5   8   2.4710   1.9909   4.3100  -0.9765   1.0780   0.7724   0.00    0.0
2017/09/28 01:39:00.000   45.709763981   13.763515692   321.3306   5   8   2.4704   1.9914   4.3099  -0.9735   1.0852   0.7745   0.00    0.0
2017/09/28 01:39:30.000   45.709765519   13.763510565   320.5041   5   8   2.4700   1.9918   4.3097  -0.9705   1.0923   0.7766   0.00    0.0
2017/09/28 01:40:00.000   45.709766980   13.763512471   321.9664   5   8   2.4696   1.9924   4.3094  -0.9674   1.0993   0.7789   0.00    0.0
2017/09/28 01:40:30.000   45.709766214   13.763516967   321.8355   5   8   2.4692   1.9929   4.3090  -0.9644   1.1063   0.7811   0.00    0.0
2017/09/28 01:41:00.000   45.709762977   13.763518835   321.7213   5   8   2.4689   1.9935   4.3086  -0.9614   1.1133   0.7835   0.00    0.0
2017/09/28 01:41:30.000   45.709765236   13.763514198   321.7890   5   8   2.4687   1.9941   4.3081  -0.9584   1.1201   0.7859   0.00    0.0
2017/09/28 01:42:00.000   45.709761052   13.763519382   321.7666   5   8   2.4686   1.9947   4.3075  -0.9553   1.1269   0.7884   0.00    0.0
2017/09/28 01:42:30.000   45.709766673   13.763522054   321.4397   5   8   2.4685   1.9954   4.3068  -0.9523   1.1336   0.7909   0.00    0.0
2017/09/28 01:43:00.000   45.709765428   13.763520127   321.6082   5   8   2.4685   1.9961   4.3061  -0.9493   1.1402   0.7935   0.00    0.0
2017/09/28 01:43:30.000   45.709764596   13.763515634   321.6214   5   8   2.4685   1.9968   4.3053  -0.9463   1.1468   0.7962   0.00    0.0
2017/09/28 01:44:00.000   45.709764274   13.763517634   321.7909   5   8   2.4686   1.9976   4.3044  -0.9433   1.1533   0.7990   0.00    0.0
2017/09/28 01:44:30.000   45.709762389   13.763517510   321.9146   5   8   2.4688   1.9984   4.3035  -0.9403   1.1598   0.8018   0.00    0.0
2017/09/28 01:45:00.000   45.709764240   13.763519427   320.9872   5   8   2.4691   1.9992   4.3024  -0.9372   1.1662   0.8047   0.00    0.0
2017/09/28 01:45:30.000   45.709764822   13.763512467   321.7110   5   8   2.4694   2.0001   4.3014  -0.9342   1.1725   0.8077   0.00    0.0
2017/09/28 01:46:00.000   45.709760896   13.763521036   321.4982   5   8   2.4697   2.0010   4.3002  -0.9312   1.1788   0.8107   0.00    0.0
2017/09/28 01:46:30.000   45.709763163   13.763522597   321.9535   5   8   2.4702   2.0019   4.2990  -0.9282   1.1849   0.8138   0.00    0.0
2017/09/28 01:47:00.000   45.709768504   13.763519467   321.9553   5   8   2.4707   2.0028   4.2977  -0.9252   1.1911   0.8170   0.00    0.0
2017/09/28 01:47:30.000   45.709769829   13.763516973   321.3389   5   8   2.4713   2.0038   4.2964  -0.9221   1.1971   0.8202   0.00    0.0
2017/09/28 01:48:00.000   45.709764440   13.763517659   321.5939   5   8   2.4719   2.0048   4.2950  -0.9191   1.2032   0.8236   0.00    0.0
2017/09/28 01:48:30.000   45.709763548   13.763519688   321.5601   5   8   2.4726   2.0059   4.2936  -0.9161   1.2091   0.8270   0.00    0.0
2017/09/28 01:49:00.000   45.709762930   13.763513649   321.0629   5   8   2.4734   2.0069   4.2921  -0.9130   1.2150   0.8304   0.00    0.0
2017/09/28 01:49:30.000   45.709763679   13.763516877   321.4370   5   8   2.4742   2.0080   4.2905  -0.9099   1.2208   0.8340   0.00    0.0
2017/09/28 01:50:00.000   45.709761670   13.763519456   321.3714   5   8   2.4751   2.0091   4.2889  -0.9069   1.2266   0.8376   0.00    0.0
2017/09/28 01:50:30.000   45.709760111   13.763518471   321.9464   5   8   2.4761   2.0103   4.2873  -0.9038   1.2323   0.8413   0.00    0.0
2017/09/28 01:51:00.000   45.709759474   13.763516026   321.5696   5   8   2.4772   2.0115   4.2856  -0.9007   1.2380   0.8451   0.00    0.0
2017/09/28 01:51:30.000   45.709762770   13.763520232   321.3911   5   9   2.2252   1.9149   4.1210  -0.3603   1.5071  -0.7456   0.00    0.0
2017/09/28 01:52:00.000   45.709766299   13.763519235   321.8976   5   9   2.2260   1.9157   4.1222  -0.3490   1.5102  -0.7342   0.00    0.0
2017/09/28 01:52:30.000   45.709763480   13.763520035   321.5867   5   9   2.2269   1.9165   4.1233  -0.3373   1.5132  -0.7224   0.00    0.0
2017/09/28 01:53:00.000   45.709764427   13.763515902   321.3969   5   9   2.2278   1.9173   4.1243  -0.3252   1.5161  -0.7102   0.00    0.0
2017/09/28 01:53:30.000   45.709765788   13.763516910   321.6535   5   9   2.2289   1.9182   4.1253  -0.3126   1.5191  -0.6977   0.00    0.0
2017/09/28 01:54:00.000   45.709765164   13.763516261   321.3900   5   8   2.5486   1.9623   4.4046   0.6451   1.2980  -1.5396   0.00    0.0
2017/09/28 01:54:30.000   45.709762561   13.763510247   321.9332   5   8   2.5489   1.9625   4.4091   0.6478   1.3016  -1.5371   0.00    0.0
2017/09/28 01:55:00.000   45.709760107   13.763513996   322.6487   5   8   2.5491   1.9628   4.4135   0.6504   1.3052  -1.5343   0.00    0.0
2017/09/28 01:55:30.000   45.709761489   13.763510139   322.0223   5   8   2.5495   1.9630   4.4179   0.6531   1.3088  -1.5313   0.00    0.0
2017/09/28 01:56:00.000   45.709763208   13.763515443   322.3339   5   8   2.5498   1.9633   4.4222   0.6558   1.3125  -1.5282   0.00    0.0
2017/09/28 01:56:30.000   45.709760933   13.763516058   322.2102   5   8   2.5502   1.9636   4.4263   0.6584   1.3161  -1.5248   0.00    0.0
2017/09/28 01:57:00.000   45.709759402   13.763517768   322.3701   5   8   2.5507   1.9640   4.4305   0.6611   1.3197  -1.5213   0.00    0.0
2017/09/28 01:57:30.000   45.709760216   13.763512887   322.5525   5   8   2.5511   1.9643   4.4345   0.6638   1.3234  -1.5175   0.00    0.0
2017/09/28 01:58:00.000   45.709758317   13.763517800   322.1464   5   8   2.5517   1.9648   4.4385   0.6665   1.3270  -1.5136   0.00    0.0
2017/09/28 01:58:30.000   45.709768420   13.763518693   322.6525   5   7   3.4731   2.0952   4.9186   1.4695   1.8180   1.6417   0.00    0.0
2017/09/28 01:59:00.000   45.709765165   13.763521024   322.6448   5   7   3.4762   2.0979   4.9391   1.4769   1.8323   1.6763   0.00    0.0
2017/09/28 01:59:30.000   45.709766991   13.763516011   322.3972   5   7   3.4796   2.1006   4.9599   1.4843   1.8466   1.7107   0.00    0.0
2017/09/28 02:00:00.000   45.709764541   13.763516703   324.2720   5   7   3.4830   2.1034   4.9809   1.4917   1.8611   1.7449   0.00    0.0
2017/09/28 02:00:30.000   45.709764588   13.763523109   324.5438   5   7   3.4865   2.1062   5.0021   1.4992   1.8756   1.7789   0.00    0.0
2017/09/28 02:01:00.000   45.709766307   13.763520643   324.4341   5   7   3.4902   2.1090   5.0236   1.5067   1.8903   1.8128   0.00    0.0
2017/09/28 02:01:30.000   45.709763259   13.763523477   324.0347   5   7   3.4940   2.1119   5.0454   1.5142   1.9050   1.8465   0.00    0.0
2017/09/28 02:02:00.000   45.709772149   13.763521511   324.3292   5   7   3.4979   2.1149   5.0674   1.5218   1.9198   1.8800   0.00    0.0
2017/09/28 02:02:30.000   45.709765144   13.763523935   323.9242   5   7   3.5020   2.1179   5.0897   1.5295   1.9347   1.9134   0.00    0.0
2017/09/28 02:03:00.000   45.709766055   13.763523694   324.7865   5   7   3.5061   2.1210   5.1123   1.5371   1.9497   1.9467   0.00    0.0
2017/09/28 02:03:30.000   45.709765477   13.763520421   324.2590   5   7   3.5104   2.1241   5.1351   1.5448   1.9647   1.9799   0.00    0.0
2017/09/28 02:04:00.000   45.709765458   13.763521325   323.9997   5   7   3.5148   2.1272   5.1581   1.5526   1.9798   2.0129   0.00    0.0
2017/09/28 02:04:30.000   45.709763501   13.763523557   324.7556   5   7   3.5193   2.1304   5.1814   1.5603   1.9950   2.0458   0.00    0.0
2017/09/28 02:05:00.000   45.709764321   13.763521761   324.2715   5   7   3.5239   2.1336   5.2049   1.5681   2.0103   2.0786   0.00    0.0
2017/09/28 02:05:30.000   45.709763476   13.763520630   324.4606   5   7   3.5287   2.1369   5.2286   1.5760   2.0256   2.1112   0.00    0.0
2017/09/28 02:06:00.000   45.709764154   13.763518547   323.9886   5   7   3.5335   2.1403   5.2526   1.5838   2.0410   2.1438   0.00    0.0
2017/09/28 02:06:30.000   45.709761195   13.763519809   323.6397   5   7   3.5385   2.1436   5.2768   1.5917   2.0565   2.1762   0.00    0.0
2017/09/28 02:07:00.000   45.709764496   13.763521236   324.7483   5   7   3.5436   2.1470   5.3013   1.5996   2.0720   2.2085   0.00    0.0
2017/09/28 02:07:30.000   45.709765116   13.763512083   323.9646   5   8   3.4252   2.0520   4.8764   1.7836   1.7263   2.6474   0.00    0.0
2017/09/28 02:08:00.000   45.709762514   13.763519496   323.5803   5   8   3.4339   2.0536   4.9005   1.7902   1.7399   2.6710   0.00    0.0
2017/09/28 02:08:30.000   45.709765398   13.763521637   324.0634   5   8   3.4427   2.0553   4.9248   1.7969   1.7534   2.6945   0.00    0.0
2017/09/28 02:09:00.000   45.709767879   13.763522299   324.6069   5   8   3.4515   2.0569   4.9492   1.8034   1.7670   2.7181   0.00    0.0
2017/09/28 02:09:30.000   45.709768071   13.763521832   323.9529   5   8   3.4604   2.0585   4.9738   1.8100   1.7805   2.7417   0.00    0.0
2017/09/28 02:10:00.000   45.709769583   13.763526500   324.1190   5   8   3.4694   2.0602   4.9986   1.8165   1.7941   2.7654   0.00    0.0
2017/09/28 02:10:30.000   45.709767512   13.763525866   324.9516   5   8   3.4784   2.0618   5.0235   1.8230   1.8076   2.7890   0.00    0.0
2017/09/28 02:11:00.000   45.709763955   13.763522953   324.3545   5   8   3.4874   2.0634   5.0485   1.8294   1.8211   2.8125   0.00    0.0
2017/09/28 02:11:30.000   45.709758793   13.763521090   323.6165   5   8   3.4965   2.0650   5.0737   1.8358   1.8345   2.8361   0.00    0.0
2017/09/28 02:12:00.000   45.709773832   13.763529420   324.9090   5   8   3.5056   2.0667   5.0989   1.8422   1.8479   2.8596   0.00    0.0
2017/09/28 02:12:30.000   45.709760686   13.763522081   323.7466   5   9   2.3241   1.7989   4.1783   0.8519   0.6608   0.7004   0.00    0.0
2017/09/28 02:13:00.000   45.709761139   13.763517114   323.3512   5   9   2.3225   1.7978   4.1918   0.8493   0.6675   0.7209   0.00    0.0
2017/09/28 02:13:30.000   45.709757767   13.763522821   322.7664   5   9   2.3211   1.7968   4.2054   0.8468   0.6742   0.7412   0.00    0.0
2017/09/28 02:14:00.000   45.709760275   13.763525466   323.6040   5   9   2.3197   1.7957   4.2190   0.8442   0.6810   0.7613   0.00    0.0
2017/09/28 02:14:30.000   45.709760184   13.763522761   323.2948   5   9   2.3184   1.7947   4.2328   0.8417   0.6878   0.7812   0.00    0.0
2017/09/28 02:15:00.000   45.709763880   13.763517937   322.5582   5   9   2.3172   1.7937   4.2467   0.8391   0.6947   0.8008   0.00    0.0
2017/09/28 02:15:30.000   45.709760348   13.763518976   324.3928   5   9   2.3161   1.7927   4.2606   0.8365   0.7016   0.8203   0.00    0.0
2017/09/28 02:16:00.000   45.709762050   13.763521308   324.0816   5   9   2.3151   1.7918   4.2746   0.8340   0.7086   0.8396   0.00    0.0
2017/09/28 02:16:30.000   45.709757942   13.763520689   323.9600   5   9   2.3141   1.7908   4.2887   0.8314   0.7155   0.8588   0.00    0.0
2017/09/28 02:17:00.000   45.709763743   13.763522803   324.1735   5   9   2.3133   1.7899   4.3029   0.8288   0.7225   0.8778   0.00    0.0
2017/09/28 02:17:30.000   45.709763607   13.763516824   322.9751   5   9   2.3125   1.7890   4.3172   0.8263   0.7296   0.8967   0.00    0.0
2017/09/28 02:18:00.000   45.709759272   13.763524767   322.9246   5   9   2.3118   1.7881   4.3315   0.8237   0.7366   0.9154   0.00    0.0
2017/09/28 02:18:30.000   45.709753805   13.763518711   322.7459   5   9   2.3112   1.7872   4.3460   0.8211   0.7437   0.9340   0.00    0.0
2017/09/28 02:19:00.000   45.709758528   13.763522391   323.1579   5   9   2.3107   1.7863   4.3604   0.8186   0.7508   0.9524   0.00    0.0
2017/09/28 02:19:30.000   45.709756137   13.763518275   323.6601   5   9   2.3102   1.7855   4.3750   0.8160   0.7579   0.9708   0.00    0.0
2017/09/28 02:20:00.000   45.709759354   13.763518042   323.2558   5   9   2.3099   1.7846   4.3896   0.8134   0.7650   0.9890   0.00    0.0
2017/09/28 02:20:30.000   45.709757363   13.763518977   322.6964   5   9   2.3096   1.7838   4.4043   0.8108   0.7721   1.0071   0.00    0.0
2017/09/28 02:21:00.000   45.709756717   13.763519453   323.4083   5   9   2.3094   1.7830   4.4190   0.8082   0.7792   1.0251   0.00    0.0
2017/09/28 02:21:30.000   45.709759175   13.763519929   323.1780   5   9   2.3093   1.7822   4.4338   0.8056   0.7863   1.0430   0.00    0.0
2017/09/28 02:22:00.000   45.709764933   13.763521192   323.3948   5   9   2.3092   1.7814   4.4486   0.8030   0.7934   1.0608   0.00    0.0
2017/09/28 02:22:30.000   45.709760222   13.763518929   323.0319   5   9   2.3093   1.7807   4.4635   0.8004   0.8005   1.0785   0.00    0.0
2017/09/28 02:23:00.000   45.709753293   13.763519801   322.8183   5   9   2.3094   1.7799   4.4784   0.7978   0.8076   1.0961   0.00    0.0
2017/09/28 02:23:30.000   45.709761308   13.763520495   323.3738   5   9   2.3096   1.7792   4.4934   0.7952   0.8147   1.1136   0.00    0.0
2017/09/28 02:24:00.000   45.709762662   13.763524802   322.9537   5   9   2.3099   1.7785   4.5084   0.7926   0.8218   1.1311   0.00    0.0
2017/09/28 02:24:30.000   45.709759046   13.763521192   322.7928   5   9   2.3103   1.7778   4.5234   0.7900   0.8288   1.1484   0.00    0.0
2017/09/28 02:25:00.000   45.709760585   13.763522089   323.4523   5   9   2.3107   1.7771   4.5385   0.7873   0.8359   1.1656   0.00    0.0
2017/09/28 02:25:30.000   45.709761875   13.763519978   323.2855   5   9   2.3113   1.7765   4.5535   0.7847   0.8429   1.1827   0.00    0.0
2017/09/28 02:26:00.000   45.709759704   13.763522359   323.1793   5   9   2.3119   1.7758   4.5686   0.7820   0.8499   1.1997   0.00    0.0
2017/09/28 02:26:30.000   45.709759215   13.763523163   323.1970   5   9   2.3125   1.7752   4.5837   0.7793   0.8568   1.2166   0.00    0.0
2017/09/28 02:27:00.000   45.709759854   13.763522093   323.0791   5   9   2.3133   1.7746   4.5988   0.7767   0.8637   1.2335   0.00    0.0
2017/09/28 02:27:30.000   45.709765086   13.763518730   323.1832   5   9   2.3141   1.7740   4.6139   0.7740   0.8706   1.2502   0.00    0.0
2017/09/28 02:28:00.000   45.709758199   13.763523755   322.8902   5   9   2.3150   1.7734   4.6290   0.7713   0.8775   1.2669   0.00    0.0
2017/09/28 02:28:30.000   45.709758152   13.763520405   322.9088   5   9   2.3160   1.7728   4.6441   0.7685   0.8843   1.2834   0.00    0.0
2017/09/28 02:29:00.000   45.709757680   13.763523986   323.8209   5   9   2.3171   1.7723   4.6592   0.7658   0.8910   1.2998   0.00    0.0
2017/09/28 02:29:30.000   45.709760293   13.763522252   322.8977   5   9   2.3182   1.7717   4.6742   0.7631   0.8977   1.3162   0.00    0.0
2017/09/28 02:30:00.000   45.709761316   13.763521281   322.9916   5   9   2.3194   1.7712   4.6893   0.7603   0.9044   1.3324   0.00    0.0
2017/09/28 02:30:30.000   45.709754216   13.763524474   322.9238   5   9   2.3207   1.7707   4.7043   0.7575   0.9110   1.3485   0.00    0.0
2017/09/28 02:31:00.000   45.709764994   13.763519708   324.0682   5   9   2.3221   1.7701   4.7193   0.7547   0.9175   1.3646   0.00    0.0
2017/09/28 02:31:30.000   45.709758192   13.763522569   323.8791   5   9   2.3235   1.7697   4.7342   0.7519   0.9240   1.3805   0.00    0.0
2017/09/28 02:32:00.000   45.709761145   13.763522843   323.3296   5   9   2.3250   1.7692   4.7491   0.7490   0.9304   1.3963   0.00    0.0
2017/09/28 02:32:30.000   45.709760308   13.763520472   323.4992   5   9   2.3266   1.7687   4.7639   0.7462   0.9368   1.4120   0.00    0.0
2017/09/28 02:33:00.000   45.709759601   13.763522293   323.1908   5   9   2.3282   1.7683   4.7787   0.7433   0.9431   1.4275   0.00    0.0
2017/09/28 02:33:30.000   45.709760494   13.763520981   322.4020   5   9   2.3299   1.7678   4.7934   0.7404   0.9493   1.4430   0.00    0.0
2017/09/28 02:34:00.000   45.709756438   13.763519624   322.5530   5   9   2.3317   1.7674   4.8080   0.7374   0.9554   1.4583   0.00    0.0
2017/09/28 02:34:30.000   45.709763102   13.763524439   322.5799   5   9   2.3335   1.7670   4.8225   0.7344   0.9615   1.4735   0.00    0.0
2017/09/28 02:35:00.000   45.709756895   13.763523783   322.7224   5   9   2.3354   1.7666   4.8370   0.7314   0.9674   1.4886   0.00    0.0
2017/09/28 02:35:30.000   45.709761427   13.763519862   322.7694   5   9   2.3374   1.7662   4.8514   0.7284   0.9733   1.5035   0.00    0.0
2017/09/28 02:36:00.000   45.709760354   13.763518237   322.7105   5   9   2.3394   1.7658   4.8657   0.7253   0.9791   1.5183   0.00    0.0
2017/09/28 02:36:30.000   45.709759235   13.763519854   323.2153   5   9   2.3415   1.7655   4.8798   0.7222   0.9847   1.5330   0.00    0.0
2017/09/28 02:37:00.000   45.709762001   13.763523632   322.8458   5   9   2.3437   1.7651   4.8939   0.7191   0.9903   1.5475   0.00    0.0
2017/09/28 02:37:30.000   45.709760354   13.763521137   323.2431   5   9   2.3459   1.7648   4.9078   0.7159   0.9958   1.5618   0.00    0.0
2017/09/28 02:38:00.000   45.709757842   13.763522467   322.8770   5   9   2.3482   1.7645   4.9217   0.7127   1.0011   1.5760   0.00    0.0
2017/09/28 02:38:30.000   45.709759759   13.763519545   322.5130   5   9   2.3505   1.7641   4.9353   0.7094   1.0064   1.5901   0.00    0.0
2017/09/28 02:39:00.000   45.709758145   13.763520391   323.1549   5   9   2.3529   1.7638   4.9489   0.7061   1.0115   1.6040   0.00    0.0
2017/09/28 02:39:30.000   45.709761175   13.763522412   322.3990   5   9   2.3553   1.7635   4.9623   0.7027   1.0166   1.6177   0.00    0.0
2017/09/28 02:40:00.000   45.709756909   13.763523066   321.7848   5   9   2.3578   1.7633   4.9755   0.6993   1.0215   1.6312   0.00    0.0
2017/09/28 02:40:30.000   45.709759665   13.763523425   322.8046   5   9   2.3603   1.7630   4.9886   0.6958   1.0262   1.6446   0.00    0.0
2017/09/28 02:41:00.000   45.709757853   13.763524226   323.2894   5   9   2.3629   1.7627   5.0015   0.6922   1.0309   1.6578   0.00    0.0
2017/09/28 02:41:30.000   45.709757239   13.763526591   322.5185   5   9   2.3656   1.7625   5.0142   0.6886   1.0354   1.6708   0.00    0.0
2017/09/28 02:42:00.000   45.709757162   13.763524653   322.9263   5   9   2.3683   1.7623   5.0268   0.6850   1.0397   1.6836   0.00    0.0
2017/09/28 02:42:30.000   45.709757873   13.763524399   322.3686   5   9   2.3710   1.7620   5.0392   0.6812   1.0439   1.6962   0.00    0.0
2017/09/28 02:43:00.000   45.709756772   13.763524955   322.6830   5   9   2.3738   1.7618   5.0514   0.6774   1.0480   1.7086   0.00    0.0
2017/09/28 02:43:30.000   45.709758099   13.763520696   321.9795   5   8   2.5967   1.8990   5.6074   1.0935  -0.7759   0.6633   0.00    0.0
2017/09/28 02:44:00.000   45.709758322   13.763517432   323.2958   5   8   2.5962   1.8969   5.6323   1.0860  -0.7778   0.6828   0.00    0.0
2017/09/28 02:44:30.000   45.709760910   13.763521131   321.8044   5   8   2.5956   1.8948   5.6571   1.0785  -0.7797   0.7019   0.00    0.0
2017/09/28 02:45:00.000   45.709758873   13.763521076   322.5184   5   8   2.5951   1.8928   5.6817   1.0709  -0.7816   0.7206   0.00    0.0
2017/09/28 02:45:30.000   45.709758416   13.763521964   322.5505   5   8   2.5947   1.8907   5.7063   1.0632  -0.7834   0.7391   0.00    0.0
2017/09/28 02:46:00.000   45.709753700   13.763519190   322.8577   5   8   2.5942   1.8887   5.7306   1.0554  -0.7851   0.7572   0.00    0.0
2017/09/28 02:46:30.000   45.709757168   13.763525683   322.5794   5   8   2.5938   1.8867   5.7548   1.0476  -0.7868   0.7751   0.00    0.0
2017/09/28 02:47:00.000   45.709753462   13.763525064   322.7312   5   8   2.5935   1.8848   5.7788   1.0397  -0.7884   0.7926   0.00    0.0
2017/09/28 02:47:30.000   45.709762310   13.763519060   322.9149   5   8   2.5932   1.8828   5.8026   1.0317  -0.7900   0.8099   0.00    0.0
2017/09/28 02:48:00.000   45.709760445   13.763524244   323.0012   5   8   2.5929   1.8809   5.8262   1.0236  -0.7915   0.8269   0.00    0.0
2017/09/28 02:48:30.000   45.709755797   13.763521360   323.1785   5   8   2.5926   1.8790   5.8495   1.0155  -0.7930   0.8436   0.00    0.0
2017/09/28 02:49:00.000   45.709762108   13.763527708   322.4651   5   8   2.5924   1.8771   5.8726   1.0072  -0.7944   0.8600   0.00    0.0
2017/09/28 02:49:30.000   45.709761586   13.763521242   322.8067   5   8   2.5923   1.8752   5.8954   0.9989  -0.7958   0.8762   0.00    0.0
2017/09/28 02:50:00.000   45.709755519   13.763517410   324.2534   5   8   2.5921   1.8734   5.9179   0.9905  -0.7972   0.8921   0.00    0.0
2017/09/28 02:50:30.000   45.709755135   13.763519556   323.7065   5   8   2.5921   1.8716   5.9401   0.9820  -0.7984   0.9077   0.00    0.0
2017/09/28 02:51:00.000   45.709755806   13.763523266   322.3901   5   8   2.5920   1.8698   5.9619   0.9734  -0.7997   0.9231   0.00    0.0
2017/09/28 02:51:30.000   45.709757658   13.763522595   323.8567   5   8   2.5920   1.8680   5.9834   0.9647  -0.8009   0.9382   0.00    0.0
2017/09/28 02:52:00.000   45.709758856   13.763521998   322.4531   5   8   2.5920   1.8662   6.0045   0.9560  -0.8020   0.9530   0.00    0.0
2017/09/28 02:52:30.000   45.709759409   13.763525238   322.9699   5   8   2.5920   1.8645   6.0252   0.9471  -0.8031   0.9675   0.00    0.0
2017/09/28 02:53:00.000   45.709758692   13.763524009   322.7020   5   8   2.5921   1.8628   6.0455   0.9381  -0.8041   0.9818   0.00    0.0
2017/09/28 02:53:30.000   45.709756028   13.763527072   322.4504   5   8   2.5923   1.8611   6.0654   0.9290  -0.8051   0.9958   0.00    0.0
2017/09/28 02:54:00.000   45.709751192   13.763522470   322.8359   5   8   2.5924   1.8595   6.0848   0.9198  -0.8061   1.0095   0.00    0.0
2017/09/28 02:54:30.000   45.709752309   13.763519719   322.6569   5   8   2.5926   1.8578   6.1037   0.9105  -0.8070   1.0228   0.00    0.0
2017/09/28 02:55:00.000   45.709756105   13.763520178   323.0421   5   8   2.5929   1.8562   6.1222   0.9011  -0.8079   1.0359   0.00    0.0
2017/09/28 02:55:30.000   45.709759224   13.763523813   322.0921   5   8   2.5931   1.8547   6.1401   0.8916  -0.8087   1.0488   0.00    0.0
2017/09/28 02:56:00.000   45.709758230   13.763521509   322.1819   5   8   2.5934   1.8531   6.1575   0.8820  -0.8095   1.0613   0.00    0.0
2017/09/28 02:56:30.000   45.709756951   13.763527304   321.8959   5   8   2.5938   1.8516   6.1743   0.8722  -0.8102   1.0734   0.00    0.0
2017/09/28 02:57:00.000   45.709753945   13.763524339   321.3089   5   8   2.5941   1.8501   6.1906   0.8623  -0.8109   1.0853   0.00    0.0
2017/09/28 02:57:30.000   45.709752613   13.763520738   322.2234   5   8   2.5945   1.8486   6.2062   0.8523  -0.8115   1.0969   0.00    0.0
2017/09/28 02:58:00.000   45.709753130   13.763520733   323.0989   5   8   2.5950   1.8471   6.2213   0.8422  -0.8121   1.1081   0.00    0.0
2017/09/28 02:58:30.000   45.709756906   13.763523530   322.0420   5   8   2.5955   1.8457   6.2357   0.8319  -0.8127   1.1190   0.00    0.0
2017/09/28 02:59:00.000   45.709755628   13.763524432   322.2209   5   8   2.5960   1.8443   6.2495   0.8215  -0.8132   1.1296   0.00    0.0
2017/09/28 02:59:30.000   45.709755216   13.763522635   322.8899   5   8   2.5965   1.8429   6.2626   0.8109  -0.8137   1.1398   0.00    0.0
2017/09/28 03:00:00.000   45.709768653   13.763520219   321.7248   5   8   2.5971   1.8416   6.2751   0.8002  -0.8141   1.1497   0.00    0.0
2017/09/28 03:00:30.000   45.709766210   13.763520062   321.9842   5   8   2.5977   1.8403   6.2868   0.7893  -0.8145   1.1592   0.00    0.0
2017/09/28 03:01:00.000   45.709767699   13.763517234   321.7559   5   8   2.5983   1.8390   6.2979   0.7783  -0.8149   1.1684   0.00    0.0
2017/09/28 03:01:30.000   45.709765195   13.763525913   322.6715   5   8   2.5990   1.8377   6.3082   0.7671  -0.8152   1.1772   0.00    0.0
2017/09/28 03:02:00.000   45.709767429   13.763521715   322.2611   5   8   2.5996   1.8365   6.3178   0.7557  -0.8155   1.1857   0.00    0.0
2017/09/28 03:02:30.000   45.709764974   13.763519796   322.3303   5   8   2.6004   1.8353   6.3266   0.7441  -0.8157   1.1938   0.00    0.0
2017/09/28 03:03:00.000   45.709769892   13.763522655   321.7610   5   8   2.6011   1.8341   6.3347   0.7323  -0.8159   1.2015   0.00    0.0
2017/09/28 03:03:30.000   45.709763021   13.763517125   322.4180   5   8   2.6019   1.8330   6.3420   0.7203  -0.8161   1.2088   0.00    0.0
2017/09/28 03:04:00.000   45.709766442   13.763523066   322.8261   5   8   2.6027   1.8319   6.3485   0.7081  -0.8162   1.2158   0.00    0.0
2017/09/28 03:04:30.000   45.709768228   13.763518380   322.3555   5   8   2.6035   1.8308   6.3542   0.6957  -0.8163   1.2224   0.00    0.0
2017/09/28 03:05:00.000   45.709767267   13.763525633   322.6163   5   8   2.6044   1.8298   6.3591   0.6831  -0.8163   1.2285   0.00    0.0
2017/09/28 03:05:30.000   45.709763945   13.763519154   322.6952   5   8   2.6053   1.8287   6.3633   0.6702  -0.8163   1.2343   0.00    0.0
2017/09/28 03:06:00.000   45.709762535   13.763520953   321.8323   5   8   2.6062   1.8277   6.3666   0.6570  -0.8163   1.2397   0.00    0.0
2017/09/28 03:06:30.000   45.709766536   13.763521523   322.0769   5   8   2.6071   1.8268   6.3691   0.6435  -0.8163   1.2447   0.00    0.0
2017/09/28 03:07:00.000   45.709766118   13.763519157   322.0788   5   8   2.6081   1.8258   6.3707   0.6298  -0.8162   1.2493   0.00    0.0
2017/09/28 03:07:30.000   45.709769462   13.763519923   322.5071   5   8   2.6091   1.8249   6.3716   0.6157  -0.8160   1.2534   0.00    0.0
2017/09/28 03:08:00.000   45.709767108   13.763524605   322.0397   5   8   2.6101   1.8241   6.3716   0.6013  -0.8159   1.2572   0.00    0.0
2017/09/28 03:08:30.000   45.709770409   13.763522954   322.8578   5   8   2.6112   1.8232   6.3708   0.5865  -0.8157   1.2606   0.00    0.0
2017/09/28 03:09:00.000   45.709768601   13.763517466   322.7013   5   8   2.6123   1.8224   6.3692   0.5714  -0.8154   1.2635   0.00    0.0
2017/09/28 03:09:30.000   45.709769082   13.763514427   322.0364   5   8   2.6133   1.8216   6.3667   0.5558  -0.8151   1.2661   0.00    0.0
2017/09/28 03:10:00.000   45.709765510   13.763521747   321.8599   5   8   2.6145   1.8209   6.3635   0.5397  -0.8148   1.2682   0.00    0.0
2017/09/28 03:10:30.000   45.709768569   13.763519777   321.7200   5   8   2.6156   1.8202   6.3594   0.5231  -0.8145   1.2700   0.00    0.0
2017/09/28 03:11:00.000   45.709762434   13.763519402   322.2353   5   8   2.6168   1.8195   6.3545   0.5060  -0.8141   1.2713   0.00    0.0
2017/09/28 03:11:30.000   45.709766595   13.763522047   322.4726   5   8   2.6180   1.8189   6.3488   0.4883  -0.8137   1.2722   0.00    0.0
2017/09/28 03:12:00.000   45.709768153   13.763520408   322.2797   5   8   2.6192   1.8182   6.3423   0.4699  -0.8133   1.2727   0.00    0.0
2017/09/28 03:12:30.000   45.709763917   13.763525001   322.0006   5   8   2.6205   1.8177   6.3350   0.4507  -0.8129   1.2728   0.00    0.0
2017/09/28 03:13:00.000   45.709764255   13.763522444   322.4399   5   8   2.6217   1.8171   6.3270   0.4307  -0.8124   1.2725   0.00    0.0
2017/09/28 03:13:30.000   45.709769721   13.763527698   322.7243   5   8   2.6230   1.8166   6.3182   0.4096  -0.8119   1.2717   0.00    0.0
2017/09/28 03:14:00.000   45.709769261   13.763519471   322.0691   5   8   2.6243   1.8161   6.3086   0.3874  -0.8113   1.2706   0.00    0.0
2017/09/28 03:14:30.000   45.709769608   13.763518098   321.5616   5   8   2.6257   1.8156   6.2983   0.3639  -0.8107   1.2691   0.00    0.0
2017/09/28 03:15:00.000   45.709768101   13.763523403   322.1350   5   8   2.6270   1.8152   6.2873   0.3387  -0.8101   1.2672   0.00    0.0
2017/09/28 03:15:30.000   45.709766365   13.763522262   322.4997   5   8   2.6284   1.8148   6.2755   0.3114  -0.8095   1.2649   0.00    0.0
2017/09/28 03:16:00.000   45.709766984   13.763519346   322.0931   5   8   2.6299   1.8145   6.2631   0.2815  -0.8089   1.2622   0.00    0.0
2017/09/28 03:16:30.000   45.709765202   13.763522757   321.9724   5   8   2.6313   1.8142   6.2499   0.2480  -0.8082   1.2591   0.00    0.0
2017/09/28 03:17:00.000   45.709766247   13.763519113   322.3973   5   8   2.6328   1.8139   6.2362   0.2092  -0.8075   1.2556   0.00    0.0
2017/09/28 03:17:30.000   45.709768296   13.763519125   321.3893   5   8   2.6343   1.8136   6.2217   0.1613  -0.8068   1.2517   0.00    0.0
2017/09/28 03:18:00.000   45.709769127   13.763520383   321.8277   5   8   2.6358   1.8134   6.2066   0.0908  -0.8060   1.2475   0.00    0.0
2017/09/28 03:18:30.000   45.709764970   13.763518782   322.3132   5   8   2.6373   1.8132   6.1909  -0.0976  -0.8053   1.2429   0.00    0.0
2017/09/28 03:19:00.000   45.709765349   13.763520379   321.6466   5   8   2.6389   1.8131   6.1746  -0.1653  -0.8045   1.2379   0.00    0.0
2017/09/28 03:19:30.000   45.709771469   13.763521059   321.3250   5   8   2.6405   1.8129   6.1578  -0.2124  -0.8037   1.2325   0.00    0.0
2017/09/28 03:20:00.000   45.709770008   13.763523646   321.8165   5   8   2.6421   1.8129   6.1403  -0.2509  -0.8029   1.2268   0.00    0.0
2017/09/28 03:20:30.000   45.709765592   13.763520166   321.8758   5   8   2.6438   1.8128   6.1224  -0.2842  -0.8020   1.2208   0.00    0.0
2017/09/28 03:21:00.000   45.709767184   13.763516783   322.0549   5   8   2.6455   1.8128   6.1039  -0.3140  -0.8012   1.2144   0.00    0.0
2017/09/28 03:21:30.000   45.709764435   13.763525791   321.7973   5   8   2.6472   1.8128   6.0849  -0.3412  -0.8003   1.2076   0.00    0.0
2017/09/28 03:22:00.000   45.709769474   13.763522223   321.5212   5   8   2.6489   1.8129   6.0655  -0.3664  -0.7994   1.2005   0.00    0.0
2017/09/28 03:22:30.000   45.709770653   13.763518296   321.9917   5   8   2.6507   1.8130   6.0456  -0.3901  -0.7985   1.1931   0.00    0.0
2017/09/28 03:23:00.000   45.709767553   13.763519159   322.2660   5   8   2.6525   1.8131   6.0252  -0.4123  -0.7976   1.1853   0.00    0.0
2017/09/28 03:23:30.000   45.709766936   13.763521598   322.0511   5   9   2.5145   1.7599   5.3915   0.4281  -1.3373   1.9061   0.00    0.0
2017/09/28 03:24:00.000   45.709772145   13.763523580   321.8013   5   9   2.5134   1.7590   5.3841   0.4162  -1.3358   1.8996   0.00    0.0
2017/09/28 03:24:30.000   45.709768317   13.763520729   321.0580   5   9   2.5123   1.7580   5.3762   0.4040  -1.3341   1.8928   0.00    0.0
2017/09/28 03:25:00.000   45.709768061   13.763523997   320.6095   5   9   2.5112   1.7571   5.3680   0.3917  -1.3323   1.8857   0.00    0.0
2017/09/28 03:25:30.000   45.709766773   13.763517061   321.2371   5   9   2.5101   1.7562   5.3593   0.3790  -1.3304   1.8781   0.00    0.0
2017/09/28 03:26:00.000   45.709773232   13.763517887   320.2471   5   9   2.5090   1.7554   5.3503   0.3661  -1.3283   1.8702   0.00    0.0
2017/09/28 03:26:30.000   45.709770942   13.763521717   320.5256   5   9   2.5078   1.7545   5.3408   0.3528  -1.3261   1.8620   0.00    0.0
2017/09/28 03:27:00.000   45.709768220   13.763519519   321.2320   5   9   2.5067   1.7537   5.3310   0.3392  -1.3238   1.8534   0.00    0.0
2017/09/28 03:27:30.000   45.709769103   13.763520322   320.6174   5   9   2.5056   1.7529   5.3208   0.3252  -1.3213   1.8444   0.00    0.0
2017/09/28 03:28:00.000   45.709766397   13.763524235   321.5933   5   9   2.5045   1.7521   5.3103   0.3107  -1.3187   1.8351   0.00    0.0
2017/09/28 03:28:30.000   45.709768128   13.763522506   321.6092   5   9   2.5033   1.7513   5.2994   0.2957  -1.3160   1.8255   0.00    0.0
2017/09/28 03:29:00.000   45.709766755   13.763523595   321.1599   5   9   2.5022   1.7505   5.2882   0.2800  -1.3131   1.8155   0.00    0.0
