% program   : RTKPOST-EX 2.5.0
% inp file  : D:\Academic\0 Research\000 In preparation\00 GPS positioning performance circular analysis during short-term fast-developing geomagnetic storms\Storm 4\trie2700.17d
% inp file  : D:\Academic\0 Research\000 In preparation\00 GPS positioning performance circular analysis during short-term fast-developing geomagnetic storms\Storm 4\brdc2700.17n
% obs start : 2017/09/27 00:00:00.0 GPST (week1968 259200.0s)
% obs end   : 2017/09/27 23:59:30.0 GPST (week1968 345570.0s)
% pos mode  : Single
% elev mask : 15.0 deg
% tidecorr  :
% ionos opt : Broadcast
% tropo opt : Saastamoinen
% ephemeris : Broadcast
% navi sys  : GPS
%
% (lat/lon/height=WGS84/ellipsoidal,Q=1:fix,2:float,3:sbas,4:dgps,5:single,6:ppp,ns=# of satellites)
%  GPST                  latitude(deg) longitude(deg)  height(m)   Q  ns   sdn(m)   sde(m)   sdu(m)  sdne(m)  sdeu(m)  sdun(m) age(s)  ratio
2017/09/27 00:00:00.000   45.709756691   13.763530723   321.1408   5   8   2.9718   1.8634   6.2513  -0.1888  -0.8197   2.7641   0.00    0.0
2017/09/27 00:00:30.000   45.709759763   13.763525096   322.3317   5   8   2.9771   1.8635   6.2646  -0.2205  -0.8129   2.7796   0.00    0.0
2017/09/27 00:01:00.000   45.709758240   13.763530852   322.0135   5   8   2.9822   1.8637   6.2770  -0.2481  -0.8060   2.7942   0.00    0.0
2017/09/27 00:01:30.000   45.709749607   13.763526524   319.6036   5   8   2.9870   1.8640   6.2885  -0.2728  -0.7990   2.8080   0.00    0.0
2017/09/27 00:02:00.000   45.709748036   13.763527826   319.0142   5   8   2.9917   1.8643   6.2991  -0.2953  -0.7919   2.8209   0.00    0.0
2017/09/27 00:02:30.000   45.709753725   13.763526795   320.6013   5   8   2.9961   1.8646   6.3088  -0.3161  -0.7846   2.8329   0.00    0.0
2017/09/27 00:03:00.000   45.709749877   13.763528958   320.6652   5   8   3.0003   1.8650   6.3174  -0.3355  -0.7773   2.8439   0.00    0.0
2017/09/27 00:03:30.000   45.709751871   13.763529530   320.9945   5   8   3.0042   1.8654   6.3251  -0.3538  -0.7698   2.8540   0.00    0.0
2017/09/27 00:04:00.000   45.709752780   13.763525652   320.0244   5   8   3.0079   1.8659   6.3318  -0.3711  -0.7621   2.8632   0.00    0.0
2017/09/27 00:04:30.000   45.709750229   13.763527913   319.6920   5   8   3.0113   1.8665   6.3375  -0.3876  -0.7544   2.8714   0.00    0.0
2017/09/27 00:05:00.000   45.709753910   13.763526087   317.9629   5   8   3.0144   1.8670   6.3421  -0.4033  -0.7465   2.8787   0.00    0.0
2017/09/27 00:05:30.000   45.709752047   13.763532650   320.0395   5   8   3.0173   1.8677   6.3457  -0.4183  -0.7384   2.8850   0.00    0.0
2017/09/27 00:06:00.000   45.709749801   13.763527252   319.1520   5   8   3.0199   1.8683   6.3482  -0.4328  -0.7302   2.8902   0.00    0.0
2017/09/27 00:06:30.000   45.709748141   13.763529341   319.9695   5   8   3.0222   1.8691   6.3496  -0.4467  -0.7218   2.8945   0.00    0.0
2017/09/27 00:07:00.000   45.709751369   13.763522323   319.4900   5   8   3.0241   1.8699   6.3499  -0.4602  -0.7132   2.8978   0.00    0.0
2017/09/27 00:07:30.000   45.709744956   13.763531468   318.9801   5   8   3.0258   1.8707   6.3492  -0.4732  -0.7045   2.9001   0.00    0.0
2017/09/27 00:08:00.000   45.709750047   13.763528633   319.2256   5   8   3.0272   1.8716   6.3474  -0.4859  -0.6956   2.9013   0.00    0.0
2017/09/27 00:08:30.000   45.709745254   13.763530485   320.0641   5   8   3.0283   1.8725   6.3444  -0.4981  -0.6864   2.9015   0.00    0.0
2017/09/27 00:09:00.000   45.709751529   13.763533433   319.7397   5   8   3.0291   1.8735   6.3404  -0.5101  -0.6771   2.9008   0.00    0.0
2017/09/27 00:09:30.000   45.709749364   13.763526612   319.1346   5   8   3.0295   1.8745   6.3354  -0.5217  -0.6676   2.8990   0.00    0.0
2017/09/27 00:10:00.000   45.709744154   13.763529319   318.1766   5   8   3.0297   1.8756   6.3292  -0.5331  -0.6579   2.8962   0.00    0.0
2017/09/27 00:10:30.000   45.709746053   13.763529808   319.0953   5   8   3.0295   1.8767   6.3221  -0.5441  -0.6479   2.8924   0.00    0.0
2017/09/27 00:11:00.000   45.709748862   13.763529187   319.4990   5   8   3.0291   1.8779   6.3138  -0.5550  -0.6377   2.8876   0.00    0.0
2017/09/27 00:11:30.000   45.709746189   13.763525845   319.7121   5   8   3.0283   1.8791   6.3046  -0.5656  -0.6273   2.8819   0.00    0.0
2017/09/27 00:12:00.000   45.709745849   13.763533338   321.5871   5   8   3.0273   1.8804   6.2943  -0.5759  -0.6166   2.8751   0.00    0.0
2017/09/27 00:12:30.000   45.709748750   13.763529872   318.8798   5   8   3.0260   1.8817   6.2831  -0.5861  -0.6057   2.8674   0.00    0.0
2017/09/27 00:13:00.000   45.709747568   13.763528675   319.0196   5   8   3.0243   1.8831   6.2709  -0.5961  -0.5945   2.8587   0.00    0.0
2017/09/27 00:13:30.000   45.709748120   13.763525231   319.7251   5   8   3.0224   1.8846   6.2578  -0.6060  -0.5829   2.8491   0.00    0.0
2017/09/27 00:14:00.000   45.709750393   13.763526790   318.4357   5   8   3.0203   1.8861   6.2437  -0.6156  -0.5711   2.8385   0.00    0.0
2017/09/27 00:14:30.000   45.709749406   13.763533602   318.4704   5   8   3.0179   1.8876   6.2288  -0.6251  -0.5590   2.8271   0.00    0.0
2017/09/27 00:15:00.000   45.709749829   13.763528181   318.4973   5   8   3.0152   1.8892   6.2130  -0.6345  -0.5465   2.8147   0.00    0.0
2017/09/27 00:15:30.000   45.709751940   13.763524879   318.4361   5   8   3.0123   1.8908   6.1964  -0.6437  -0.5337   2.8015   0.00    0.0
2017/09/27 00:16:00.000   45.709745353   13.763526214   318.8897   5   8   3.0091   1.8926   6.1790  -0.6528  -0.5205   2.7874   0.00    0.0
2017/09/27 00:16:30.000   45.709751069   13.763534562   318.0373   5   7   3.3627   2.2468   7.4434   1.1763  -2.3029   1.1782   0.00    0.0
2017/09/27 00:17:00.000   45.709751282   13.763531913   319.6053   5   7   3.3544   2.2455   7.4424   1.1620  -2.3020   1.1444   0.00    0.0
2017/09/27 00:17:30.000   45.709751877   13.763536079   318.7525   5   7   3.3461   2.2443   7.4404   1.1478  -2.3006   1.1080   0.00    0.0
2017/09/27 00:18:00.000   45.709751554   13.763536548   317.5900   5   7   3.3378   2.2431   7.4372   1.1336  -2.2987   1.0691   0.00    0.0
2017/09/27 00:18:30.000   45.709752737   13.763531209   318.5530   5   7   3.3295   2.2420   7.4328   1.1195  -2.2964   1.0273   0.00    0.0
2017/09/27 00:19:00.000   45.709752132   13.763534735   318.0258   5   7   3.3213   2.2408   7.4274   1.1054  -2.2937   0.9823   0.00    0.0
2017/09/27 00:19:30.000   45.709752636   13.763534342   317.1819   5   7   3.3131   2.2398   7.4210   1.0913  -2.2905   0.9337   0.00    0.0
2017/09/27 00:20:00.000   45.709751911   13.763536147   318.1883   5   7   3.3050   2.2387   7.4134   1.0772  -2.2869   0.8812   0.00    0.0
2017/09/27 00:20:30.000   45.709751923   13.763536122   317.9526   5   7   3.2969   2.2377   7.4048   1.0632  -2.2828   0.8239   0.00    0.0
2017/09/27 00:21:00.000   45.709746659   13.763535572   319.7911   5   7   3.2889   2.2367   7.3953   1.0491  -2.2783   0.7609   0.00    0.0
2017/09/27 00:21:30.000   45.709749518   13.763533400   316.9872   5   7   3.2810   2.2357   7.3847   1.0350  -2.2733   0.6909   0.00    0.0
2017/09/27 00:22:00.000   45.709751803   13.763541566   317.5262   5   7   3.2731   2.2348   7.3732   1.0209  -2.2679   0.6114   0.00    0.0
2017/09/27 00:22:30.000   45.709755272   13.763534050   318.5695   5   7   3.2653   2.2339   7.3607   1.0068  -2.2621   0.5184   0.00    0.0
2017/09/27 00:23:00.000   45.709751429   13.763536386   316.9220   5   7   3.2575   2.2331   7.3473   0.9927  -2.2558   0.4028   0.00    0.0
2017/09/27 00:23:30.000   45.709751763   13.763536642   316.7970   5   7   3.2499   2.2323   7.3331   0.9785  -2.2491   0.2332   0.00    0.0
2017/09/27 00:24:00.000   45.709750239   13.763532662   317.2945   5   7   3.2423   2.2315   7.3180   0.9642  -2.2420  -0.2337   0.00    0.0
2017/09/27 00:24:30.000   45.709753231   13.763533794   318.1635   5   7   3.2349   2.2307   7.3020   0.9499  -2.2344  -0.4057   0.00    0.0
2017/09/27 00:25:00.000   45.709755939   13.763536071   316.3195   5   7   3.2275   2.2300   7.2853   0.9355  -2.2264  -0.5249   0.00    0.0
2017/09/27 00:25:30.000   45.709747585   13.763534836   317.9578   5   7   3.2203   2.2294   7.2679   0.9209  -2.2180  -0.6221   0.00    0.0
2017/09/27 00:26:00.000   45.709753574   13.763534517   316.8357   5   7   3.2132   2.2288   7.2497   0.9063  -2.2092  -0.7065   0.00    0.0
2017/09/27 00:26:30.000   45.709752822   13.763534941   317.5717   5   7   3.2061   2.2282   7.2308   0.8915  -2.2001  -0.7821   0.00    0.0
2017/09/27 00:27:00.000   45.709757243   13.763533176   317.1568   5   7   3.1992   2.2276   7.2112   0.8765  -2.1905  -0.8512   0.00    0.0
2017/09/27 00:27:30.000   45.709755813   13.763534575   318.5010   5   7   3.1925   2.2271   7.1911   0.8614  -2.1805  -0.9151   0.00    0.0
2017/09/27 00:28:00.000   45.709757467   13.763530864   314.9353   5   7   3.1858   2.2267   7.1703   0.8460  -2.1701  -0.9749   0.00    0.0
2017/09/27 00:28:30.000   45.709756401   13.763534909   315.4173   5   7   3.1793   2.2263   7.1489   0.8305  -2.1594  -1.0312   0.00    0.0
2017/09/27 00:29:00.000   45.709751045   13.763538486   318.4683   5   7   3.1729   2.2260   7.1271   0.8147  -2.1483  -1.0845   0.00    0.0
2017/09/27 00:29:30.000   45.709757393   13.763528762   317.6655   5   7   3.1666   2.2257   7.1047   0.7986  -2.1368  -1.1352   0.00    0.0
2017/09/27 00:30:00.000   45.709759317   13.763534585   315.5204   5   7   3.1604   2.2254   7.0818   0.7823  -2.1250  -1.1835   0.00    0.0
2017/09/27 00:30:30.000   45.709754240   13.763535507   315.9874   5   6   4.0588   2.7365  14.5342  -1.8660   3.9715  -5.8277   0.00    0.0
2017/09/27 00:31:00.000   45.709755949   13.763533269   314.9746   5   6   4.0723   2.7551  14.5737  -1.9067   4.0403  -5.8811   0.00    0.0
2017/09/27 00:31:30.000   45.709756553   13.763531783   317.0308   5   6   4.0862   2.7741  14.6098  -1.9474   4.1084  -5.9335   0.00    0.0
2017/09/27 00:32:00.000   45.709757505   13.763527176   316.5641   5   6   4.1004   2.7937  14.6426  -1.9880   4.1757  -5.9850   0.00    0.0
2017/09/27 00:32:30.000   45.709762481   13.763527403   314.0531   5   6   4.1150   2.8137  14.6719  -2.0285   4.2423  -6.0355   0.00    0.0
2017/09/27 00:33:00.000   45.709756368   13.763533028   316.3694   5   6   4.1299   2.8343  14.6979  -2.0689   4.3080  -6.0849   0.00    0.0
2017/09/27 00:33:30.000   45.709754159   13.763530658   316.4276   5   6   4.1451   2.8554  14.7205  -2.1093   4.3729  -6.1332   0.00    0.0
2017/09/27 00:34:00.000   45.709758923   13.763527455   315.3340   5   6   4.1605   2.8769  14.7398  -2.1496   4.4369  -6.1804   0.00    0.0
2017/09/27 00:34:30.000   45.709756641   13.763527438   315.4612   5   6   4.1761   2.8990  14.7557  -2.1898   4.4999  -6.2264   0.00    0.0
2017/09/27 00:35:00.000   45.709761900   13.763529119   313.8277   5   6   4.1920   2.9215  14.7684  -2.2298   4.5621  -6.2713   0.00    0.0
2017/09/27 00:35:30.000   45.709761933   13.763524293   313.1564   5   6   4.2080   2.9444  14.7778  -2.2698   4.6233  -6.3149   0.00    0.0
2017/09/27 00:36:00.000   45.709756457   13.763531097   315.4635   5   6   4.2241   2.9678  14.7841  -2.3096   4.6835  -6.3572   0.00    0.0
2017/09/27 00:36:30.000   45.709761012   13.763528645   315.1549   5   6   4.2404   2.9917  14.7871  -2.3492   4.7428  -6.3983   0.00    0.0
2017/09/27 00:37:00.000   45.709763310   13.763525721   312.4059   5   6   4.2568   3.0159  14.7871  -2.3887   4.8010  -6.4381   0.00    0.0
2017/09/27 00:37:30.000   45.709758814   13.763528261   314.9996   5   6   4.2733   3.0405  14.7841  -2.4280   4.8582  -6.4766   0.00    0.0
2017/09/27 00:38:00.000   45.709767045   13.763518771   312.3370   5   6   4.2898   3.0656  14.7781  -2.4671   4.9144  -6.5138   0.00    0.0
2017/09/27 00:38:30.000   45.709763117   13.763525886   313.9679   5   6   4.3063   3.0910  14.7691  -2.5060   4.9695  -6.5497   0.00    0.0
2017/09/27 00:39:00.000   45.709763535   13.763523778   311.6106   5   6   4.3229   3.1168  14.7574  -2.5447   5.0236  -6.5843   0.00    0.0
2017/09/27 00:39:30.000   45.709763314   13.763524503   314.0778   5   6   4.3394   3.1429  14.7429  -2.5831   5.0766  -6.6176   0.00    0.0
2017/09/27 00:40:00.000   45.709763691   13.763526509   312.7544   5   6   4.3559   3.1694  14.7258  -2.6213   5.1285  -6.6495   0.00    0.0
2017/09/27 00:40:30.000   45.709763098   13.763525246   314.4064   5   6   4.3724   3.1961  14.7060  -2.6593   5.1794  -6.6801   0.00    0.0
2017/09/27 00:41:00.000   45.709765454   13.763525335   314.0864   5   6   4.3887   3.2232  14.6838  -2.6971   5.2293  -6.7095   0.00    0.0
2017/09/27 00:41:30.000   45.709761766   13.763522728   313.3527   5   6   4.4050   3.2506  14.6591  -2.7345   5.2780  -6.7375   0.00    0.0
2017/09/27 00:42:00.000   45.709763689   13.763523278   314.0156   5   6   4.4212   3.2783  14.6321  -2.7717   5.3257  -6.7642   0.00    0.0
2017/09/27 00:42:30.000   45.709766848   13.763528237   312.4701   5   6   4.4373   3.3062  14.6028  -2.8086   5.3724  -6.7897   0.00    0.0
2017/09/27 00:43:00.000   45.709767862   13.763521532   313.7429   5   6   4.4532   3.3344  14.5713  -2.8453   5.4180  -6.8138   0.00    0.0
2017/09/27 00:43:30.000   45.709768415   13.763521510   312.0736   5   6   4.4689   3.3628  14.5378  -2.8816   5.4625  -6.8368   0.00    0.0
2017/09/27 00:44:00.000   45.709768019   13.763519484   312.0993   5   6   4.4845   3.3915  14.5022  -2.9177   5.5060  -6.8585   0.00    0.0
2017/09/27 00:44:30.000   45.709766597   13.763524256   312.8045   5   6   4.4999   3.4203  14.4648  -2.9534   5.5485  -6.8789   0.00    0.0
2017/09/27 00:45:00.000   45.709765082   13.763520390   312.7501   5   6   4.5152   3.4494  14.4254  -2.9888   5.5900  -6.8982   0.00    0.0
2017/09/27 00:45:30.000   45.709768342   13.763521642   312.5154   5   6   4.5302   3.4786  14.3844  -3.0239   5.6304  -6.9163   0.00    0.0
2017/09/27 00:46:00.000   45.709767266   13.763512750   311.9676   5   6   4.5450   3.5081  14.3416  -3.0587   5.6698  -6.9332   0.00    0.0
2017/09/27 00:46:30.000   45.709766720   13.763525694   313.4585   5   6   4.5595   3.5377  14.2972  -3.0931   5.7083  -6.9489   0.00    0.0
2017/09/27 00:47:00.000   45.709767711   13.763520733   313.8560   5   6   4.5739   3.5674  14.2513  -3.1272   5.7457  -6.9636   0.00    0.0
2017/09/27 00:47:30.000   45.709769958   13.763518128   312.2714   5   6   4.5879   3.5973  14.2040  -3.1610   5.7822  -6.9771   0.00    0.0
2017/09/27 00:48:00.000   45.709761455   13.763526515   315.5614   5   6   4.6018   3.6273  14.1552  -3.1944   5.8177  -6.9895   0.00    0.0
2017/09/27 00:48:30.000   45.709770269   13.763519128   313.8458   5   6   4.6153   3.6575  14.1051  -3.2275   5.8523  -7.0009   0.00    0.0
2017/09/27 00:49:00.000   45.709768597   13.763521367   313.1403   5   6   4.6286   3.6877  14.0538  -3.2602   5.8859  -7.0112   0.00    0.0
2017/09/27 00:49:30.000   45.709763346   13.763522466   312.8976   5   6   4.6417   3.7180  14.0013  -3.2926   5.9186  -7.0204   0.00    0.0
2017/09/27 00:50:00.000   45.709773563   13.763510688   311.6997   5   6   4.6544   3.7485  13.9477  -3.3246   5.9504  -7.0287   0.00    0.0
2017/09/27 00:50:30.000   45.709775616   13.763512719   310.3960   5   6   4.6668   3.7790  13.8930  -3.3562   5.9813  -7.0359   0.00    0.0
2017/09/27 00:51:00.000   45.709774970   13.763514694   311.8279   5   6   4.6790   3.8095  13.8373  -3.3875   6.0113  -7.0422   0.00    0.0
2017/09/27 00:51:30.000   45.709779039   13.763509128   312.3485   5   6   4.6908   3.8402  13.7806  -3.4184   6.0404  -7.0475   0.00    0.0
2017/09/27 00:52:00.000   45.709775543   13.763508683   313.0859   5   6   4.7024   3.8708  13.7230  -3.4490   6.0686  -7.0519   0.00    0.0
2017/09/27 00:52:30.000   45.709767722   13.763518035   312.9069   5   6   4.7136   3.9015  13.6646  -3.4792   6.0960  -7.0554   0.00    0.0
2017/09/27 00:53:00.000   45.709773496   13.763511459   312.4142   5   6   4.7245   3.9323  13.6054  -3.5089   6.1225  -7.0579   0.00    0.0
2017/09/27 00:53:30.000   45.709773180   13.763512045   313.3918   5   6   4.7351   3.9630  13.5454  -3.5384   6.1481  -7.0596   0.00    0.0
2017/09/27 00:54:00.000   45.709766284   13.763518011   312.7294   5   6   4.7454   3.9938  13.4846  -3.5674   6.1730  -7.0604   0.00    0.0
2017/09/27 00:54:30.000   45.709772243   13.763512727   312.5640   5   6   4.7553   4.0246  13.4232  -3.5960   6.1970  -7.0603   0.00    0.0
2017/09/27 00:55:00.000   45.709772438   13.763512952   312.8853   5   6   4.7649   4.0553  13.3612  -3.6243   6.2202  -7.0594   0.00    0.0
2017/09/27 00:55:30.000   45.709772606   13.763513775   312.5458   5   6   4.7741   4.0860  13.2986  -3.6521   6.2425  -7.0577   0.00    0.0
2017/09/27 00:56:00.000   45.709774907   13.763514109   312.6641   5   6   4.7831   4.1167  13.2354  -3.6796   6.2641  -7.0551   0.00    0.0
2017/09/27 00:56:30.000   45.709771208   13.763510705   312.8746   5   6   4.7916   4.1474  13.1716  -3.7066   6.2849  -7.0518   0.00    0.0
2017/09/27 00:57:00.000   45.709778129   13.763511096   311.2920   5   6   4.7998   4.1780  13.1074  -3.7333   6.3049  -7.0476   0.00    0.0
2017/09/27 00:57:30.000   45.709774155   13.763509177   311.6114   5   6   4.8077   4.2086  13.0427  -3.7596   6.3241  -7.0427   0.00    0.0
2017/09/27 00:58:00.000   45.709769807   13.763506857   310.8161   5   6   4.8152   4.2390  12.9775  -3.7854   6.3426  -7.0371   0.00    0.0
2017/09/27 00:58:30.000   45.709773542   13.763504948   312.8013   5   6   4.8224   4.2695  12.9119  -3.8109   6.3603  -7.0307   0.00    0.0
2017/09/27 00:59:00.000   45.709781038   13.763506137   310.9504   5   6   4.8292   4.2998  12.8459  -3.8359   6.3772  -7.0235   0.00    0.0
2017/09/27 00:59:30.000   45.709774129   13.763508848   312.2237   5   6   4.8356   4.3300  12.7796  -3.8605   6.3934  -7.0156   0.00    0.0
2017/09/27 01:00:00.000   45.709765274   13.763513666   315.2802   5   6   4.3040   4.2972  11.6500  -3.6679   6.1087  -6.1493   0.00    0.0
2017/09/27 01:00:30.000   45.709769739   13.763504073   314.1120   5   6   4.3082   4.3248  11.5837  -3.6877   6.1182  -6.1398   0.00    0.0
2017/09/27 01:01:00.000   45.709763580   13.763520002   316.7438   5   6   4.3122   4.3523  11.5174  -3.7071   6.1271  -6.1298   0.00    0.0
2017/09/27 01:01:30.000   45.709755755   13.763528622   318.6555   5   7   3.1944   2.4661   6.0942  -1.8385   1.5981  -3.0511   0.00    0.0
2017/09/27 01:02:00.000   45.709758441   13.763530196   317.7432   5   7   3.1921   2.4711   6.0797  -1.8457   1.6173  -3.0499   0.00    0.0
2017/09/27 01:02:30.000   45.709755545   13.763523652   318.1294   5   7   3.1899   2.4761   6.0650  -1.8529   1.6361  -3.0486   0.00    0.0
2017/09/27 01:03:00.000   45.709760379   13.763524500   318.8626   5   7   3.1876   2.4813   6.0503  -1.8600   1.6545  -3.0471   0.00    0.0
2017/09/27 01:03:30.000   45.709753715   13.763524938   318.2548   5   7   3.1854   2.4864   6.0356  -1.8670   1.6726  -3.0455   0.00    0.0
2017/09/27 01:04:00.000   45.709754832   13.763532350   319.7632   5   7   3.1831   2.4916   6.0207  -1.8740   1.6903  -3.0437   0.00    0.0
2017/09/27 01:04:30.000   45.709757901   13.763529907   319.6732   5   7   3.1808   2.4969   6.0058  -1.8809   1.7077  -3.0418   0.00    0.0
2017/09/27 01:05:00.000   45.709759851   13.763520501   318.4546   5   7   3.1785   2.5022   5.9908  -1.8878   1.7248  -3.0397   0.00    0.0
2017/09/27 01:05:30.000   45.709757895   13.763524255   318.9771   5   7   3.1763   2.5075   5.9758  -1.8945   1.7415  -3.0374   0.00    0.0
2017/09/27 01:06:00.000   45.709757660   13.763523023   319.0461   5   7   3.1740   2.5129   5.9607  -1.9012   1.7579  -3.0350   0.00    0.0
2017/09/27 01:06:30.000   45.709757197   13.763524523   318.6968   5   7   3.1717   2.5183   5.9455  -1.9079   1.7740  -3.0325   0.00    0.0
2017/09/27 01:07:00.000   45.709764318   13.763526685   318.7944   5   7   3.1694   2.5237   5.9303  -1.9144   1.7898  -3.0297   0.00    0.0
2017/09/27 01:07:30.000   45.709756577   13.763523580   318.9779   5   7   3.1670   2.5292   5.9150  -1.9209   1.8052  -3.0269   0.00    0.0
2017/09/27 01:08:00.000   45.709761964   13.763525901   318.1199   5   7   3.1647   2.5347   5.8996  -1.9273   1.8203  -3.0238   0.00    0.0
2017/09/27 01:08:30.000   45.709759536   13.763520571   318.1629   5   7   3.1623   2.5403   5.8842  -1.9336   1.8351  -3.0206   0.00    0.0
2017/09/27 01:09:00.000   45.709756774   13.763527475   318.5059   5   7   3.1600   2.5459   5.8687  -1.9399   1.8496  -3.0172   0.00    0.0
2017/09/27 01:09:30.000   45.709764617   13.763517630   318.6073   5   7   3.1576   2.5515   5.8532  -1.9460   1.8637  -3.0137   0.00    0.0
2017/09/27 01:10:00.000   45.709768455   13.763514655   317.9569   5   7   3.1552   2.5571   5.8376  -1.9521   1.8776  -3.0100   0.00    0.0
2017/09/27 01:10:30.000   45.709754559   13.763524482   318.4174   5   7   3.1528   2.5628   5.8219  -1.9581   1.8911  -3.0061   0.00    0.0
2017/09/27 01:11:00.000   45.709762149   13.763520186   317.9700   5   7   3.1503   2.5685   5.8062  -1.9641   1.9043  -3.0021   0.00    0.0
2017/09/27 01:11:30.000   45.709760880   13.763520520   318.0214   5   7   3.1479   2.5742   5.7904  -1.9699   1.9173  -2.9979   0.00    0.0
2017/09/27 01:12:00.000   45.709760669   13.763523349   318.3775   5   7   3.1454   2.5799   5.7746  -1.9756   1.9299  -2.9935   0.00    0.0
2017/09/27 01:12:30.000   45.709758173   13.763524411   318.4859   5   7   3.1429   2.5857   5.7588  -1.9813   1.9422  -2.9890   0.00    0.0
2017/09/27 01:13:00.000   45.709760121   13.763520989   319.7468   5   7   3.1404   2.5914   5.7429  -1.9869   1.9543  -2.9843   0.00    0.0
2017/09/27 01:13:30.000   45.709771649   13.763510695   318.4761   5   7   3.1379   2.5972   5.7269  -1.9924   1.9660  -2.9794   0.00    0.0
2017/09/27 01:14:00.000   45.709760035   13.763523692   318.6949   5   7   3.1354   2.6030   5.7109  -1.9978   1.9775  -2.9744   0.00    0.0
2017/09/27 01:14:30.000   45.709759899   13.763525409   318.6728   5   6   3.9637   3.0517   6.0204  -2.8030   0.9286  -2.0183   0.00    0.0
2017/09/27 01:15:00.000   45.709761537   13.763521021   318.8246   5   6   3.9543   3.0536   6.0061  -2.8008   0.9557  -2.0147   0.00    0.0
2017/09/27 01:15:30.000   45.709757968   13.763523917   319.4274   5   6   3.9448   3.0554   5.9916  -2.7984   0.9819  -2.0110   0.00    0.0
2017/09/27 01:16:00.000   45.709759979   13.763525532   318.2652   5   6   3.9353   3.0572   5.9771  -2.7959   1.0073  -2.0072   0.00    0.0
2017/09/27 01:16:30.000   45.709766402   13.763513334   317.6790   5   6   3.9257   3.0588   5.9625  -2.7932   1.0320  -2.0035   0.00    0.0
2017/09/27 01:17:00.000   45.709761879   13.763521624   320.2105   5   6   3.9161   3.0604   5.9477  -2.7903   1.0560  -1.9996   0.00    0.0
2017/09/27 01:17:30.000   45.709767436   13.763515557   318.2723   5   6   3.9064   3.0620   5.9330  -2.7874   1.0793  -1.9957   0.00    0.0
2017/09/27 01:18:00.000   45.709764905   13.763514333   319.2055   5   6   3.8966   3.0635   5.9181  -2.7843   1.1021  -1.9918   0.00    0.0
2017/09/27 01:18:30.000   45.709767260   13.763513837   317.7374   5   6   3.8868   3.0649   5.9032  -2.7810   1.1242  -1.9878   0.00    0.0
2017/09/27 01:19:00.000   45.709765680   13.763516567   318.5266   5   6   3.8769   3.0662   5.8881  -2.7777   1.1458  -1.9837   0.00    0.0
2017/09/27 01:19:30.000   45.709762051   13.763515208   319.2634   5   6   3.8670   3.0675   5.8731  -2.7742   1.1669  -1.9795   0.00    0.0
2017/09/27 01:20:00.000   45.709760965   13.763517218   319.0922   5   6   3.8570   3.0687   5.8579  -2.7705   1.1874  -1.9753   0.00    0.0
2017/09/27 01:20:30.000   45.709764788   13.763519801   318.8095   5   6   3.8470   3.0699   5.8428  -2.7668   1.2074  -1.9710   0.00    0.0
2017/09/27 01:21:00.000   45.709762140   13.763519000   318.6739   5   6   3.8370   3.0710   5.8275  -2.7629   1.2270  -1.9666   0.00    0.0
2017/09/27 01:21:30.000   45.709771403   13.763513308   318.8439   5   6   3.8269   3.0721   5.8122  -2.7589   1.2460  -1.9621   0.00    0.0
2017/09/27 01:22:00.000   45.709767627   13.763516453   318.8221   5   6   3.8167   3.0731   5.7969  -2.7547   1.2647  -1.9576   0.00    0.0
2017/09/27 01:22:30.000   45.709762627   13.763519160   319.7302   5   6   3.8066   3.0741   5.7815  -2.7505   1.2829  -1.9529   0.00    0.0
2017/09/27 01:23:00.000   45.709768396   13.763508723   319.0389   5   6   3.7964   3.0750   5.7661  -2.7462   1.3006  -1.9482   0.00    0.0
2017/09/27 01:23:30.000   45.709762067   13.763519221   319.3606   5   6   3.7862   3.0759   5.7506  -2.7417   1.3180  -1.9434   0.00    0.0
2017/09/27 01:24:00.000   45.709764843   13.763518338   318.3794   5   6   3.7759   3.0767   5.7351  -2.7371   1.3350  -1.9385   0.00    0.0
2017/09/27 01:24:30.000   45.709764168   13.763513515   318.7942   5   6   3.7657   3.0775   5.7196  -2.7324   1.3515  -1.9335   0.00    0.0
2017/09/27 01:25:00.000   45.709764763   13.763521120   319.5503   5   6   3.7554   3.0782   5.7040  -2.7276   1.3677  -1.9284   0.00    0.0
2017/09/27 01:25:30.000   45.709763062   13.763520117   319.1862   5   6   3.7451   3.0789   5.6885  -2.7228   1.3836  -1.9232   0.00    0.0
2017/09/27 01:26:00.000   45.709765992   13.763517278   319.0122   5   6   3.7348   3.0796   5.6729  -2.7178   1.3991  -1.9179   0.00    0.0
2017/09/27 01:26:30.000   45.709763311   13.763518992   319.0122   5   6   3.7245   3.0802   5.6573  -2.7127   1.4142  -1.9125   0.00    0.0
2017/09/27 01:27:00.000   45.709766089   13.763517250   318.7649   5   6   3.7141   3.0808   5.6417  -2.7075   1.4290  -1.9070   0.00    0.0
2017/09/27 01:27:30.000   45.709769703   13.763512116   319.0688   5   6   3.7038   3.0814   5.6261  -2.7022   1.4435  -1.9015   0.00    0.0
2017/09/27 01:28:00.000   45.709769868   13.763510523   319.3103   5   6   3.6935   3.0819   5.6104  -2.6969   1.4576  -1.8958   0.00    0.0
2017/09/27 01:28:30.000   45.709765875   13.763513049   317.9426   5   6   3.6831   3.0824   5.5948  -2.6914   1.4714  -1.8900   0.00    0.0
2017/09/27 01:29:00.000   45.709763549   13.763519213   318.9064   5   6   3.6728   3.0829   5.5792  -2.6859   1.4850  -1.8842   0.00    0.0
2017/09/27 01:29:30.000   45.709766206   13.763513219   318.0043   5   6   3.6624   3.0833   5.5636  -2.6803   1.4982  -1.8782   0.00    0.0
2017/09/27 01:30:00.000   45.709766319   13.763504844   318.4284   5   6   3.6521   3.0837   5.5480  -2.6746   1.5112  -1.8722   0.00    0.0
2017/09/27 01:30:30.000   45.709766164   13.763518598   318.9278   5   6   3.6418   3.0841   5.5324  -2.6688   1.5238  -1.8660   0.00    0.0
2017/09/27 01:31:00.000   45.709764856   13.763511093   319.0411   5   7   2.7075   2.4651   4.8542  -1.6137  -1.5812   1.6987   0.00    0.0
2017/09/27 01:31:30.000   45.709761312   13.763515946   318.6220   5   7   2.7021   2.4625   4.8454  -1.6063  -1.5631   1.6867   0.00    0.0
2017/09/27 01:32:00.000   45.709767326   13.763515501   318.7031   5   7   2.6968   2.4599   4.8366  -1.5989  -1.5448   1.6747   0.00    0.0
2017/09/27 01:32:30.000   45.709765274   13.763510468   319.3654   5   8   2.4970   1.9889   4.2979  -1.0405   0.9186   0.7447   0.00    0.0
2017/09/27 01:33:00.000   45.709774591   13.763509991   318.0918   5   8   2.4951   1.9887   4.2992  -1.0372   0.9273   0.7458   0.00    0.0
2017/09/27 01:33:30.000   45.709766076   13.763515028   318.6694   5   8   2.4932   1.9885   4.3005  -1.0339   0.9360   0.7469   0.00    0.0
2017/09/27 01:34:00.000   45.709766414   13.763509716   318.8742   5   8   2.4914   1.9884   4.3017  -1.0307   0.9446   0.7480   0.00    0.0
2017/09/27 01:34:30.000   45.709764150   13.763516621   318.7073   5   8   2.4896   1.9882   4.3029  -1.0274   0.9531   0.7492   0.00    0.0
2017/09/27 01:35:00.000   45.709765539   13.763510181   318.4973   5   8   2.4880   1.9882   4.3040  -1.0242   0.9615   0.7504   0.00    0.0
2017/09/27 01:35:30.000   45.709772897   13.763506233   318.5688   5   8   2.4864   1.9881   4.3050  -1.0210   0.9699   0.7516   0.00    0.0
2017/09/27 01:36:00.000   45.709769503   13.763512691   318.9908   5   8   2.4849   1.9881   4.3060  -1.0178   0.9782   0.7529   0.00    0.0
2017/09/27 01:36:30.000   45.709766546   13.763511834   318.7896   5   8   2.4834   1.9881   4.3068  -1.0147   0.9863   0.7542   0.00    0.0
2017/09/27 01:37:00.000   45.709767341   13.763512437   318.4764   5   8   2.4821   1.9882   4.3076  -1.0115   0.9945   0.7556   0.00    0.0
2017/09/27 01:37:30.000   45.709773133   13.763509418   318.6106   5   8   2.4808   1.9883   4.3084  -1.0084   1.0025   0.7570   0.00    0.0
2017/09/27 01:38:00.000   45.709767593   13.763520322   318.9869   5   8   2.4795   1.9884   4.3090  -1.0052   1.0104   0.7585   0.00    0.0
2017/09/27 01:38:30.000   45.709767656   13.763514580   319.5865   5   8   2.4784   1.9885   4.3096  -1.0021   1.0183   0.7600   0.00    0.0
2017/09/27 01:39:00.000   45.709767178   13.763514582   319.4858   5   8   2.4773   1.9887   4.3101  -0.9990   1.0261   0.7615   0.00    0.0
2017/09/27 01:39:30.000   45.709771013   13.763517668   319.2724   5   8   2.4762   1.9890   4.3105  -0.9959   1.0338   0.7632   0.00    0.0
2017/09/27 01:40:00.000   45.709764533   13.763515918   319.7694   5   8   2.4753   1.9892   4.3109  -0.9929   1.0415   0.7648   0.00    0.0
2017/09/27 01:40:30.000   45.709758205   13.763518175   319.3854   5   8   2.4744   1.9895   4.3112  -0.9898   1.0491   0.7666   0.00    0.0
2017/09/27 01:41:00.000   45.709763901   13.763519413   319.7003   5   8   2.4736   1.9898   4.3114  -0.9867   1.0566   0.7683   0.00    0.0
2017/09/27 01:41:30.000   45.709763343   13.763512344   319.2553   5   8   2.4728   1.9902   4.3115  -0.9837   1.0640   0.7702   0.00    0.0
2017/09/27 01:42:00.000   45.709767714   13.763510032   318.9885   5   8   2.4721   1.9906   4.3115  -0.9806   1.0713   0.7721   0.00    0.0
2017/09/27 01:42:30.000   45.709765358   13.763511006   319.0608   5   8   2.4715   1.9910   4.3115  -0.9776   1.0786   0.7741   0.00    0.0
2017/09/27 01:43:00.000   45.709766687   13.763507488   318.7450   5   8   2.4709   1.9915   4.3114  -0.9746   1.0858   0.7761   0.00    0.0
2017/09/27 01:43:30.000   45.709766777   13.763506520   318.1289   5   8   2.4704   1.9919   4.3112  -0.9715   1.0930   0.7782   0.00    0.0
2017/09/27 01:44:00.000   45.709767559   13.763507927   318.9103   5   8   2.4700   1.9925   4.3109  -0.9685   1.1000   0.7803   0.00    0.0
2017/09/27 01:44:30.000   45.709767959   13.763507019   318.8268   5   8   2.4697   1.9930   4.3105  -0.9655   1.1070   0.7826   0.00    0.0
2017/09/27 01:45:00.000   45.709763696   13.763515005   319.1431   5   8   2.4694   1.9936   4.3101  -0.9625   1.1140   0.7848   0.00    0.0
2017/09/27 01:45:30.000   45.709771046   13.763507422   318.7107   5   8   2.4691   1.9942   4.3096  -0.9595   1.1208   0.7872   0.00    0.0
2017/09/27 01:46:00.000   45.709767437   13.763510124   318.5567   5   8   2.4690   1.9948   4.3090  -0.9565   1.1276   0.7896   0.00    0.0
2017/09/27 01:46:30.000   45.709767006   13.763513771   318.6623   5   8   2.4689   1.9955   4.3083  -0.9535   1.1343   0.7921   0.00    0.0
2017/09/27 01:47:00.000   45.709770210   13.763517135   318.9352   5   8   2.4689   1.9962   4.3076  -0.9505   1.1410   0.7947   0.00    0.0
2017/09/27 01:47:30.000   45.709766440   13.763509699   318.9165   5   8   2.4689   1.9970   4.3068  -0.9475   1.1476   0.7973   0.00    0.0
2017/09/27 01:48:00.000   45.709769151   13.763509164   318.7617   5   8   2.4690   1.9977   4.3059  -0.9445   1.1541   0.8000   0.00    0.0
2017/09/27 01:48:30.000   45.709767209   13.763511778   319.1305   5   8   2.4692   1.9985   4.3050  -0.9415   1.1605   0.8027   0.00    0.0
2017/09/27 01:49:00.000   45.709766342   13.763507687   317.9014   5   8   2.4694   1.9994   4.3040  -0.9385   1.1669   0.8056   0.00    0.0
2017/09/27 01:49:30.000   45.709769349   13.763506980   318.5530   5   8   2.4697   2.0002   4.3029  -0.9354   1.1733   0.8085   0.00    0.0
2017/09/27 01:50:00.000   45.709768283   13.763513089   318.7417   5   8   2.4700   2.0011   4.3017  -0.9324   1.1795   0.8115   0.00    0.0
2017/09/27 01:50:30.000   45.709765179   13.763512668   319.4022   5   8   2.4705   2.0020   4.3005  -0.9294   1.1857   0.8145   0.00    0.0
2017/09/27 01:51:00.000   45.709766576   13.763513043   319.3299   5   8   2.4710   2.0030   4.2992  -0.9264   1.1919   0.8176   0.00    0.0
2017/09/27 01:51:30.000   45.709772726   13.763510312   319.0823   5   8   2.4715   2.0039   4.2979  -0.9234   1.1979   0.8208   0.00    0.0
2017/09/27 01:52:00.000   45.709771331   13.763506191   318.9135   5   8   2.4721   2.0049   4.2965  -0.9204   1.2039   0.8241   0.00    0.0
2017/09/27 01:52:30.000   45.709765004   13.763514371   318.5956   5   8   2.4728   2.0060   4.2951  -0.9173   1.2099   0.8274   0.00    0.0
2017/09/27 01:53:00.000   45.709764753   13.763508449   318.9508   5   8   2.4736   2.0070   4.2936  -0.9143   1.2158   0.8308   0.00    0.0
2017/09/27 01:53:30.000   45.709766196   13.763506086   318.6209   5   8   2.4744   2.0081   4.2920  -0.9113   1.2216   0.8343   0.00    0.0
2017/09/27 01:54:00.000   45.709766100   13.763507650   318.9201   5   8   2.4753   2.0093   4.2904  -0.9082   1.2274   0.8379   0.00    0.0
2017/09/27 01:54:30.000   45.709763483   13.763507855   319.0561   5   8   2.4763   2.0104   4.2888  -0.9052   1.2331   0.8415   0.00    0.0
2017/09/27 01:55:00.000   45.709764873   13.763511448   319.5026   5   8   2.4773   2.0116   4.2871  -0.9021   1.2388   0.8452   0.00    0.0
2017/09/27 01:55:30.000   45.709768996   13.763509429   318.7463   5   9   2.2250   1.9153   4.1216  -0.3641   1.5082  -0.7485   0.00    0.0
2017/09/27 01:56:00.000   45.709767830   13.763512227   318.7660   5   9   2.2258   1.9161   4.1227  -0.3530   1.5113  -0.7372   0.00    0.0
2017/09/27 01:56:30.000   45.709767639   13.763511611   319.0846   5   9   2.2266   1.9169   4.1238  -0.3415   1.5143  -0.7255   0.00    0.0
2017/09/27 01:57:00.000   45.709762471   13.763508597   318.7791   5   9   2.2275   1.9177   4.1249  -0.3295   1.5172  -0.7135   0.00    0.0
2017/09/27 01:57:30.000   45.709765601   13.763508906   319.1711   5   9   2.2286   1.9185   4.1259  -0.3170   1.5201  -0.7011   0.00    0.0
2017/09/27 01:58:00.000   45.709769484   13.763507286   318.2368   5   8   2.5484   1.9627   4.4050   0.6429   1.2993  -1.5411   0.00    0.0
2017/09/27 01:58:30.000   45.709767424   13.763500924   318.8323   5   8   2.5486   1.9629   4.4095   0.6455   1.3030  -1.5385   0.00    0.0
2017/09/27 01:59:00.000   45.709763739   13.763507727   319.2219   5   8   2.5489   1.9631   4.4139   0.6482   1.3066  -1.5358   0.00    0.0
2017/09/27 01:59:30.000   45.709767210   13.763507215   319.4392   5   8   2.5492   1.9634   4.4183   0.6508   1.3102  -1.5329   0.00    0.0
2017/09/27 02:00:00.000   45.709762836   13.763508968   318.7048   5   8   2.5495   1.9636   4.4226   0.6535   1.3139  -1.5298   0.00    0.0
2017/09/27 02:00:30.000   45.709760038   13.763510037   319.2473   5   8   2.5499   1.9640   4.4268   0.6562   1.3175  -1.5265   0.00    0.0
2017/09/27 02:01:00.000   45.709766777   13.763509999   319.3138   5   8   2.5503   1.9643   4.4309   0.6588   1.3211  -1.5230   0.00    0.0
2017/09/27 02:01:30.000   45.709760545   13.763505022   319.1673   5   8   2.5508   1.9647   4.4349   0.6615   1.3248  -1.5193   0.00    0.0
2017/09/27 02:02:00.000   45.709766319   13.763508704   318.5335   5   8   2.5513   1.9651   4.4389   0.6642   1.3284  -1.5154   0.00    0.0
2017/09/27 02:02:30.000   45.709766075   13.763511343   318.9539   5   8   2.5518   1.9655   4.4428   0.6669   1.3320  -1.5113   0.00    0.0
2017/09/27 02:03:00.000   45.709769289   13.763515733   319.7746   5   7   3.4751   2.0979   4.9361   1.4749   1.8312   1.6683   0.00    0.0
2017/09/27 02:03:30.000   45.709769908   13.763508490   319.4882   5   7   3.4784   2.1006   4.9568   1.4823   1.8456   1.7027   0.00    0.0
2017/09/27 02:04:00.000   45.709770718   13.763507246   318.9324   5   7   3.4818   2.1034   4.9777   1.4897   1.8600   1.7370   0.00    0.0
2017/09/27 02:04:30.000   45.709772756   13.763513854   319.4031   5   7   3.4853   2.1062   4.9989   1.4972   1.8745   1.7710   0.00    0.0
2017/09/27 02:05:00.000   45.709764926   13.763508036   319.2597   5   7   3.4889   2.1090   5.0204   1.5047   1.8892   1.8049   0.00    0.0
2017/09/27 02:05:30.000   45.709766948   13.763510456   318.5335   5   7   3.4926   2.1119   5.0421   1.5122   1.9039   1.8386   0.00    0.0
2017/09/27 02:06:00.000   45.709770718   13.763507790   319.1891   5   7   3.4965   2.1149   5.0640   1.5198   1.9187   1.8722   0.00    0.0
2017/09/27 02:06:30.000   45.709770708   13.763508779   319.0442   5   7   3.5005   2.1179   5.0863   1.5274   1.9335   1.9056   0.00    0.0
2017/09/27 02:07:00.000   45.709770818   13.763513016   319.9385   5   7   3.5046   2.1209   5.1087   1.5351   1.9485   1.9389   0.00    0.0
2017/09/27 02:07:30.000   45.709771681   13.763506026   318.8304   5   7   3.5089   2.1240   5.1315   1.5428   1.9635   1.9721   0.00    0.0
2017/09/27 02:08:00.000   45.709770892   13.763507117   319.0688   5   7   3.5132   2.1272   5.1544   1.5505   1.9786   2.0051   0.00    0.0
2017/09/27 02:08:30.000   45.709769950   13.763512832   319.4266   5   7   3.5177   2.1304   5.1776   1.5582   1.9938   2.0380   0.00    0.0
2017/09/27 02:09:00.000   45.709769942   13.763507396   319.8257   5   7   3.5222   2.1336   5.2011   1.5660   2.0090   2.0708   0.00    0.0
2017/09/27 02:09:30.000   45.709764066   13.763511183   319.3700   5   7   3.5269   2.1369   5.2247   1.5738   2.0243   2.1035   0.00    0.0
2017/09/27 02:10:00.000   45.709774171   13.763507452   319.2294   5   7   3.5317   2.1402   5.2487   1.5817   2.0397   2.1360   0.00    0.0
2017/09/27 02:10:30.000   45.709770800   13.763513767   319.5389   5   7   3.5367   2.1436   5.2728   1.5896   2.0551   2.1684   0.00    0.0
2017/09/27 02:11:00.000   45.709769729   13.763510543   319.9199   5   7   3.5417   2.1470   5.2972   1.5975   2.0706   2.2007   0.00    0.0
2017/09/27 02:11:30.000   45.709765749   13.763502948   319.4493   5   7   3.5468   2.1504   5.3217   1.6054   2.0861   2.2329   0.00    0.0
2017/09/27 02:12:00.000   45.709769047   13.763514201   320.1852   5   8   3.4313   2.0536   4.8955   1.7886   1.7381   2.6653   0.00    0.0
2017/09/27 02:12:30.000   45.709770796   13.763513791   320.8738   5   8   3.4401   2.0552   4.9198   1.7952   1.7516   2.6888   0.00    0.0
2017/09/27 02:13:00.000   45.709765874   13.763510607   320.1116   5   8   3.4489   2.0569   4.9441   1.8018   1.7651   2.7124   0.00    0.0
2017/09/27 02:13:30.000   45.709764696   13.763508974   319.9144   5   8   3.4577   2.0585   4.9687   1.8084   1.7787   2.7360   0.00    0.0
2017/09/27 02:14:00.000   45.709771258   13.763514794   319.9667   5   8   3.4667   2.0601   4.9934   1.8149   1.7922   2.7595   0.00    0.0
2017/09/27 02:14:30.000   45.709772797   13.763515068   320.9586   5   8   3.4756   2.0618   5.0182   1.8214   1.8057   2.7831   0.00    0.0
2017/09/27 02:15:00.000   45.709766757   13.763514293   320.7355   5   8   3.4846   2.0634   5.0432   1.8278   1.8192   2.8066   0.00    0.0
2017/09/27 02:15:30.000   45.709764296   13.763512100   320.3670   5   8   3.4937   2.0650   5.0683   1.8342   1.8326   2.8302   0.00    0.0
2017/09/27 02:16:00.000   45.709773076   13.763518796   320.6696   5   8   3.5028   2.0666   5.0935   1.8405   1.8460   2.8536   0.00    0.0
2017/09/27 02:16:30.000   45.709767390   13.763514545   320.5980   5   9   2.4970   1.8337   4.2987   1.0239   0.8936   1.1896   0.00    0.0
2017/09/27 02:17:00.000   45.709764946   13.763509600   319.4124   5   9   2.4972   1.8330   4.3138   1.0233   0.9013   1.2070   0.00    0.0
2017/09/27 02:17:30.000   45.709765296   13.763511445   319.6522   5   9   2.4976   1.8323   4.3290   1.0228   0.9089   1.2243   0.00    0.0
2017/09/27 02:18:00.000   45.709766556   13.763517041   320.1012   5   9   2.4980   1.8316   4.3443   1.0222   0.9166   1.2416   0.00    0.0
2017/09/27 02:18:30.000   45.709767705   13.763513483   320.6952   5   9   2.4984   1.8309   4.3597   1.0217   0.9243   1.2589   0.00    0.0
2017/09/27 02:19:00.000   45.709771001   13.763512766   319.9773   5   9   2.4990   1.8303   4.3752   1.0211   0.9320   1.2762   0.00    0.0
2017/09/27 02:19:30.000   45.709767947   13.763513941   320.6245   5   9   2.4997   1.8296   4.3907   1.0206   0.9397   1.2934   0.00    0.0
2017/09/27 02:20:00.000   45.709766900   13.763515438   320.2252   5   9   2.5004   1.8290   4.4064   1.0200   0.9474   1.3106   0.00    0.0
2017/09/27 02:20:30.000   45.709764029   13.763511621   320.5044   5   9   2.5012   1.8284   4.4221   1.0195   0.9552   1.3278   0.00    0.0
2017/09/27 02:21:00.000   45.709770764   13.763514997   320.7431   5   9   2.5021   1.8278   4.4379   1.0189   0.9629   1.3449   0.00    0.0
2017/09/27 02:21:30.000   45.709774727   13.763507912   319.9381   5   9   2.5030   1.8272   4.4537   1.0183   0.9706   1.3619   0.00    0.0
2017/09/27 02:22:00.000   45.709766073   13.763516020   319.6317   5   9   2.5041   1.8266   4.4697   1.0178   0.9784   1.3790   0.00    0.0
2017/09/27 02:22:30.000   45.709762470   13.763511179   319.6025   5   9   2.5052   1.8260   4.4857   1.0172   0.9861   1.3960   0.00    0.0
2017/09/27 02:23:00.000   45.709765484   13.763511359   319.8561   5   9   2.5063   1.8255   4.5017   1.0166   0.9938   1.4129   0.00    0.0
2017/09/27 02:23:30.000   45.709765661   13.763513789   320.1880   5   9   2.5076   1.8249   4.5178   1.0160   1.0015   1.4298   0.00    0.0
2017/09/27 02:24:00.000   45.709764929   13.763513982   320.3923   5   9   2.5089   1.8244   4.5340   1.0154   1.0092   1.4466   0.00    0.0
2017/09/27 02:24:30.000   45.709771836   13.763509353   319.6364   5   9   2.5103   1.8239   4.5502   1.0148   1.0168   1.4634   0.00    0.0
2017/09/27 02:25:00.000   45.709766192   13.763513735   320.5695   5   9   2.5118   1.8234   4.5665   1.0142   1.0245   1.4801   0.00    0.0
2017/09/27 02:25:30.000   45.709762980   13.763515189   320.1239   5   9   2.5133   1.8229   4.5827   1.0135   1.0321   1.4968   0.00    0.0
2017/09/27 02:26:00.000   45.709766377   13.763513384   319.8407   5   9   2.5149   1.8224   4.5991   1.0129   1.0396   1.5134   0.00    0.0
2017/09/27 02:26:30.000   45.709772891   13.763511946   320.3443   5   9   2.5166   1.8219   4.6154   1.0122   1.0472   1.5300   0.00    0.0
2017/09/27 02:27:00.000   45.709766705   13.763517382   320.4743   5   9   2.5183   1.8214   4.6317   1.0115   1.0547   1.5464   0.00    0.0
2017/09/27 02:27:30.000   45.709767039   13.763510163   320.2994   5   9   2.5201   1.8210   4.6481   1.0108   1.0622   1.5628   0.00    0.0
2017/09/27 02:28:00.000   45.709771068   13.763513280   319.6513   5   9   2.5220   1.8205   4.6645   1.0101   1.0696   1.5792   0.00    0.0
2017/09/27 02:28:30.000   45.709770125   13.763512331   320.2131   5   9   2.5239   1.8201   4.6809   1.0094   1.0769   1.5954   0.00    0.0
2017/09/27 02:29:00.000   45.709768295   13.763513031   320.1411   5   9   2.5259   1.8197   4.6972   1.0086   1.0842   1.6116   0.00    0.0
2017/09/27 02:29:30.000   45.709769902   13.763516011   320.5936   5   9   2.5279   1.8192   4.7136   1.0079   1.0915   1.6276   0.00    0.0
2017/09/27 02:30:00.000   45.709766712   13.763513197   320.9294   5   9   2.5300   1.8188   4.7299   1.0071   1.0987   1.6436   0.00    0.0
2017/09/27 02:30:30.000   45.709767112   13.763514178   320.6350   5   9   2.5321   1.8184   4.7462   1.0062   1.1058   1.6595   0.00    0.0
2017/09/27 02:31:00.000   45.709767327   13.763512991   320.1440   5   9   2.5343   1.8180   4.7625   1.0054   1.1129   1.6753   0.00    0.0
2017/09/27 02:31:30.000   45.709772400   13.763510259   320.3960   5   9   2.5366   1.8176   4.7788   1.0045   1.1199   1.6910   0.00    0.0
2017/09/27 02:32:00.000   45.709772110   13.763516191   320.1929   5   9   2.5389   1.8172   4.7950   1.0036   1.1268   1.7065   0.00    0.0
2017/09/27 02:32:30.000   45.709770192   13.763514322   320.5761   5   9   2.5413   1.8168   4.8111   1.0026   1.1336   1.7220   0.00    0.0
2017/09/27 02:33:00.000   45.709771482   13.763515265   321.1278   5   9   2.5437   1.8165   4.8272   1.0017   1.1403   1.7373   0.00    0.0
2017/09/27 02:33:30.000   45.709771523   13.763520281   320.0771   5   9   2.5461   1.8161   4.8432   1.0006   1.1470   1.7525   0.00    0.0
2017/09/27 02:34:00.000   45.709768540   13.763511409   320.8532   5   9   2.5486   1.8157   4.8592   0.9996   1.1536   1.7676   0.00    0.0
2017/09/27 02:34:30.000   45.709765180   13.763515060   320.2565   5   9   2.5512   1.8154   4.8750   0.9985   1.1600   1.7826   0.00    0.0
2017/09/27 02:35:00.000   45.709772087   13.763513229   320.7065   5   9   2.5538   1.8150   4.8908   0.9974   1.1664   1.7974   0.00    0.0
2017/09/27 02:35:30.000   45.709767594   13.763514413   321.5808   5   9   2.5564   1.8147   4.9065   0.9962   1.1726   1.8120   0.00    0.0
2017/09/27 02:36:00.000   45.709769002   13.763514623   320.8112   5   9   2.5590   1.8143   4.9220   0.9950   1.1788   1.8265   0.00    0.0
2017/09/27 02:36:30.000   45.709766642   13.763512836   321.2946   5   9   2.5617   1.8140   4.9375   0.9937   1.1848   1.8409   0.00    0.0
2017/09/27 02:37:00.000   45.709765698   13.763513584   320.4893   5   9   2.5644   1.8136   4.9528   0.9924   1.1907   1.8551   0.00    0.0
2017/09/27 02:37:30.000   45.709766851   13.763513889   320.8102   5   9   2.5672   1.8133   4.9680   0.9910   1.1965   1.8691   0.00    0.0
2017/09/27 02:38:00.000   45.709766938   13.763514455   320.4879   5   9   2.5700   1.8130   4.9830   0.9896   1.2022   1.8829   0.00    0.0
2017/09/27 02:38:30.000   45.709770793   13.763512538   320.3589   5   9   2.5728   1.8126   4.9979   0.9881   1.2077   1.8966   0.00    0.0
2017/09/27 02:39:00.000   45.709767005   13.763517245   320.7307   5   9   2.5756   1.8123   5.0126   0.9866   1.2131   1.9101   0.00    0.0
2017/09/27 02:39:30.000   45.709766734   13.763508469   320.5346   5   9   2.5785   1.8120   5.0272   0.9850   1.2183   1.9234   0.00    0.0
2017/09/27 02:40:00.000   45.709772774   13.763510939   320.4881   5   9   2.5813   1.8117   5.0416   0.9833   1.2234   1.9364   0.00    0.0
2017/09/27 02:40:30.000   45.709767032   13.763513893   320.9779   5   9   2.5842   1.8113   5.0558   0.9816   1.2283   1.9493   0.00    0.0
2017/09/27 02:41:00.000   45.709768254   13.763514093   320.6238   5   9   2.5871   1.8110   5.0698   0.9798   1.2331   1.9620   0.00    0.0
2017/09/27 02:41:30.000   45.709769899   13.763514751   321.0944   5   9   2.5900   1.8107   5.0836   0.9779   1.2378   1.9744   0.00    0.0
2017/09/27 02:42:00.000   45.709768744   13.763512982   320.6200   5   9   2.5929   1.8103   5.0972   0.9760   1.2422   1.9866   0.00    0.0
2017/09/27 02:42:30.000   45.709769501   13.763510366   321.0069   5   9   2.5959   1.8100   5.1105   0.9739   1.2465   1.9986   0.00    0.0
2017/09/27 02:43:00.000   45.709766557   13.763508005   320.8854   5   9   2.5988   1.8097   5.1237   0.9718   1.2506   2.0103   0.00    0.0
2017/09/27 02:43:30.000   45.709769519   13.763510473   320.7673   5   9   2.6017   1.8094   5.1366   0.9696   1.2546   2.0218   0.00    0.0
2017/09/27 02:44:00.000   45.709768898   13.763514104   320.7496   5   9   2.6046   1.8090   5.1492   0.9673   1.2583   2.0331   0.00    0.0
2017/09/27 02:44:30.000   45.709772167   13.763508918   321.0391   5   9   2.6075   1.8087   5.1617   0.9649   1.2619   2.0441   0.00    0.0
2017/09/27 02:45:00.000   45.709769569   13.763518826   321.8527   5   9   2.6105   1.8084   5.1738   0.9625   1.2653   2.0548   0.00    0.0
2017/09/27 02:45:30.000   45.709770194   13.763519069   321.2571   5   9   2.6134   1.8080   5.1857   0.9599   1.2685   2.0652   0.00    0.0
2017/09/27 02:46:00.000   45.709769172   13.763512170   321.0739   5   9   2.6163   1.8077   5.1973   0.9573   1.2714   2.0754   0.00    0.0
2017/09/27 02:46:30.000   45.709771469   13.763514869   320.8719   5   9   2.6191   1.8073   5.2086   0.9545   1.2742   2.0852   0.00    0.0
2017/09/27 02:47:00.000   45.709772087   13.763518272   321.1856   5   9   2.6220   1.8070   5.2196   0.9516   1.2768   2.0948   0.00    0.0
2017/09/27 02:47:30.000   45.709774185   13.763514638   319.9658   5   8   2.8708   1.9571   5.7076   1.3322  -0.2881   1.3307   0.00    0.0
2017/09/27 02:48:00.000   45.709779184   13.763510770   320.2998   5   8   2.8696   1.9545   5.7313   1.3248  -0.3006   1.3379   0.00    0.0
2017/09/27 02:48:30.000   45.709776994   13.763517748   320.6783   5   8   2.8683   1.9520   5.7547   1.3173  -0.3129   1.3449   0.00    0.0
2017/09/27 02:49:00.000   45.709774400   13.763511538   319.8329   5   8   2.8670   1.9495   5.7780   1.3097  -0.3248   1.3518   0.00    0.0
2017/09/27 02:49:30.000   45.709777703   13.763516662   320.6827   5   8   2.8657   1.9470   5.8011   1.3020  -0.3366   1.3584   0.00    0.0
2017/09/27 02:50:00.000   45.709773580   13.763517507   321.2795   5   8   2.8645   1.9445   5.8240   1.2943  -0.3481   1.3649   0.00    0.0
2017/09/27 02:50:30.000   45.709772901   13.763515979   320.4496   5   8   2.8632   1.9420   5.8466   1.2864  -0.3594   1.3713   0.00    0.0
2017/09/27 02:51:00.000   45.709772817   13.763520261   321.5313   5   8   2.8619   1.9395   5.8690   1.2785  -0.3706   1.3774   0.00    0.0
2017/09/27 02:51:30.000   45.709774077   13.763513553   320.8211   5   8   2.8606   1.9371   5.8911   1.2705  -0.3816   1.3833   0.00    0.0
2017/09/27 02:52:00.000   45.709775765   13.763517475   321.3030   5   8   2.8593   1.9347   5.9130   1.2624  -0.3925   1.3890   0.00    0.0
2017/09/27 02:52:30.000   45.709772064   13.763513613   321.2351   5   8   2.8580   1.9323   5.9345   1.2542  -0.4032   1.3945   0.00    0.0
2017/09/27 02:53:00.000   45.709776403   13.763518721   320.8630   5   8   2.8567   1.9299   5.9557   1.2459  -0.4138   1.3997   0.00    0.0
2017/09/27 02:53:30.000   45.709777798   13.763516450   321.1530   5   8   2.8553   1.9275   5.9766   1.2375  -0.4243   1.4047   0.00    0.0
2017/09/27 02:54:00.000   45.709776351   13.763513281   322.0582   5   8   2.8540   1.9252   5.9972   1.2291  -0.4347   1.4095   0.00    0.0
2017/09/27 02:54:30.000   45.709774406   13.763518559   321.9193   5   8   2.8527   1.9228   6.0173   1.2205  -0.4450   1.4140   0.00    0.0
2017/09/27 02:55:00.000   45.709775058   13.763516074   320.6004   5   8   2.8514   1.9205   6.0371   1.2119  -0.4552   1.4183   0.00    0.0
2017/09/27 02:55:30.000   45.709773574   13.763519661   321.8950   5   8   2.8500   1.9182   6.0565   1.2032  -0.4653   1.4224   0.00    0.0
2017/09/27 02:56:00.000   45.709776921   13.763516656   321.0722   5   8   2.8487   1.9160   6.0755   1.1943  -0.4753   1.4261   0.00    0.0
2017/09/27 02:56:30.000   45.709778478   13.763520594   321.4932   5   8   2.8473   1.9137   6.0941   1.1854  -0.4853   1.4296   0.00    0.0
2017/09/27 02:57:00.000   45.709778974   13.763518124   321.1582   5   8   2.8460   1.9115   6.1121   1.1764  -0.4951   1.4328   0.00    0.0
2017/09/27 02:57:30.000   45.709775967   13.763514743   321.2051   5   8   2.8447   1.9093   6.1298   1.1673  -0.5048   1.4357   0.00    0.0
2017/09/27 02:58:00.000   45.709774027   13.763516154   321.6976   5   8   2.8433   1.9072   6.1469   1.1581  -0.5145   1.4383   0.00    0.0
2017/09/27 02:58:30.000   45.709775185   13.763513935   321.0201   5   8   2.8420   1.9050   6.1635   1.1488  -0.5241   1.4407   0.00    0.0
2017/09/27 02:59:00.000   45.709775484   13.763512374   321.9889   5   8   2.8406   1.9029   6.1797   1.1394  -0.5336   1.4427   0.00    0.0
2017/09/27 02:59:30.000   45.709776884   13.763518009   321.8260   5   8   2.8393   1.9008   6.1952   1.1299  -0.5430   1.4444   0.00    0.0
2017/09/27 03:00:00.000   45.709764970   13.763517525   323.0263   5   8   2.5925   1.8534   6.1512   0.8827  -0.8109   1.0504   0.00    0.0
2017/09/27 03:00:30.000   45.709764793   13.763522913   322.0833   5   8   2.5928   1.8519   6.1681   0.8729  -0.8116   1.0628   0.00    0.0
2017/09/27 03:01:00.000   45.709761052   13.763518726   321.3888   5   8   2.5932   1.8504   6.1845   0.8630  -0.8124   1.0748   0.00    0.0
2017/09/27 03:01:30.000   45.709758876   13.763518103   322.7361   5   8   2.5936   1.8489   6.2003   0.8530  -0.8130   1.0866   0.00    0.0
2017/09/27 03:02:00.000   45.709761035   13.763517493   322.6491   5   8   2.5940   1.8475   6.2155   0.8429  -0.8137   1.0980   0.00    0.0
2017/09/27 03:02:30.000   45.709767132   13.763520359   321.8242   5   8   2.5945   1.8460   6.2300   0.8326  -0.8142   1.1090   0.00    0.0
2017/09/27 03:03:00.000   45.709766102   13.763518847   322.0836   5   8   2.5950   1.8446   6.2440   0.8222  -0.8148   1.1198   0.00    0.0
2017/09/27 03:03:30.000   45.709763042   13.763515800   323.0371   5   8   2.5955   1.8433   6.2572   0.8117  -0.8153   1.1301   0.00    0.0
2017/09/27 03:04:00.000   45.709764759   13.763517895   322.1576   5   8   2.5960   1.8419   6.2698   0.8009  -0.8157   1.1402   0.00    0.0
2017/09/27 03:04:30.000   45.709761578   13.763517410   322.0356   5   8   2.5966   1.8406   6.2817   0.7901  -0.8162   1.1499   0.00    0.0
2017/09/27 03:05:00.000   45.709760754   13.763514777   322.5413   5   8   2.5973   1.8393   6.2929   0.7790  -0.8165   1.1592   0.00    0.0
2017/09/27 03:05:30.000   45.709762809   13.763522597   322.8887   5   8   2.5979   1.8380   6.3034   0.7678  -0.8169   1.1682   0.00    0.0
2017/09/27 03:06:00.000   45.709764724   13.763517721   322.5945   5   8   2.5986   1.8368   6.3131   0.7565  -0.8172   1.1768   0.00    0.0
2017/09/27 03:06:30.000   45.709760989   13.763518223   322.7924   5   8   2.5993   1.8356   6.3221   0.7449  -0.8174   1.1851   0.00    0.0
2017/09/27 03:07:00.000   45.709765179   13.763521918   321.7572   5   8   2.6000   1.8344   6.3304   0.7331  -0.8177   1.1930   0.00    0.0
2017/09/27 03:07:30.000   45.709760006   13.763513473   323.0927   5   8   2.6008   1.8333   6.3379   0.7212  -0.8178   1.2005   0.00    0.0
2017/09/27 03:08:00.000   45.709763179   13.763518230   322.7934   5   8   2.6016   1.8322   6.3446   0.7090  -0.8180   1.2076   0.00    0.0
2017/09/27 03:08:30.000   45.709765127   13.763518318   322.7582   5   8   2.6024   1.8311   6.3505   0.6966  -0.8181   1.2143   0.00    0.0
2017/09/27 03:09:00.000   45.709764152   13.763519165   322.9004   5   8   2.6033   1.8300   6.3556   0.6839  -0.8182   1.2207   0.00    0.0
2017/09/27 03:09:30.000   45.709762079   13.763515334   322.1735   5   8   2.6042   1.8290   6.3599   0.6710  -0.8182   1.2266   0.00    0.0
2017/09/27 03:10:00.000   45.709758591   13.763516326   322.1147   5   8   2.6051   1.8280   6.3634   0.6579  -0.8182   1.2322   0.00    0.0
2017/09/27 03:10:30.000   45.709762027   13.763521340   321.8655   5   8   2.6060   1.8270   6.3661   0.6444  -0.8182   1.2373   0.00    0.0
2017/09/27 03:11:00.000   45.709761401   13.763518742   322.0662   5   8   2.6070   1.8261   6.3679   0.6307  -0.8181   1.2421   0.00    0.0
2017/09/27 03:11:30.000   45.709768678   13.763517394   322.2129   5   8   2.6080   1.8252   6.3690   0.6167  -0.8180   1.2464   0.00    0.0
2017/09/27 03:12:00.000   45.709766030   13.763521471   322.2645   5   8   2.6090   1.8243   6.3692   0.6023  -0.8178   1.2504   0.00    0.0
2017/09/27 03:12:30.000   45.709768022   13.763519238   322.1366   5   8   2.6101   1.8234   6.3686   0.5875  -0.8176   1.2539   0.00    0.0
2017/09/27 03:13:00.000   45.709765872   13.763516894   322.9775   5   8   2.6111   1.8226   6.3672   0.5724  -0.8174   1.2571   0.00    0.0
2017/09/27 03:13:30.000   45.709765065   13.763515924   322.3121   5   8   2.6122   1.8219   6.3649   0.5568  -0.8172   1.2598   0.00    0.0
2017/09/27 03:14:00.000   45.709762791   13.763516585   322.5707   5   8   2.6133   1.8211   6.3619   0.5408  -0.8169   1.2621   0.00    0.0
2017/09/27 03:14:30.000   45.709766027   13.763519955   321.7785   5   8   2.6145   1.8204   6.3580   0.5243  -0.8166   1.2640   0.00    0.0
2017/09/27 03:15:00.000   45.709761612   13.763516023   321.4317   5   8   2.6157   1.8197   6.3533   0.5072  -0.8162   1.2655   0.00    0.0
2017/09/27 03:15:30.000   45.709761742   13.763517323   322.4246   5   8   2.6169   1.8190   6.3478   0.4895  -0.8158   1.2666   0.00    0.0
2017/09/27 03:16:00.000   45.709767708   13.763517274   322.4486   5   8   2.6181   1.8184   6.3415   0.4711  -0.8154   1.2673   0.00    0.0
2017/09/27 03:16:30.000   45.709762145   13.763518691   321.9239   5   8   2.6193   1.8178   6.3345   0.4520  -0.8150   1.2675   0.00    0.0
2017/09/27 03:17:00.000   45.709761418   13.763521595   321.6233   5   8   2.6206   1.8173   6.3266   0.4320  -0.8145   1.2674   0.00    0.0
2017/09/27 03:17:30.000   45.709765457   13.763526131   322.0786   5   8   2.6219   1.8168   6.3180   0.4111  -0.8140   1.2668   0.00    0.0
2017/09/27 03:18:00.000   45.709765044   13.763519015   321.8655   5   8   2.6232   1.8163   6.3086   0.3890  -0.8135   1.2659   0.00    0.0
2017/09/27 03:18:30.000   45.709765659   13.763516037   321.4247   5   8   2.6246   1.8158   6.2985   0.3655  -0.8129   1.2645   0.00    0.0
2017/09/27 03:19:00.000   45.709764263   13.763518377   321.9263   5   8   2.6259   1.8154   6.2877   0.3405  -0.8124   1.2628   0.00    0.0
2017/09/27 03:19:30.000   45.709763392   13.763521997   322.3528   5   8   2.6273   1.8150   6.2761   0.3134  -0.8117   1.2606   0.00    0.0
2017/09/27 03:20:00.000   45.709765693   13.763516082   321.8278   5   8   2.6287   1.8146   6.2639   0.2837  -0.8111   1.2581   0.00    0.0
2017/09/27 03:20:30.000   45.709765172   13.763518940   321.5598   5   8   2.6302   1.8143   6.2509   0.2505  -0.8105   1.2552   0.00    0.0
2017/09/27 03:21:00.000   45.709760621   13.763519379   323.1819   5   8   2.6317   1.8140   6.2373   0.2121  -0.8098   1.2519   0.00    0.0
2017/09/27 03:21:30.000   45.709765660   13.763519215   320.8115   5   8   2.6332   1.8137   6.2230   0.1651  -0.8091   1.2482   0.00    0.0
2017/09/27 03:22:00.000   45.709763970   13.763521425   321.9335   5   8   2.6347   1.8135   6.2081   0.0974  -0.8083   1.2441   0.00    0.0
2017/09/27 03:22:30.000   45.709763891   13.763520045   321.7168   5   8   2.6362   1.8133   6.1926  -0.0911  -0.8076   1.2397   0.00    0.0
2017/09/27 03:23:00.000   45.709762127   13.763517552   321.4130   5   8   2.6378   1.8132   6.1765  -0.1615  -0.8068   1.2349   0.00    0.0
2017/09/27 03:23:30.000   45.709766888   13.763519712   321.9808   5   8   2.6394   1.8130   6.1598  -0.2095  -0.8060   1.2297   0.00    0.0
2017/09/27 03:24:00.000   45.709765644   13.763522621   321.8140   5   8   2.6410   1.8130   6.1425  -0.2484  -0.8052   1.2241   0.00    0.0
2017/09/27 03:24:30.000   45.709760843   13.763515713   321.4537   5   8   2.6427   1.8129   6.1247  -0.2820  -0.8044   1.2182   0.00    0.0
2017/09/27 03:25:00.000   45.709764966   13.763516450   322.5437   5   8   2.6444   1.8129   6.1063  -0.3120  -0.8035   1.2120   0.00    0.0
2017/09/27 03:25:30.000   45.709761788   13.763523311   321.7689   5   8   2.6461   1.8129   6.0875  -0.3394  -0.8027   1.2054   0.00    0.0
2017/09/27 03:26:00.000   45.709766689   13.763522180   322.3432   5   8   2.6479   1.8129   6.0682  -0.3647  -0.8018   1.1984   0.00    0.0
2017/09/27 03:26:30.000   45.709764351   13.763521758   322.0030   5   8   2.6496   1.8130   6.0484  -0.3884  -0.8009   1.1912   0.00    0.0
2017/09/27 03:27:00.000   45.709763201   13.763520651   322.5981   5   8   2.6514   1.8131   6.0282  -0.4108  -0.8000   1.1835   0.00    0.0
2017/09/27 03:27:30.000   45.709762967   13.763517741   322.2394   5   9   2.5134   1.7600   5.3944   0.4292  -1.3387   1.9051   0.00    0.0
2017/09/27 03:28:00.000   45.709769041   13.763523097   320.9682   5   9   2.5124   1.7591   5.3870   0.4173  -1.3372   1.8988   0.00    0.0
2017/09/27 03:28:30.000   45.709764342   13.763518570   321.5028   5   9   2.5113   1.7582   5.3793   0.4052  -1.3355   1.8921   0.00    0.0
2017/09/27 03:29:00.000   45.709763252   13.763522143   320.2540   5   9   2.5102   1.7572   5.3711   0.3928  -1.3337   1.8850   0.00    0.0
